id,NAME,host id,host_identity_verified,host name,neighbourhood group,neighbourhood,lat,long,country,country code,instant_bookable,cancellation_policy,room type,Construction year,price,service fee,minimum nights,number of reviews,last review,reviews per month,review rate number,calculated host listings count,availability 365,house_rules,license
51205406,"Huge Cosy Room in E.Williamsburg,Rooftop &Backyard",42717496018,unconfirmed,Nadav,Brooklyn,Williamsburg,40.70867,-73.94060999999999,United States,US,False,flexible,Private room,2022,$685 ,$137 ,3,59.0,6/28/2019,1.95,3.0,2.0,77,,
51205958,Sunny 1 bedroom in the heart of Greenpoint,13880389605,verified,Caroline,Brooklyn,Greenpoint,40.724109999999996,-73.94181999999999,United States,US,False,strict,Entire home/apt,2005,"$1,036 ",$207 ,2,21.0,5/25/2018,0.94,3.0,1.0,0,"Keep in mind that you are staying in our home with us, this is not a rental property. No smoking. Please be mindful of others in our building with noise and late-night entry. No outside guests aside from those you list as staying with us. ",
51206511,Very Chic and SUPER Convenient South Harlem Apt,84634889252,verified,Patrice,Manhattan,Harlem,40.80283,-73.95569,United States,US,False,flexible,Entire home/apt,2016,"$1,170 ",$234 ,2,4.0,12/30/2017,0.2,2.0,1.0,0,,
51207063,"Gramercy Heaven, right off Park Ave",86526699682,verified,Casey,Manhattan,Midtown,40.744890000000005,-73.98382,United States,US,False,flexible,Entire home/apt,2013,"$1,043 ",$209 ,2,0.0,,,2.0,1.0,0,"Please be courteous of our neighbors!  We love them all and hope you do to! On requesting a reservation of the apartment please extend to us a description of your visit, with whom you will be traveling, and your arrival time.  Also, please make certain your picture is uploaded on to your profile.  We give preference for those who have verifications.  On confirmation of your booking, we will email to you the address, entry instructions, and other pertinent instructions.  Airbnb will collect the entire amount at the time of your reservation confirmation including the security deposit (which will be released 48 hours after your checkout date).  Our cancellation policy is strict and any cancellation outside of seven days in advance will allow for a 50 percent refund.   There will be a contract exchange for this property which will include keeping noise to respectful level, no more than six renters at a time (without express permission/acceptance from the hosts).   Guests must have a credit",
51207615,Beautiful Brooklyn 3-Bedroom Duplex,78278452129,unconfirmed,Michael,Brooklyn,Bedford-Stuyvesant,40.67948,-73.90822,United States,US,False,moderate,Entire home/apt,2018,$927 ,$185 ,2,112.0,7/7/2019,3.88,5.0,2.0,195,,
51208168,Beautiful Fort Greene triplex with Yard,20875876402,verified,Bettina,Brooklyn,Fort Greene,40.6864,-73.96882,United States,US,True,strict,Entire home/apt,2003,$620 ,$124 ,3,1.0,4/29/2019,0.42,4.0,1.0,15,- Please respect noise levels after 9pm,
51208720,Spacious Duplex Apartment in South Williamsburg,95000866556,unconfirmed,Alex,Brooklyn,Williamsburg,40.71285,-73.96477,United States,US,False,moderate,Entire home/apt,2019,$956 ,$191 ,4,42.0,6/17/2019,1.41,3.0,1.0,126,"1. Only the ORIGINAL OCCUPANTS at the time of booking are allowed to stay in the property overnight and secondly no additional guest will be brought in without prior authorization. 2. Excessive NOISE & DISTURBANCES, specifically on work nights (Sunday thru Thursday) are to be kept to a minimum after 10pm. On other nights of the week we ask that noise is kept to a controlled, restrained and respectable level do to the nature of this being a shared space. 3. SMOKING is not permitted in any of the inside premisses. You may smoke outside on the outdoor patio. 4. DAMAGES to the property and its contents (within the bedroom and the condo itself) will be subject to reinstitution in accordance to airbnb rules and regulations and may lead to the immediate dismissal from the property. 5. NO PETS allowed. 6. ENERGY: We are very energy-conscious, and ask that you turn off lights and other energy-using items when you leave the house for the day. 7. The CLEANING FEE covers the maintenance of the sha",
51209272,Williamsburg Escape - Lorimier L,66454391199,unconfirmed,Vanessa,Brooklyn,Williamsburg,40.71246,-73.95308,United States,US,True,moderate,Private room,2004,$222 ,$44 ,2,0.0,,,4.0,1.0,0,,
51209824,12 East 86th St full furnished,58182090563,unconfirmed,Raymond,Manhattan,Upper East Side,40.78046,-73.96047,United States,US,False,flexible,Entire home/apt,2018,$451 ,$90 ,30,0.0,,,5.0,10.0,164,No pets or shoes at home,
51210377,Cozy one bedroom apartment,22756612557,unconfirmed,Miles,Manhattan,Harlem,40.82777,-73.9407,United States,US,False,moderate,Entire home/apt,2011,$321 ,$64 ,1,145.0,6/30/2019,4.81,5.0,1.0,9,No pets. No smoking.,
51210929,"Cozy, sun-splashed room in two-floor apartment",54637713370,unconfirmed,Michael,Brooklyn,Williamsburg,40.71483,-73.94935,United States,US,False,flexible,Private room,2009,$601 ,$120 ,30,13.0,6/30/2019,0.47,3.0,2.0,64,"This is not a house for parties! There are two other units in the town house so noise should be kept controlled at night and in the mornings (especially when out on the deck or entering/exiting the building). Furnishings and construction are only three years old, respect and cleanliness is asked for.",
51211481,"UWS Historic Townhouse:  Renovated Kit. & Bath, 5A",65765635975,unconfirmed,Lisa,Manhattan,Upper West Side,40.783390000000004,-73.98168000000001,United States,US,True,flexible,Entire home/apt,2016,$238 ,$48 ,30,2.0,12/15/2017,0.07,2.0,8.0,125,,
51212034,"Room with the balcony, fits 3!",57025467723,unconfirmed,Simon,Manhattan,East Harlem,40.79501,-73.94448,United States,US,False,flexible,Private room,2012,$709 ,$142 ,1,109.0,7/5/2019,3.61,5.0,4.0,168,#NAME?,
51212586,Quiet comfortable  near Times Sq.,52412512487,unconfirmed,Maya,Manhattan,Hell's Kitchen,40.7586,-73.98974,United States,US,False,moderate,Private room,2015,$676 ,$135 ,2,144.0,7/1/2019,5.11,1.0,1.0,73,"No parties, no extra guests, no pets, no smoking. Please treat this space and our neighbors with respect.",
51213138,Casa Soho 2 Bedroom 2 bath,37294039793,unconfirmed,Michael,Manhattan,SoHo,40.72182,-74.00033,United States,US,True,flexible,Entire home/apt,2021,$676 ,$135 ,3,0.0,,,4.0,1.0,6,"Check-in is after 3PM Some general information about the apartment. Please try to keep it relatively quite, especially at night. Strict no parties or entertainment policy. No additional guests are allowed outside of reservation. No smoking inside the apartment or hallway. No pets allowed in the apartment. Unfortunately no young children as the house is not equipped for children under 10.   When making a booking - please have a verified email address and phone number on your airbnb account. Respect and treat the apartment as your own and how you would expect others to treat yours. Please communicate with us as soon as possible, should something go wrong during your stay, so we can try to fix it as soon as possible. Once you've confirmed the booking, please respect the apartment and don't hesitate to make it your own. We want you to feel like you are at home, so to sum it all up.. don't do things you wouldn't do at your own place We look forward to welcoming you and have a great time in ",
51213691,Light up room close to Central Park,88456399626,verified,Simon,Manhattan,East Harlem,40.79453,-73.94543,United States,US,True,strict,Private room,2015,$227 ,$45 ,1,110.0,6/16/2019,3.65,2.0,4.0,34,"I prefer guests who are in town for a reason (work or sight-seeing, etc) so they are out & about all day & in to the evening, not hanging around the condo all day.  I require my guests to leave for the day by 10AM & not return before 4PM. Please obey check-in (4PM) & check-out times (10AM). I need time to clean up after prior guest to get ready for your stay. No pets. No parties, this is a quiet building with all working professionals. When using the kitchen facilities, I ask that you tidy up after yourself (dishes in dishwasher, wipe counters down, trash in the trash barrel, etc...) and if you spill anything on the floor/furniture, please clean up after yourself.",
51214243,1 Bedroom - Beautiful and Cozy Brownstone in Bklyn,61084513589,unconfirmed,Julia,Brooklyn,Crown Heights,40.676759999999994,-73.94513,United States,US,False,moderate,Entire home/apt,2004,$817 ,$163 ,3,25.0,2/12/2019,0.91,5.0,1.0,64,,
51214795,Underground Palace,39028983748,verified,Yves,Brooklyn,East Flatbush,40.63876,-73.95073000000001,United States,US,False,flexible,Entire home/apt,2019,$962 ,$192 ,2,72.0,6/13/2019,4.07,2.0,2.0,337,My unit is one of 3 in the building.  My place is penthouse level so please just be considerate of my neighbors downstairs.,
51215347,"Private, Windsor Terrace Studio",72290260640,verified,Georgia And Kevin,Brooklyn,Windsor Terrace,40.65552,-73.97493,United States,US,True,moderate,Entire home/apt,2014,$989 ,$198 ,1,122.0,6/24/2019,4.13,2.0,1.0,127,"Internet, cable and central air included in stay. No smoking allowed in the apartment - - may smoke on the deck if cigarettes are appropriately disposed (and not flicked over the deck). Please be considerate of neighbors.  Not a party house! There are 5 other units in the building so noise should be kept controlled at night and in the mornings (especially when out on the deck). All plates and cups should be left in the sink or dishwasher and all trash should be left in the trash can (additional bags are under the sink if you need more space). If furniture is moved during your stay, please return to its original location. Please be considerate of our next guests who will be staying after you, if something is broken or needs fixing, please let me know immediately so that I can replace it.",
51215900,High Ceilings steps to Barclay Cntr,3795272034,unconfirmed,Rebekah,Brooklyn,Park Slope,40.676970000000004,-73.97406,United States,US,False,strict,Entire home/apt,2003,$687 ,$137 ,1,108.0,7/1/2019,3.62,1.0,2.0,130,"Check in/out: We typically follow the standard check in and out times (4 p.m., 11 a.m. respectively) however I'm extremely flexible and can accommodate your needs as long as it doesn't impact another renter if you have special check-in or out times.  There is a keypad lock and each renter will receive their own passcode so you can come and go as you please and not worry about keys or timing.   Pets:  I don't have any pets living at the home but I am a dog lover and know it can be difficult to find accommodations for your 4-legged family members.  Pets are welcome but please be respectful of the furniture and floors and clean up after them. Smoking:  There is no cigarette smoking in the home or on the property as there have been concerns with cigarette butts creating a fire hazard on the deck.  Please contact me if you need to discuss for your specific situation. Lock doors/windows at all times:  While the area is safe, it is still an urban environment and doors/windows need to be locke",
51216452,"Bright, Spacious, Clean Loft Space with Balcony!",82255418733,verified,Gina,Brooklyn,Bedford-Stuyvesant,40.68949,-73.9557,United States,US,True,moderate,Entire home/apt,2019,"$1,068 ",$214 ,3,9.0,1/1/2018,0.3,5.0,1.0,0,"Guests will be in my personal residence. I take great pride in my home. I ask that guest treat my home with the highest of respect. Please, no strangers or parties will be allowed! Thank you",
51217004,FAB 1BD Sunnyside Gardens Apt with Patio,69783271868,verified,Ryan,Queens,Sunnyside,40.74801,-73.91776999999999,United States,US,False,moderate,Entire home/apt,2011,$910 ,$182 ,2,0.0,,,4.0,1.0,0,"Please Note: This unit was just gut-renovated in May 2015 and it comfortably accommodates 4 guests, but up to 5 guests are permitted if you so desire (two guests in each bedroom and 1 guest on the available air mattress). Please request an air mattress (if needed) when making a reservation. No smoking, no pets, no parties, and must be 25 years old to book.   For check-out, please ensure: -  All plates and cups are left in the sink or dishwasher -  All trash is left in the kitchen trash can or bagged and left next to the trash can (additional bags are under the sink) -  All windows are closed and locked -  If used, the air mattresses are deflated and put away (please leave used linens for the air mattresses on the floor) -  If furniture was moved during your stay, please return to its original location Please be mindful to our neighbors in the building; quiet hours after 10pm. Please be considerate of our next guests who will be staying after you, if something is broken or needs fixing,",
51217557,Charming and Artsy LES 1-Bedroom,51857790321,verified,Paul,Manhattan,Lower East Side,40.717890000000004,-73.98308,United States,US,True,moderate,Entire home/apt,2013,$716 ,$143 ,28,12.0,4/22/2019,0.43,1.0,1.0,38,,
51218109,Twin bed-Close to Columbia U & Central Park,22414983014,unconfirmed,Jaleh,Manhattan,Harlem,40.80172,-73.95538,United States,US,False,moderate,Private room,2017,$586 ,$117 ,1,226.0,7/3/2019,7.75,1.0,2.0,32,,
51218661,"TRAIN NEAR, 10JFK, 30LGA CuteBedr in3Bed,Manhattan",16756737656,verified,Triny,Queens,Richmond Hill,40.68979,-73.82974,United States,US,False,strict,Private room,2003,$143 ,$29 ,1,16.0,5/20/2019,0.53,1.0,1.0,361,"1. Only the ORIGINAL OCCUPANTS at the time of booking are allowed to stay in the property overnight and secondly no additional guest will be brought in without prior authorization. 2. CHECK IN/OUT: The standard check in and out times are 4 p.m., 12 p.m., respectively. However we're flexible and can accommodate your needs as long as it doesn't impact another renter if you have special check-in or out times. There is a keypad lock and each renter will receive their own passcode so you can come and go as you please and not worry about keys or timing. 3. Excessive NOISE & DISTURBANCES, specifically on work nights (Sunday thru Thursday) are to be kept to a minimum after 10 pm. On other nights of the week we ask that noise is kept to a controlled, restrained and respectable level do to the nature of this being a shared space. 4. SMOKING is not permitted in any of the inside premises, this includes the guest room, condo unit and building. You may smoke outside in the street or on the outdoor ",
51219214,Modern & classic 3-BR apt in private brownstone,60458208310,verified,Christine,Brooklyn,Park Slope,40.67451,-73.97501,United States,US,False,strict,Entire home/apt,2015,$481 ,$96 ,2,119.0,7/5/2019,4.08,3.0,1.0,65,"Clean, no house parties, no smoking, respectful of owner's home :)",
51219766,Modern Apartment...Great Location,92681086916,unconfirmed,Raja,Queens,Astoria,40.76746,-73.92781,United States,US,True,strict,Private room,2005,$637 ,$127 ,7,0.0,,,2.0,1.0,0,,
51220318,맨하튼 소호 거리 주변 2인실,35821832745,verified,Eunjin,Manhattan,Midtown,40.75329,-73.9888,United States,US,True,moderate,Private room,2016,$990 ,$198 ,2,1.0,1/23/2017,0.03,5.0,1.0,0,,
51220870,Practical Modern 2 Bedroom Apartment on Subway,92204198309,verified,Sasha,Bronx,Fordham,40.85318,-73.90204,United States,US,True,strict,Entire home/apt,2016,$525 ,$105 ,90,10.0,3/28/2019,0.41,4.0,7.0,310,,
51221423,Private Studio Apartment in a Historic Brownstone,29293740116,verified,Jacob,Manhattan,Harlem,40.80842,-73.95568,United States,US,True,moderate,Private room,2004,$497 ,$99 ,1,132.0,6/14/2019,4.37,2.0,5.0,238,"Please Note: This unit was just gut-renovated in May 2015 and it comfortably accommodates 2 couples. No smoking, no pets, no parties, and must be 25 years old to book.   For check-out, please ensure: -  All plates and cups are left in the sink or dishwasher -  All trash is left in the kitchen trash can or bagged and left next to the trash can (additional bags are under the sink) -  All windows are closed and locked -  If used, the air mattresses are deflated and put away (please leave used linens for the air mattresses on the floor) -  If furniture was moved during your stay, please return to its original location Please be mindful to our neighbors in the building; quiet hours after 10pm. Please be considerate of our next guests who will be staying after you, if something is broken or needs fixing, please let me know, as I have an arsenal of tools and enjoy fixing things.",
51221975,Spacious & Stylish Top Floor 1BR (Whole Apt),29346419737,unconfirmed,Kimberly,Manhattan,Chinatown,40.71423,-73.99441999999999,United States,US,False,flexible,Entire home/apt,2011,$445 ,$89 ,1,65.0,6/23/2019,2.16,1.0,1.0,1,#NAME?,
51222527,Cozy Double Bedroom in Williamsburg,82129514268,verified,Ioanna,Brooklyn,Williamsburg,40.710640000000005,-73.95919,United States,US,True,strict,Private room,2015,"$1,063 ",$213 ,1,2.0,1/29/2017,0.07,5.0,1.0,0,#NAME?,
51223080,Room in East Williamsburg,77630319966,verified,Dustin,Brooklyn,Williamsburg,40.70921,-73.94144,United States,US,True,moderate,Private room,2010,$858 ,$172 ,1,2.0,3/15/2017,0.07,3.0,1.0,0,"Please , no smoking,parties or noise that may disturb the neighbors.",
51223632,Private Room in Central Manhattan,35914189567,verified,Abbi,Manhattan,Flatiron District,40.74147,-73.98577,United States,US,True,strict,Private room,2016,$526 ,$105 ,2,3.0,2/8/2017,0.1,5.0,1.0,0,,
51224184,Financial District Luxury Experience,51084393777,verified,Audrey,Manhattan,Financial District,40.70932,-74.00536,United States,US,True,strict,Private room,2014,$349 ,$70 ,5,2.0,6/9/2018,0.11,3.0,2.0,365,,
51224737,Oasis Retreat Bed-Stuy Brooklyn,78469995900,unconfirmed,Steve,Brooklyn,Bedford-Stuyvesant,40.68039,-73.94301999999999,United States,US,True,flexible,Entire home/apt,2019,$310 ,$62 ,3,57.0,6/30/2019,2.09,4.0,1.0,258,Please be respectful of the driveway and do not park in the driveway or anywhere on Barrett Ave ( as all spots are assigned to residents)  Parking on M street is fine!,
51225289,Adorable Lower East Side room with Patio,73238480676,unconfirmed,Charlotte,Manhattan,Chinatown,40.71723,-73.99162,United States,US,True,moderate,Private room,2021,$745 ,$149 ,1,0.0,,,2.0,1.0,0,No smoking inside. Please go in our backyard if you need to smoke. No pets.,
51225841,Brooklyn Pied-à-Terre 2 Bed 31 day minimum,47894955650,verified,Julian,Brooklyn,Bushwick,40.686370000000004,-73.91133,United States,US,True,moderate,Entire home/apt,2009,"$1,139 ",$228 ,31,99.0,4/30/2019,3.33,1.0,1.0,295,"There will be no pets, parties or smoking allowed on the premises.",
51226393,"Park Avenue South, Svcd Studio Apt",82430030991,verified,Ken,Manhattan,Murray Hill,40.74811,-73.97868000000001,United States,US,False,flexible,Entire home/apt,2010,$140 ,$28 ,30,1.0,5/30/2019,0.73,5.0,87.0,365,No pets. No smoking. Please :),
51226946,COZY  PRIVATE APARTMENT-HOUSE W/ EXTRA MEDIA ROOM,869319136,unconfirmed,Vilena,Queens,Jamaica,40.668929999999996,-73.77144,United States,US,False,strict,Private room,2007,"$1,172 ",$234 ,3,1.0,5/13/2017,0.04,2.0,1.0,362,,
51227498,"Centrally Located, Large, Clean, Private Bedroom",81836947507,unconfirmed,Donna,Manhattan,West Village,40.73702,-73.99739,United States,US,False,moderate,Private room,2015,$863 ,$173 ,1,0.0,,,1.0,1.0,0,"It's our house. So we'd like no extra visitors unless you ask in advance. Weekdays we like it quiet after 10.  Smoke if you must, but on the back deck please.       Oh yeah, enjoy yourself. That's required.",
51228050,"Hip, Vibrant, COLORFUL Downtown Manhattan 1 Bed",13404868211,verified,Evan,Manhattan,Chinatown,40.714890000000004,-73.99459,United States,US,False,strict,Entire home/apt,2009,$763 ,$153 ,2,45.0,7/3/2019,1.64,1.0,1.0,159,I expect guest to be kind and do not party at the house. I am on the other hand would love to provide any advice and conversation what is possible in Boston and how to enjoy the time in South Boston. ,
51228603,HUGE Master Bedroom in Remodeled Brownstone.,15983948203,verified,Josh,Brooklyn,Bedford-Stuyvesant,40.69493,-73.94525,United States,US,False,strict,Private room,2022,$291 ,$58 ,3,2.0,9/6/2018,0.17,1.0,4.0,0,,
51229155,NYC Sunny Private Flat In Heart of it All.,24562953399,unconfirmed,Kimberly,Brooklyn,Bedford-Stuyvesant,40.69318,-73.95669000000001,United States,US,True,moderate,Private room,2007,$601 ,$120 ,2,35.0,6/3/2019,1.35,5.0,4.0,139,"- No smoking inside the house, we have a porch out back :), no pets",
51229707,Modern 2 Bed 2 Bath with private roof deck,62828844878,verified,Adrian,Brooklyn,Prospect Heights,40.68237,-73.97286,United States,US,False,strict,Entire home/apt,2008,$153 ,$31 ,3,6.0,1/1/2019,0.47,1.0,1.0,0,* Please be considerate of our neighbors * Loud music and parties are not permitted * No smoking * No pets allowed,
51230260,"Fully Furnished 4bedroom/2bathroom In Brooklyn, NY",53075281878,unconfirmed,Jeanne,Brooklyn,Bushwick,40.69455,-73.91118,United States,US,False,strict,Entire home/apt,2017,"$1,106 ",$221 ,30,1.0,2/20/2018,0.06,1.0,1.0,342,,
51230812,"Female, Shared, Cozy, Huge Harlem Studio Apt",57779937378,unconfirmed,Alanah,Manhattan,Harlem,40.81335,-73.95616,United States,US,False,flexible,Shared room,2022,"$1,070 ",$214 ,1,36.0,6/30/2019,1.32,3.0,,23,,
51231364,Cozy Brooklyn Apartment,53719149882,unconfirmed,Morgan,Brooklyn,Bedford-Stuyvesant,40.6896,-73.9326,United States,US,True,flexible,Private room,2014,$636 ,$127 ,1,1.0,1/20/2017,0.03,1.0,,0,No smoking or pets in the home due to potential allergies of future guests.,
51231916,"Charming & Modern, Comfortable & Efficient 1-BR",74724661097,unconfirmed,Louis,Manhattan,East Harlem,40.79345,-73.93977,United States,US,False,flexible,Entire home/apt,2008,"$1,037 ",$207 ,3,29.0,6/28/2019,0.98,3.0,,63,,
51232469,Spacious Studio apt—1 Subway stop from Manhattan,91459015182,verified,Lucia,Bronx,Mott Haven,40.8115,-73.9258,United States,US,False,flexible,Entire home/apt,2022,$130 ,$26 ,7,0.0,,,1.0,,0,The apartment is our home 365 days of the year - we rent it only select weekends when we are away so please respect the neighbors in our building and the belongings we love. If you smoke please do so on the street. There is no smoking allowed inside the apartment or on the decks due to fire safety. We cannot accommodate guests with pets.,
51233021,Quiet place to stay in Harlem,91590952347,unconfirmed,Jose,Manhattan,Harlem,40.828179999999996,-73.9389,United States,US,True,flexible,Private room,2019,$318 ,$64 ,4,75.0,6/19/2019,2.52,5.0,,52,,
51233573,Large apartment by the park. Close to trains.,6853791461,verified,Tomek,Brooklyn,Flatbush,40.65229,-73.9603,United States,US,True,moderate,Entire home/apt,2011,"$1,189 ",$238 ,1,0.0,,,2.0,,0,"Please be respectful of my home and treat the space as if it were your own. No guests No Smoking Always turn off lights when leaving space Please clean up after yourself Always lock door when leaving and after arriving Please observe quiet hours between midnight and 7 am. Upon check-out, please leave sheets + towels on the floor of the bedroom and return key. Check in 3pm: flexible Check out 11am: strict",
51234126,Manhattan - 15 mins to Midtown!,34697200129,verified,Nidia,Manhattan,Washington Heights,40.84941,-73.93432,United States,US,False,strict,Private room,2008,"$1,070 ",$214 ,3,51.0,6/3/2019,1.78,4.0,,0,"I expect guests to treat my home as if it were their own.  Be neat and clean, considerate, and  respectful of both my home and my neighbors. There is NO additional guests permitted! NO parties! There is NO smoking in the home, NO pets, NO drugs!!! NO food in the bedrooms!! Shoes are to be take off upon entry!!",
51234678,Room in beautiful duplex brownstone with garden,30403787563,verified,Katherine,Brooklyn,Crown Heights,40.67089,-73.95473,United States,US,False,strict,Private room,2003,$88 ,$18 ,3,0.0,,,2.0,,0,"Make yourself at home, and of course, feel free to use anything in the house, but please be respectful of the space and make sure to put things back in their rightful locations. Please wash any pots/pans/dishes that you use.  No guests outside of those identified in your party. We also kindly ask that you keep loud noise to a minimum in the late evening and, needless to say, parties are not permitted.",
51235230,Private Room in Brooklyn (E.Williamsburg),25879589250,unconfirmed,Agona,Brooklyn,Williamsburg,40.70811,-73.9326,United States,US,False,moderate,Private room,2011,$754 ,$151 ,4,3.0,6/4/2017,0.12,5.0,,0,,
51235783,Huge Apartment for Experiencing New York,76835016316,unconfirmed,Clayton,Manhattan,Harlem,40.828509999999994,-73.94054,United States,US,False,strict,Private room,2009,$156 ,$31 ,1,0.0,,,1.0,,0,,
51236335,"20 min to Manhattan, Spacious 2BD in Brooklyn, NYC",68250717704,unconfirmed,Ziggy & Rome,Brooklyn,Bushwick,40.69692,-73.90831999999999,United States,US,True,moderate,Entire home/apt,2005,$838 ,$168 ,4,76.0,6/26/2019,2.61,2.0,,76,"1. Please let me know  ahead your arrival, checking out time and if you will need a parking spot, so I can plan accordingly. 2. Please keep in mind that the checking in is any time after 4 pm and checking out is by 11 am. Earlier check in and late check out must be arranged with me in advance.  3. I request the guest to be respectable and quiet specially after 10 pm. There's absolutely no parties,pets and smoking not allowed.  Please shut off all lights and electrical appliances including AC when you are not using the premises and be sure that the entry door is locked all the time.",
51236887,Spacious Artist Bedroom — 30 Min to Manhattan!,47207132484,verified,Ksenia & Masha,Brooklyn,Bedford-Stuyvesant,40.67692,-73.91541,United States,US,False,strict,Private room,2008,"$1,050 ",$210 ,3,16.0,6/8/2019,0.53,3.0,6.0,57,,
51237439,Delight in Your Home Away from Home in NYC!,79027521763,unconfirmed,Paul,Bronx,Soundview,40.82987,-73.86608000000001,United States,US,False,strict,Entire home/apt,2016,$872 ,$174 ,2,105.0,6/11/2019,3.61,3.0,1.0,131,"WHEN BOOKING, PLEASE PROVIDE THE FOLLOWING IN YOUR MESSAGE to me:  - 1. Total number of guests (adults, children, babies)? Are there any elderly or children under 18? If so, what are their ages?  - 2. Arrival Date AND Time of Check In? (Check In between 2 pm and 9 pm with some leniency)  - 3. Departure Date (Check out before 12 pm/noon ideally)  - 4. Please tell me a little about yourselves and the purpose of your trip.  - 5. What Other Needs or Special Requests or Extra Options (please read below for additional options and possible related additional fees).  ------  PLEASE NOTE THE FOLLOWING BEFORE REQUESTING A BOOKING:  * I will reply as soon as possible to let you know if my apartment will be available for ALL your needs.  - 1. We are happy to host Friendly, Neat, Low-Maintainence Adults & Well-Behaved Children.  ---- All cookware and utensils in the kitchen are at your disposal. There will be water (brita) and basic condiments provided for you. We ask that you rinse whatever dishes",
51237992,Cozy sunny NYC/BK view,72658042343,verified,Wesly/Jessica,Brooklyn,Crown Heights,40.673559999999995,-73.9321,United States,US,True,strict,Private room,2003,$984 ,$197 ,2,101.0,6/24/2019,3.4,2.0,4.0,329,No pets. No smoking. Please :),
51238544,The Happy Hideaway,23909377668,unconfirmed,Jenn,Brooklyn,South Slope,40.6618,-73.98234000000001,United States,US,False,flexible,Entire home/apt,2019,"$1,162 ",$232 ,2,12.0,1/1/2019,0.9,1.0,2.0,0,#NAME?,
51239096,1 Bedroom in Great Brooklyn Neighborhood,74075284140,unconfirmed,Robert,Brooklyn,Bay Ridge,40.63295,-74.03028,United States,US,False,flexible,Entire home/apt,2006,$107 ,$21 ,60,1.0,8/20/2018,0.09,3.0,1.0,358,This is my 2 family house and upstairs in the 2nd apartment I have other tenants who are great. ,
51239649,Large Studio New York-Bronx comfortable,55834230054,unconfirmed,Pietro,Bronx,Morris Park,40.849059999999994,-73.85418,United States,US,False,flexible,Private room,2022,$702 ,$140 ,3,14.0,6/17/2019,0.61,2.0,1.0,138,"1. Only the ORIGINAL OCCUPANTS at the time of booking are allowed to stay in the property overnight and secondly no additional guest will be brought in without prior authorization. 2. Excessive NOISE & DISTURBANCES, specifically on work nights (Sunday thru Thursday) are to be kept to a minimum after 10pm. On other nights of the week we ask that noise is kept to a controlled, restrained and respectable level do to the nature of this being a shared space.  3. SMOKING is not permitted in any of the inside premisses, this includes the guest room, condo unit and building. You may smoke outside in the street or on the outdoor patio. 4. DAMAGES to the property and it's contents (within the bedroom and the condo itself) will be subject to reinstitution in accordance to airbnb rules and regulations and may lead to the immediate dismissal from the property. 5. WASHER & DRYER is available for use by the guest free of charge but under the condition that we (the host) are present at the time of use",
51240201,Clean & Large room hearth of NYC Midtown!!,81811054031,verified,Tomas,Manhattan,Midtown,40.75481,-73.96982,United States,US,False,moderate,Private room,2020,$741 ,$148 ,9,53.0,5/12/2019,1.79,5.0,1.0,15,"1. Only the ORIGINAL OCCUPANTS at the time of booking are allowed to stay in the property overnight and secondly no additional guest will be brought in without prior authorization. 2. Excessive NOISE & DISTURBANCES, specifically on work nights (Sunday thru Thursday) are to be kept to a minimum after 10pm. On other nights of the week we ask that noise is kept to a controlled, restrained and respectable level do to the nature of this being a shared space.  3. SMOKING is not permitted in any of the inside premisses, this includes the guest room, condo unit and building. You may smoke outside in the street or on the outdoor patio. 4. DAMAGES to the property and it's contents (within the bedroom and the condo itself) will be subject to reinstitution in accordance to airbnb rules and regulations and may lead to the immediate dismissal from the property. 5. WASHER & DRYER is available for use by the guest free of charge but under the condition that we (the host) are present at the time of use",
51240753,"Luxurious & Modern, Private Deck + Great location",66436670643,verified,Lee,Brooklyn,Prospect Heights,40.68018,-73.96422,United States,US,False,flexible,Entire home/apt,2020,$439 ,$88 ,2,154.0,6/21/2019,5.2,3.0,1.0,235,,
51241306,Private bedroom,49467671565,unconfirmed,Anamaria & Ricardo,Manhattan,East Harlem,40.78805,-73.94924,United States,US,True,strict,Private room,2004,$337 ,$67 ,6,2.0,1/1/2018,0.11,2.0,2.0,0,,
51241858,"Quiet cozy apartment, air-conditioned room",66509141668,verified,Danielle,Manhattan,Washington Heights,40.84353,-73.94201,United States,US,True,flexible,Private room,2004,"$1,040 ",$208 ,3,34.0,5/31/2019,1.46,3.0,1.0,139,"There will be a contract exchange for this property which will include such things as keeping noise to respectful level, no more than six renters at a time, no pets, no smoking.  Must have a credit card to put on file in case of damages.  Must provide copy of license or passport. **All people are counted including infants toward the number in your group *** We will decline alterations that are made after you check in the unit.  We follow the cancelation policy. **** Lost keys will be charged a $200 fee *****No parties",
51242410,Empire Room in Spacious Apartment,98547520915,verified,Igam,Brooklyn,Gravesend,40.589059999999996,-73.98245,United States,US,True,strict,Private room,2020,$427 ,$85 ,3,52.0,6/9/2019,1.78,2.0,2.0,0,,
51242962,Cozy West Village Studio,41930535876,verified,Natasha,Manhattan,Greenwich Village,40.73239,-73.9996,United States,US,True,flexible,Entire home/apt,2004,$589 ,$118 ,2,15.0,10/28/2018,0.57,3.0,1.0,0,"As this is our personal living space, we request that there be no smoking indoors and that you treat our belongings with respect. Pets are allowed, provided they are well behaved and low shedding :) We own a dog (who will not be on premises during your stay), who does shed, although we will have the place cleaned prior to your arrival. However, anyone with potential allergies should be aware.  If it would be possible, we would greatly appreciate if guests would provide water for our plants a couple of times during their stay. There are only 4 total and they are conveniently located right in the kitchen. Three are herb plants (basil, thyme and aloe) and you are welcome to use any while you are there!",
51243515,Sunny private room in Homecrest Ave Brooklyn,39651336592,unconfirmed,Sam,Brooklyn,Sheepshead Bay,40.593379999999996,-73.9579,United States,US,False,flexible,Private room,2012,$636 ,$127 ,2,82.0,6/23/2019,2.79,5.0,3.0,35,No smoking.  No pets.,
51244067,Beautiful Manhattan apt. blocks from Central Park,91283102189,verified,Monica,Manhattan,Harlem,40.80249,-73.95622,United States,US,True,flexible,Private room,2003,$553 ,$111 ,5,2.0,4/25/2019,0.16,4.0,1.0,24,"1. Only the ORIGINAL OCCUPANTS at the time of booking are allowed to stay in the property overnight and secondly no additional guest will be brought in without prior authorization. 2. Excessive NOISE & DISTURBANCES, specifically on work nights (Sunday thru Thursday) are to be kept to a minimum after 10pm. On other nights of the week we ask that noise is kept to a controlled, restrained and respectable level do to the nature of this being a shared space.  3. SMOKING is not permitted in any of the inside premisses, this includes the guest room, condo unit and building. You may smoke outside in the street or on the outdoor patio. 4. DAMAGES to the property and it's contents (within the bedroom and the condo itself) will be subject to reinstitution in accordance to airbnb rules and regulations and may lead to the immediate dismissal from the property. 5. WASHER & DRYER is available for use by the guest free of charge but under the condition that we (the host) are present at the time of use",
51244619,Large NYC room billionaires row 5 min CentralPark!,36842019856,verified,Natalie,Manhattan,Upper East Side,40.76404,-73.96547,United States,US,False,moderate,Private room,2019,$492 ,$98 ,3,79.0,6/23/2019,2.75,1.0,1.0,107,"Please enjoy your stay while also respecting the apartment. Please no smoking, no guests except those on reservation, and no parties. Thank you and enjoy!",
51245172,Room 14,16160332782,verified,Justine,Bronx,University Heights,40.8562,-73.90899,United States,US,True,moderate,Private room,2020,$673 ,$135 ,3,36.0,6/10/2019,1.26,3.0,5.0,365,No pets. No smoking.,
51245724,Wonderful island life in NYC,49365764613,verified,Tiffany,Manhattan,Roosevelt Island,40.76335,-73.94937,United States,US,True,strict,Private room,2004,$371 ,$74 ,1,99.0,6/6/2019,3.47,4.0,2.0,156,,
51246276,GORGEOUS Very Large Room next to Central Park!,64932637596,verified,Mike,Manhattan,Upper East Side,40.762809999999995,-73.96718,United States,US,False,strict,Private room,2006,"$1,076 ",$215 ,3,67.0,6/29/2019,2.26,4.0,1.0,99,,
51246829,Sunny And Renovated Greenwich Village Apartment!,76568670527,unconfirmed,Davide,Manhattan,Greenwich Village,40.72851,-73.99985,United States,US,False,moderate,Entire home/apt,2004,$93 ,$19 ,3,9.0,6/6/2019,0.38,1.0,1.0,0,,
51247381,Spacious Room in East Village Oasis,80777058748,unconfirmed,Michal,Manhattan,East Village,40.72931,-73.98258,United States,US,True,flexible,Private room,2016,$652 ,$130 ,6,5.0,6/18/2019,0.21,1.0,1.0,0,"Make yourself at home, and of course, feel free to use anything in the house, but please be respectful of the space and make sure to put things back in their rightful locations. Please wash any pots/pans/dishes that you use.  Please, no smoking in the property whatsoever. Please, no guests outside of those identified in your party. We also kindly ask that you keep loud noise to a minimum in the late evening and, needless to say, parties are not permitted.",
51247933,Small Brooklyn Gem 25 Minutes Away from the City,48163790791,unconfirmed,Shay,Brooklyn,East Flatbush,40.65071,-73.94508,United States,US,False,moderate,Private room,2014,$544 ,$109 ,30,6.0,8/15/2017,0.2,4.0,3.0,280,"My main rule is mutual respect. Please keep all personal items intact as this is my main residence. There's plenty of space for your comfort. If something breaks or doesn't work, please let me know. It may not be valuable, but I'd like to have it fixed for the next guest. Out of respect to the neighbors, no parties please. There are 3 other units in the condo building and they're all working professionals. Please take care of the hardwood floors and the hallway walls. Don't drag bags across the floors or scuff the hallways. Pets and smoking are not allowed. Must have a credit card to put on file in case of damages. Must provide copy of license or passport, as well as names of all guests. ",
51248485,Sunny peaceful eclectic Williamsburg apartment,22911624728,unconfirmed,Arden,Brooklyn,Williamsburg,40.71609,-73.94791,United States,US,False,flexible,Private room,2009,$320 ,$64 ,3,7.0,6/3/2019,0.24,1.0,1.0,0,Guest are to be respectful to the other tenants and keep noise levels down. No smoking in the building or the unit.,
51249038,Sunny 2 bdrm Park Slope Apt w/ Yard 3min to Subway,31146578499,unconfirmed,Jason,Brooklyn,South Slope,40.666,-73.9902,United States,US,False,moderate,Entire home/apt,2007,$575 ,$115 ,4,88.0,7/4/2019,4.41,3.0,1.0,20,,
51249590,COZY at MOTT,60474316210,unconfirmed,Wen,Manhattan,Little Italy,40.71909,-73.99562,United States,US,True,flexible,Entire home/apt,2008,"$1,015 ",$203 ,7,10.0,1/7/2019,0.44,5.0,1.0,43,"Please be courteous of our neighbors! We love them all and hope you do to! Sorry but we absolutely cannot have loud parties or excessive drinking in the house. On requesting a reservation of the apartment please extend to us a description of your visit, with whom you will be traveling, and your arrival time. Also, please make certain your picture is uploaded on to your profile. We give preference for those who have verifications. On confirmation of your booking, we will email to you the address, entry instructions, and other pertinent instructions. Airbnb will collect the entire amount at the time of your reservation confirmation including the security deposit. Our cancellation policy is strict and any cancellation outside of 30 days in advance will allow for no refund. There will be a contract exchange for this property which will include keeping noise to respectful level, general house rules, etc. These rules must be signed in order for us to accommodate you. Guests must have a credi",
51250142,"Bright Modern Apt near Major Trains! A, C, J, Z, L",43529410684,unconfirmed,Yngrid And Jiovanni,Brooklyn,East New York,40.674490000000006,-73.89053,United States,US,True,flexible,Entire home/apt,2005,$259 ,$52 ,3,65.0,7/2/2019,2.43,2.0,2.0,132,,
51250695,1 Bedroom in a gorgeous brownstone in South Harlem,92681123093,verified,Adam,Manhattan,East Harlem,40.80964,-73.93964,United States,US,False,strict,Entire home/apt,2005,$426 ,$85 ,2,2.0,2/5/2017,0.07,4.0,1.0,0,"No smoking inside the apartment. Please respect the space, and quiet hours 10pm-6am. Love pets, but we cannot allow them in the building. I do ask that you do not leave lights and/or AC unit on all day or while you are not at the apartment to save some electricity. If you use the kitchen, please tidy up after yourself by wiping down counters, putting dishes in the dishwasher, and cleaning any messes with supplies underneath the kitchen sink.",
51251247,Furnished 1BR on Prospect Park,27237480747,unconfirmed,Caleb,Brooklyn,Flatbush,40.650090000000006,-73.96336,United States,US,True,strict,Private room,2012,$123 ,$25 ,180,0.0,,,2.0,1.0,179,Shoes off inside the room. No pets no friends sleep over no party please.,
51251799,Nice bedroom. Sleeps 2.,20171071717,unconfirmed,Kate,Manhattan,East Harlem,40.80055,-73.94100999999999,United States,US,False,strict,Private room,2011,$800 ,$160 ,1,99.0,6/29/2019,3.31,3.0,,112,"No pets and no smoking (including outside near the entrance, as it sometimes blows back into the building). Please remove your shoes when entering (we have sensitive floors :)). Thank you!",
51252352,Spacious Private Access Near Trains M - L and J,90156593094,verified,Juan,Brooklyn,Bushwick,40.69228,-73.91399,United States,US,True,flexible,Private room,2006,$800 ,$160 ,2,90.0,7/7/2019,3.1,4.0,,308,"1. Only the ORIGINAL OCCUPANTS at the time of booking are allowed to stay in the property overnight and secondly no additional guest will be brought in without prior authorization. 2. CHECK IN/OUT: I typically follow the standard check in and out times (4 pm, 12 pm, respectively) however we're flexible and can accommodate your needs as long as it doesn't impact another renter if you have special check-in or out times. There is a keypad lock and each renter will receive their own passcode so you can come and go as you please and not worry about keys or timing. 3. Excessive NOISE & DISTURBANCES, specifically on work nights (Sunday thru Thursday) are to be kept to a minimum after 10 pm. On other nights of the week we ask that noise is kept to a controlled, restrained and respectable level do to the nature of this being a shared space. 4. SMOKING is not permitted in any of the inside premises, this includes the guest room, condo unit and building. You may smoke outside in the street or on ",
51252904,Private bedroom with queen bed and  single bed.,15358305979,unconfirmed,Kate,Manhattan,East Harlem,40.79933,-73.94272,United States,US,False,strict,Private room,2021,$935 ,$187 ,1,102.0,7/6/2019,3.43,1.0,,81,No pets. No smoking.,
51253456,"Clean, Cozy Private Room with TV Uptown Manhattan",30728229581,unconfirmed,Rina,Manhattan,Washington Heights,40.83935,-73.94019,United States,US,False,flexible,Private room,2018,$251 ,$50 ,2,90.0,7/2/2019,3.11,4.0,,14,"No smoking inside the apartment, please leave shoes at the door, turn lights off when not in use. No parties.",
51254008,Brooklyn less than 30 min from manhattan (subway),90523193444,verified,Carl,Brooklyn,Crown Heights,40.67219,-73.92168000000001,United States,US,False,flexible,Entire home/apt,2021,$395 ,$79 ,3,72.0,6/9/2019,2.48,1.0,,19,,
51254561,Newly renovated and cozy 1-bedroom in Brooklyn,97117720899,verified,Mario,Brooklyn,Bay Ridge,40.63473,-74.02833000000001,United States,US,True,strict,Entire home/apt,2004,$556 ,$111 ,2,109.0,6/23/2019,3.67,1.0,,216,"1. Only the ORIGINAL OCCUPANTS at the time of booking are allowed to stay in the property overnight and secondly no additional guest will be brought in without prior authorization. 2. CHECK IN/OUT: We typically follow the standard check in and out times (4 p.m., 11 p.m. respectively) however we're flexible and can accommodate your needs as long as it doesn't impact another renter if you have special check-in or out times. There is a keypad lock and each renter will receive their own passcode so you can come and go as you please and not worry about keys or timing. 3. Excessive NOISE & DISTURBANCES, specifically on work nights (Sunday thru Thursday) are to be kept to a minimum after 10 pm. On other nights of the week we ask that noise is kept to a controlled, restrained and respectable level do to the nature of this being a shared space. 4. SMOKING is not permitted in any of the inside premises, this includes the guest room, condo unit and building. You may smoke outside in the street or",
51255113,Beautiful East Village Studio,6030291565,unconfirmed,Nadine,Manhattan,East Village,40.72885,-73.98103,United States,US,False,strict,Entire home/apt,2021,"$1,151 ",$230 ,7,11.0,8/21/2018,0.39,4.0,,0,,
51255665,Modern Apt in Townhouse in Williamsburg prime!,40121899542,verified,Jaime,Brooklyn,Williamsburg,40.71286,-73.96084,United States,US,False,moderate,Entire home/apt,2012,$922 ,$184 ,5,31.0,11/4/2018,1.39,4.0,,291,No hosting of events,
51256218,"Michael's Cozy Studio Central Park, Subway 1,A B C",81190547007,verified,Michael,Manhattan,Morningside Heights,40.804320000000004,-73.96694000000001,United States,US,True,moderate,Entire home/apt,2018,$988 ,$198 ,2,56.0,1/15/2018,1.9,4.0,,0,,
51256770,!!!Living&Working. Beautiful Coliving on Flatbush,98004194700,verified,Valentin,Brooklyn,East Flatbush,40.64513,-73.9488,United States,US,False,flexible,Shared room,2006,$894 ,$179 ,30,3.0,6/20/2018,0.13,2.0,,365,,
51257322,Hey!!! Check out this apt. On our new link!!!,84891528603,verified,Richard,Manhattan,Chelsea,40.74814,-74.00372,United States,US,False,moderate,Entire home/apt,2016,$910 ,$182 ,1,27.0,12/13/2018,1.83,4.0,,189,,
51257875,"East 63rd street, Studio Serviced Apartment",17481963456,unconfirmed,Ken,Manhattan,Upper East Side,40.76347,-73.9631,United States,US,True,flexible,Entire home/apt,2018,$417 ,$83 ,30,0.0,,,3.0,,287,"Check In/ Check Out: We are flexible regarding to check in time, but please notice us ahead of time to make sure your check in goes smoothly.  We would like to be home to greet you, but often times we are away at work.  If so, we will leave you the keys for self check in.  Please refer check out time as 11AM and kindly inquire if you require a different check out time. Shoes Off: Please kindly take your shoes off at the entrance. Dog: Rosco will bark when you approach the house, but he is very friendly and he is just doing his job guarding the house.  Please kindly do not leave any food out or leave them in your room and close the door while staying, since Rosco has excellent nose and skill to get to food/garbage.  Smoking: There is strictly no smoking in or outside of the house.  Bring Home guests: Please inform us ahead of time if you would like to bring friends to the house.  Kitchen Use: Please keep kitchen use to prepare snacks or coffee/tea.  Please only use the stove when we are",
51258427,Perfect Cobble Hill Apartment for Two,91665388241,unconfirmed,Kate,Brooklyn,Cobble Hill,40.68687,-73.99471,United States,US,True,flexible,Entire home/apt,2014,$884 ,$177 ,2,15.0,6/22/2019,0.53,5.0,1.0,162,"We are flexible & accommodating, but just expect guests to be respectful to us and our neighbors  - particularly during late hours.",
51258979,Windowside Orchard Street Room in Lower East Side!,20166237052,unconfirmed,D,Manhattan,Lower East Side,40.71863,-73.98958,United States,US,True,flexible,Private room,2011,$669 ,$134 ,1,66.0,6/22/2019,2.19,3.0,3.0,334,"Respect and treat the property as there own. No smoking inside and sorry, as much as we love them, no pets. A guest information sheet will be provided upon check in which includes emergency contact information. Guests assume all liability and hold host harmless for any and all liability from accidents, property damage and other calamities that may arise during guests' stay.",
51259531,Loft -- Master Bedroom w/ Ensuite in Heart of LES,17172955400,unconfirmed,Andrew,Manhattan,Lower East Side,40.718920000000004,-73.98958,United States,US,False,strict,Private room,2016,$346 ,$69 ,20,0.0,,,1.0,1.0,0,Must be clean and respectful. if you come back late must be quiet if roommates are sleeping. Have fun! ages ~20-35 only!,
51260084,Sunny Ditmas Park Carriage House (Events Listing),80397336527,unconfirmed,Jed,Brooklyn,Flatbush,40.64335,-73.96745,United States,US,False,flexible,Entire home/apt,2018,$483 ,$97 ,1,1.0,4/2/2019,0.31,4.0,2.0,365,"Please respect our space and our neighbors by not smoking or being loud. No parties. Please leave the apartment as you found it. Unfortunately, pets are not allowed!",
51260636,Spacious room in North Williamsburg/Greenpoint,11188622558,unconfirmed,Helen,Brooklyn,Greenpoint,40.726009999999995,-73.95501999999999,United States,US,True,flexible,Private room,2009,$206 ,$41 ,2,1.0,5/6/2018,0.07,5.0,1.0,0,,
51261188,Beautiful little bedroom + private living room,64816796551,unconfirmed,Marianne,Brooklyn,Prospect Heights,40.67308,-73.96294,United States,US,True,moderate,Private room,2016,$715 ,$143 ,1,171.0,6/23/2019,5.85,1.0,2.0,215,No pets. No smoking.,
51261741,Private room in Brooklyn,80945654556,verified,Nika Nurkyz,Brooklyn,Sheepshead Bay,40.60738,-73.955,United States,US,False,moderate,Private room,2019,$981 ,$196 ,3,0.0,,,3.0,1.0,0,"Shoes off in the house, no smoking.",
51262293,"Large, Sunny Room in 2 Story 2 Bedroom Corner Unit",39789099582,unconfirmed,Joshua,Brooklyn,Bushwick,40.69749,-73.9336,United States,US,True,flexible,Private room,2022,$188 ,$38 ,9,0.0,,,5.0,3.0,0,,
51262845,"5m walk to L, Great Location ❤️ Priv. Bath/Balcony",60385643222,unconfirmed,Benjamin,Brooklyn,Williamsburg,40.71842,-73.94467,United States,US,False,moderate,Private room,2006,$412 ,$82 ,5,66.0,6/11/2019,2.24,5.0,1.0,25,,
51263398,Family friendly 2 bedroom apartment on Homecrest,63933312506,verified,Sam,Brooklyn,Sheepshead Bay,40.59425,-73.95922,United States,US,False,moderate,Entire home/apt,2017,$179 ,$36 ,2,41.0,7/4/2019,1.52,3.0,3.0,29,,
51263950,Clinton hill paradise,98417533314,unconfirmed,Laura,Brooklyn,Clinton Hill,40.69559,-73.96998,United States,US,True,flexible,Private room,2008,"$1,131 ",$226 ,7,1.0,12/16/2017,0.05,3.0,1.0,0,,
51264502,Spacious 1 bdrm apt in amazing location,95135232490,unconfirmed,Peter,Queens,Ridgewood,40.70475,-73.91081,United States,US,False,flexible,Entire home/apt,2011,$642 ,$128 ,2,2.0,5/21/2017,0.08,4.0,1.0,0,,
51265054,"Queen Sized Bed Townhouse Apartment, Near Subway",47681467997,unconfirmed,Susy,Brooklyn,Bushwick,40.6821,-73.90856,United States,US,True,moderate,Private room,2019,$560 ,$112 ,2,54.0,6/14/2019,1.87,4.0,4.0,179,"Feel free to wear house slippers to keep the place feeling fresh and cozy. No frying fish (or preparing other foods with strong odors). Absolutely No Smoking inside the house (OK on the back porch, only).",
51265607,Stylish Private Room + Bath in the Heart of LES,80204896747,unconfirmed,Matt & Kathleen,Manhattan,Lower East Side,40.7219,-73.98716999999999,United States,US,False,moderate,Private room,2021,$711 ,$142 ,2,100.0,6/24/2019,3.34,,1.0,145,No pets and no smoking. Please remove your shoes when entering. We have very sensitive floors and would like to keep them looking new ;),
51266159,Cozy Room Close to JFK!!,39341135287,verified,Malini,Queens,Jamaica,40.67949,-73.79841,United States,US,True,moderate,Private room,2010,$620 ,$124 ,1,392.0,7/6/2019,13.15,,1.0,71,,
51266711,Large Room in Home with Backyard Near Metro,58345876314,verified,Armando,Bronx,Fordham,40.87035,-73.89335,United States,US,False,flexible,Private room,2008,$516 ,$103 ,3,86.0,6/24/2019,2.88,,10.0,78,"No pets and no smoking (including outside near the entrance, as it sometimes blows back into the building). Please remove your shoes when entering (we have sensitive floors :)). Thank you!",
51267264,"Modern, Cozy Room in Stunning Harlem Brownstone",10812067126,unconfirmed,Shaun,Manhattan,Harlem,40.81884,-73.94579,United States,US,False,strict,Private room,2007,$118 ,$24 ,3,4.0,5/22/2017,0.15,,1.0,87,,
51267816,Prime location homestay in Brooklyn sunset park,46431436449,unconfirmed,Lun,Brooklyn,Sunset Park,40.63964,-74.01975,United States,US,True,moderate,Private room,2018,$262 ,$52 ,4,1.0,1/30/2017,0.03,,1.0,0,,
51268368,Cozy Room in Home with Backyard Near Metro,83071568239,verified,Armando,Bronx,Fordham,40.86925,-73.89534,United States,US,False,flexible,Private room,2014,$615 ,$123 ,3,101.0,6/23/2019,3.43,2.0,10.0,83,,
51268921,Cozy Bedroom in the Heart of Downtown Manhattan,25327809348,verified,Kaitlin,Manhattan,Lower East Side,40.72275,-73.98918,United States,US,False,strict,Private room,2008,"$1,020 ",$204 ,4,0.0,,,5.0,1.0,0,"No pets and no smoking (including outside near the entrance, as it sometimes blows back into the building). Please remove your shoes when entering (we have sensitive floors :)). Thank you!",
51269473,"Sunny, Quiet Oasis w/ Elevator - Close to Subway!",37806790048,verified,Mike,Manhattan,Upper East Side,40.77328,-73.94981999999999,United States,US,False,moderate,Private room,2020,$383 ,$77 ,3,7.0,5/27/2019,0.24,5.0,3.0,0,"No loud parties, no extra guests, no pets, no smoking. Please treat this space with respect, especially as we have put so much care and love into designing it!",
51270025,Park Slope - Bright Spacious Sunny Room - Flexible,54936640024,unconfirmed,Isroel,Brooklyn,Windsor Terrace,40.65815,-73.9817,United States,US,False,moderate,Private room,2022,$134 ,$27 ,7,0.0,,,4.0,1.0,0,,
51270577,Big bright cozy room to call home,86907845727,unconfirmed,Bianca,Brooklyn,Windsor Terrace,40.655590000000004,-73.97797,United States,US,True,strict,Private room,2011,$690 ,$138 ,30,5.0,6/30/2019,0.18,5.0,1.0,126,"• Check-in time is 2PM. NO SMOKING, DRUGS, PETS or SHOES in the house! I love my home and like to keep it clean. No food or drink on the couch to avoid spills. Please treat it with care and tidy up after yourselves. Thank you!",
51271130,!!!Co-Housing taken to the Next Level /Flatbush/2,71761434424,unconfirmed,Valentin,Brooklyn,East Flatbush,40.644709999999996,-73.9495,United States,US,True,moderate,Shared room,2017,$385 ,$77 ,30,1.0,8/10/2018,0.09,2.0,7.0,365,,
51271682,1BR Spacious Luxury Apartment in Williamsburg BK,39923384327,verified,Michael & Hanako,Brooklyn,Williamsburg,40.71778,-73.95503000000001,,,,,Entire home/apt,2015,"$1,185 ",$237 ,4,7.0,4/16/2018,0.24,4.0,1.0,0,"No pets and no smoking (including outside near the entrance, as it sometimes blows back into the building). Please remove your shoes when entering (we have sensitive floors :)). Thank you!",
51272234,Room w/ terrace in house w/ backyard Williamsburg!,21108777656,unconfirmed,Valentine,Brooklyn,Williamsburg,40.70833,-73.93916,,,,,Private room,2015,"$1,139 ",$228 ,12,9.0,5/27/2019,0.37,5.0,1.0,11,- I've lived here over 14  years.  Love it!  But I met a girl and moved to the burbs. You will enjoy everything about location and amenities!,
51272787,Wonderful Apartment Upper West Side Midtown,72441004046,unconfirmed,Jonathan,Manhattan,Upper West Side,40.77016,-73.98125999999999,,,,,Entire home/apt,2022,$78 ,$16 ,7,0.0,,,3.0,1.0,0,"-Leave the apartment as you found it.  -Quiet time starts at 9pm. -Wearing shoes is okay, unless its raining or snowing. -Please respect us and our neighbors by not having any additional guests.  -Smoking is strictly prohibited. -No pets. -No packages may be sent to the house without host approval.",
51273339,Amazing One Bedroom Apt,63569806723,unconfirmed,Jeffrey,Brooklyn,Bedford-Stuyvesant,40.6808,-73.93753000000001,,,,,Entire home/apt,2019,$467 ,$93 ,30,9.0,4/27/2019,0.34,1.0,3.0,319,,
51273891,The Gramercy East,82992882228,unconfirmed,Ritchy,Manhattan,Gramercy,40.73575,-73.98,,,,,Entire home/apt,2019,"$1,031 ",$206 ,2,3.0,9/29/2018,0.12,4.0,1.0,3,"We are seeking responsible and respectful guests for our unique property. Please do not smoke in the apartment, and refrain from loud noise after 11pm. Accommodations can be made for other lengths of stay, as well as for pets. Feel free to reach out with questions or concerns and we will respond within 24hrs, usually sooner. Strict cancellation policies apply, please refer to Airbnb's terms.",
51274444,quintessential modern Brooklyn loft** ONLY TONIGHT,33719946926,unconfirmed,Jeremy,Brooklyn,DUMBO,40.702870000000004,-73.98518,United States,US,True,flexible,Private room,2017,$451 ,$90 ,7,0.0,,,4.0,1.0,0,,
51274996,Private One Bedroom/5 min. walk to train,11634953400,unconfirmed,Monica,Queens,Ditmars Steinway,40.77235,-73.91789,United States,US,True,flexible,Private room,2015,$184 ,$37 ,5,3.0,9/4/2017,0.11,2.0,1.0,88,,
51275548,"Large, Sunny Studio in the heart of Chelsea.",2477107287,unconfirmed,Eunice,Manhattan,Chelsea,40.74089,-74.00001999999999,United States,US,False,strict,Entire home/apt,2021,$695 ,$139 ,2,,1/1/2019,0.13,1.0,1.0,0,,
51276100,Cute Room Perfect Downtown Location,52628334298,verified,Paulien,Manhattan,Little Italy,40.72043,-73.99706,United States,US,True,flexible,Private room,2017,$287 ,$57 ,3,0.0,,,1.0,1.0,0,,
51276653,✪ Stay Together in Style ✪ 2BR / 3 Bed ✪ Best Area,54333643170,verified,Cami,Manhattan,Lower East Side,40.72293,-73.98918,United States,US,False,flexible,Entire home/apt,2016,$898 ,$180 ,4,72.0,6/23/2019,2.94,4.0,1.0,109,,
51277205,New studio in Murray Hill,96967540666,verified,Cynthia,Manhattan,Murray Hill,40.749759999999995,-73.97444,United States,US,True,flexible,Entire home/apt,2008,"$1,007 ",$201 ,2,0.0,,,5.0,1.0,0,,
51277757,"Sunny, Modern East Village 1BR w/ 24-hr doorman",12735774414,verified,Hilary,Manhattan,East Village,40.72979,-73.98917,United States,US,True,strict,Entire home/apt,2014,$862 ,$172 ,5,29.0,6/4/2019,0.98,5.0,1.0,0,"Thank you for your reservation. By placing your reservation online you indicated that you accepted the terms and conditions which have been printed below.  Please review your reservation summary as below - then print, sign and return the agreement to:  (EMAIL HIDDEN) or fax it to (PHONE NUMBER HIDDEN) or  mail it to: Spare Suite, Inc., 119 Braintree Street, Suite 510, Boston, MA 02134, USA Upon receipt, we will send you the welcome document with check in instructions and how to get your keys. ------------------------------------------------------------------------ ------------------------------------------------------------------------ Terms of the Agreement: BOOKING AND REFUND POLICY Once booked your reservation is guaranteed for the check in and check out times and dates specified. All reservations must be paid in advance, in full for the entire period of stay.  All reservations are final, and NON REFUNDABLE UNDER ANY CIRCUMSTANCES.  If you feel you may need to cancel once booked, yo",
51278310,"! ! ! Coliving: live, work, create",72952532583,unconfirmed,Valentin,Brooklyn,East Flatbush,40.651509999999995,-73.94957,United States,US,False,strict,Shared room,2014,$88 ,$18 ,30,0.0,,,3.0,7.0,365,,
51278862,!!!Outpost Coliving . Flatbush. Cozy shared room,68663395961,unconfirmed,Valentin,Brooklyn,Flatbush,40.64476,-73.96473,United States,US,False,moderate,Shared room,2022,"$1,100 ",$220 ,30,0.0,,,2.0,7.0,365,,
51279414,Outpost Coliving. Great shared apartment Flatbush,95475931391,unconfirmed,Valentin,Brooklyn,East Flatbush,40.64136,-73.94705,United States,US,True,strict,Shared room,2005,$907 ,$181 ,30,0.0,,,1.0,7.0,365,#NAME?,
51279967,Great Bed Stuy Room Near Williamsburg & Bushwick,60017092274,verified,Ryan,Brooklyn,Bedford-Stuyvesant,40.68785,-73.94261999999999,United States,US,False,moderate,Private room,2016,$319 ,$64 ,7,2.0,3/7/2017,0.07,3.0,1.0,0,,
51280519,South Williamsburg bedroom with big bay windows,11521739137,unconfirmed,Alex,Brooklyn,Williamsburg,40.70942,-73.96330999999999,United States,US,True,strict,Private room,2009,$71 ,$14 ,3,4.0,5/20/2017,0.15,5.0,1.0,0,"- Please keep the house exactly like you found it. Please don't leave a mess. Please don't leave things dirty. - If you use the bathroom, clean or wipe things down (there will be a cloth to wipe off excess water, etc.) - If you use the kitchen, please clean dishes and wipe things down as well - No guest allowed - you can meet friends at other venues - Shoes off in the apartment - please leave by the door. If you would like please bring some slippers. - Please keep things quiet after 10pm - If you smoke, you must go outside! NO smoking inside! - If you cook, turn the fan on above the stove - If you watch TV, turn it off when you are done. - Please use your common sense, and if you are not sure, ask... - Remember, this is my house - so try to treat it with respect. - if the parking pass is not returned, you will be charged the full amount of the deposit",
51281071,Double Bedroom in a Sunny Bushwick Loft,29727757819,unconfirmed,Jordan,Brooklyn,Bushwick,40.692840000000004,-73.90695,United States,US,True,moderate,Private room,2012,$853 ,$171 ,3,6.0,6/19/2017,0.2,3.0,1.0,0,,
51281623,"Comfortable, eclectic and private apartment",45545663269,verified,Philip,Brooklyn,Clinton Hill,40.68976,-73.96533000000001,United States,US,False,flexible,Entire home/apt,2011,$557 ,$111 ,2,41.0,6/27/2019,1.51,5.0,1.0,343,Please leave the room as it was when you first came.,
51282176,Hudson River Aerie,77441411816,verified,Regina,Manhattan,Harlem,40.82545,-73.95295,United States,US,False,moderate,Private room,2013,$970 ,$194 ,3,10.0,6/30/2019,0.71,1.0,1.0,8,"No smoking or drugs. We try to keep the house clean, so we take off our shoes when we come in. We all work or go to grad school, so we like to keep the house clean and quiet. Absolutely no smokers, even if you smoke outside. We'd rather not have anyone in the house who brings back in the smell of smoke.",
51282728,"Bright, Beautiful 2 BD, great location UES",49931962627,verified,V.Stephan,Manhattan,Upper East Side,40.784290000000006,-73.94878,United States,US,True,moderate,Entire home/apt,2015,$236 ,$47 ,5,48.0,7/1/2019,1.73,4.0,2.0,71,Can use kitchen and either bathroom. Roommates will be at the house as well but will not be using the living during your stay. No guests permitted without prior notice and agreement. No shoes in the house and please wash all dishes promptly after use.,
51283280,Small Private Room for Rent,70361477729,unconfirmed,Masud,Brooklyn,Cypress Hills,40.686679999999996,-73.87565,United States,US,False,flexible,Private room,2005,$81 ,$16 ,28,5.0,11/20/2018,0.19,5.0,4.0,326,"Professionally and to respect the artwork. This is an apartment for mature travelers, not backpackers.",
51283833,Modern Studio in the Heart of Midtown NYC!,50016175430,verified,Anthony,Manhattan,Hell's Kitchen,40.75673,-73.99361999999999,United States,US,False,strict,Entire home/apt,2009,$997 ,$199 ,2,0.0,,,1.0,1.0,0,"Guest should do there dishes and clean after themselves. No alcohol, No drugs, No party's and most important Don't Disturb other guests!",
51284385,5* Brand New Luxury Apartment with Backyard Oasis,63695471088,unconfirmed,Joel,Manhattan,Upper West Side,40.7843,-73.98262,United States,US,False,strict,Entire home/apt,2009,$721 ,$144 ,4,20.0,7/1/2019,0.73,1.0,1.0,290,Treat the apt as you would your own. No parties or large gatherings.,
51284937,Brooklyn Gem,14884277066,verified,Sabrina,Brooklyn,Bedford-Stuyvesant,40.68841,-73.95082,United States,US,True,moderate,Entire home/apt,2003,$877 ,$175 ,2,54.0,6/2/2019,1.91,4.0,1.0,267,Please do not smoke and be respectful of other guests.,
51285490,Prime SOHO Luxury penthouse Loft,16159952457,verified,Joe,Manhattan,NoHo,40.72569,-73.99519000000001,United States,US,True,flexible,Entire home/apt,2012,"$1,138 ",$228 ,3,51.0,6/17/2019,1.76,1.0,1.0,336,,
51286042,"Light-filled Apartment in great area, close 2 all!",57852811171,unconfirmed,Dounia,Brooklyn,Flatbush,40.63192,-73.94734,United States,US,False,flexible,Entire home/apt,2015,$343 ,$69 ,1,12.0,6/19/2017,0.43,5.0,1.0,0,"Guest should do there dishes and clean after themselves. No alcohol, No drugs, No party's and most important Don't Disturb other guests!",
51286594,NYで人気の街ﾌﾞﾙｯｸﾘﾝﾊﾟｰｸｽﾛｰﾌﾟで､暮らしてみませんか｡,22790087891,unconfirmed,Fumiko,Brooklyn,South Slope,40.66411,-73.98267,United States,US,False,strict,Private room,2021,$95 ,$19 ,7,2.0,10/23/2017,0.09,3.0,1.0,173,"Please expect to share the apartment with guests having various backgrounds. Be respectful and decent, also enjoy interacting with each other. Please dress descently in the house especially in and out of the shower.",
51287146,!!! Beautiful private room with backyard.,40554462482,verified,Valentin,Brooklyn,East Flatbush,40.6392,-73.94731999999999,United States,US,False,moderate,Private room,2014,$780 ,$156 ,30,1.0,7/30/2017,0.04,1.0,7.0,124,,
51287699,!!! Outpost Coliving . Shared twin room,11849849734,unconfirmed,Valentin,Brooklyn,East Flatbush,40.650240000000004,-73.95051,United States,US,False,moderate,Shared room,2003,$864 ,$173 ,30,2.0,4/30/2018,0.09,4.0,7.0,365,"Please pick up after yourself (remove hair after taking a shower/shaving, etc.), and make sure things are left tidy after you used bathrooms. Keep toilet seat closed so cat can't get to water. Please avoid morning rush between 6am and 10 am and take shower at night (unless you shower is literally 2 min or less). Additional toilet/sink on the first floor. Always wipe off toothpaste from sink and faucet as a courtesy to others.  Immediately notify me if something was broken or out of order or you forgot to wash a plate. Don't leave any food in your room. Proper trash disposal: recycling is very important. Rinse containers before placing into collection; all food leftovers must go inside kitchen sink for disposal. Avoid bringing in plastic bags, but if you must occasionally, please place into recycling for bags under the sink. Please tidy up  your room after departure and take care of dirty dishes. Departure after check out time billed one hundred dollars Mailing address is NOT TO be shar",
51288251,"Snug, Cozy 1 bedroom Apartment",2291926732,unconfirmed,Dwane,Brooklyn,East New York,40.658770000000004,-73.89631,United States,US,False,strict,Entire home/apt,2008,$923 ,$185 ,1,68.0,6/8/2019,2.27,2.0,1.0,364,"Quiet and clean Responsible person No bad habits Just don't steal or break anything and we are good. I would also advise not to play extremely loud music after 9pm because my roommate gets mad.  Moderately loud should be ok. -Please do not drink the alcohol and don't eat the food in the bedroom, although you are welcome to use all of the appliances including the Keurig. This is our home when we are not traveling, respect it as your own. -Strictly no smoking or parties.",
51288803,Awesome apartment close to Express Train,28783941343,unconfirmed,Federica,Manhattan,Washington Heights,40.85046,-73.94270999999999,United States,US,True,moderate,Private room,2015,$979 ,$196 ,2,0.0,,,4.0,1.0,0,,
51289356,"LRG DESIGNER STUDIO/1-BED, MIDTOWN, DOORMAN, ELEV.",69060181694,unconfirmed,Daniel,Manhattan,Midtown,40.75562,-73.96539,United States,US,True,strict,Entire home/apt,2019,$682 ,$136 ,3,8.0,5/14/2019,0.34,2.0,2.0,0,,
51289908,"Spacious, bright room in luxury building",47585230983,unconfirmed,Tim,Brooklyn,Williamsburg,40.70669,-73.94648000000001,United States,US,False,strict,Private room,2019,$558 ,$112 ,1,16.0,5/3/2019,0.55,3.0,1.0,7,"House Rules 1. Check-in is 4 pm local time. If the unit is ready earlier, we’ll let you know. Check-out is normally 11 am local time, but we’d be happy to extend it as long as we don’t have a cleaning scheduled. Just let us know.  2. All bookings require a security deposit of at least $300, which will be refunded within 7 days of your check-out. 3. For security measures we require all guests to provide proof of identification through ID verification on our own website. In order to check in we'll need a photo of your ID.  4. Our cancellation policy is as shown on our ad and defined by the site you are booking through.  5. Don’t let $300 go up in smoke. There's no smoking allowed in any Flatbook and a $300 fine for breaking this rule.  6. Unfortunately we don’t allow pets in any of our apartments. 7. Unless you’re staying in one of our specialty apartments, we don’t allow parties or excessive noise. 8. If we find the place very messy, we have to charge an extra $40 for every extra hour o",
51290460,Modern 1 Bedroom Condo at Midtown 45,53341186106,verified,Nadine,Manhattan,Midtown,40.75305,-73.97358,United States,US,True,moderate,Private room,2020,$752 ,$150 ,2,0.0,,,5.0,3.0,0,Keep the apartment clean,
51291013,Hotel Room at Wyndham Midtown 45,77618556047,unconfirmed,Nadine,Manhattan,Midtown,40.75373,-73.97287,United States,US,False,moderate,Private room,2007,$136 ,$27 ,2,0.0,,,5.0,3.0,268,,
51291565,Entire Apartment in Hells Kitchen!,74129210966,unconfirmed,Eric,Manhattan,Hell's Kitchen,40.76318,-73.99009000000001,United States,US,False,flexible,Entire home/apt,2015,$731 ,$146 ,30,7.0,5/25/2019,0.26,2.0,1.0,204,"House Rules 1. Check-in is 4 pm local time. If the unit is ready earlier, we’ll let you know. Check-out is normally 11 am local time, but we’d be happy to extend it as long as we don’t have a cleaning scheduled. Just let us know.  2. All bookings require a security deposit of at least $300, which will be refunded within 7 days of your check-out. 3. For security measures we require all guests to provide proof of identification through ID verification on our own website. In order to check in we'll need a photo of your ID.  4. Our cancellation policy is as shown on our ad and defined by the site you are booking through.  5. Don’t let $300 go up in smoke. There's no smoking allowed in any Flatbook and a $300 fine for breaking this rule.  6. Unfortunately we don’t allow pets in any of our apartments. 7. Unless you’re staying in one of our specialty apartments, we don’t allow parties or excessive noise. 8. If we find the place very messy, we have to charge an extra $40 for every extra hour o",
51292117,Manhattan &Time Square Less than 30min 1st floor.,10567899464,unconfirmed,Devika,Queens,Sunnyside,40.73661,-73.92514,United States,US,False,flexible,Private room,2021,$791 ,$158 ,5,47.0,7/1/2019,1.61,3.0,4.0,266,"No Smoking No Loud Parties No Pets Please be respectful of noises especially at night Check-in Time: 4PM Check-out Time: 10AM Please review the guest booklet in the living room of the condo, during your arrive for detailed policy information.",
51292669,2 bed spacious/Quiet Upper Ditmars Astoria Wifi.,5164131134,verified,Concetta,Queens,Ditmars Steinway,40.76814,-73.89573,United States,US,False,strict,Entire home/apt,2004,"$1,184 ",$237 ,11,27.0,4/27/2019,0.9,2.0,2.0,212,We except you to clean up after yourself and generally be respectful. Smoking should happen outside the house. Also please do not tap on the glass terrarium or play with the ball python. It is very timid and mostly wants to sleep.,
51293222,Large Bedroom Apartment with  a Private Bathroom,28462152637,unconfirmed,Paul,Manhattan,Upper East Side,40.77659,-73.95407,United States,US,False,strict,Private room,2013,$589 ,$118 ,3,18.0,12/15/2018,0.65,1.0,2.0,0,Please take off your shoes at the front door. Pick up your hair after your shower. The kitchen is not shared. You shall speak either English or Chinese.,
51293774,"Modern Living, Views, Summer in the City!",11179253063,unconfirmed,Jay,Manhattan,Upper East Side,40.765159999999995,-73.95868,United States,US,True,strict,Entire home/apt,2009,$861 ,$172 ,2,7.0,5/7/2019,0.27,2.0,1.0,363,,
51294326,Stunning Terrace/garden Design 2 BR Apartment,75944981998,verified,Christophe,Manhattan,Harlem,40.80346,-73.94583,United States,US,True,strict,Entire home/apt,2008,$981 ,$196 ,5,23.0,5/24/2019,0.84,3.0,1.0,3,,
51294879,Apartment in Great Part of Brooklyn,74343761714,unconfirmed,Samantha,Brooklyn,Gowanus,40.66948,-73.98976,United States,US,False,moderate,Private room,2017,$725 ,$145 ,4,1.0,2/28/2017,0.03,3.0,1.0,0,,
51295431,"Philosopher's Private Room, Clean, 1.5 Baths",84946832099,unconfirmed,Dwayne,Manhattan,Harlem,40.81609,-73.93663000000001,United States,US,True,moderate,Private room,2018,"$1,171 ",$234 ,1,48.0,6/30/2019,1.68,4.0,1.0,365,,
51295983,Private Lrg bedroom in a convrtable 2 Bed Apt.,95442702215,verified,Clell,Brooklyn,Bay Ridge,40.63845,-74.02649,United States,US,False,strict,Private room,2015,$83 ,$17 ,1,43.0,6/27/2019,1.64,4.0,1.0,55,"Thank you for your reservation. By placing your reservation online you indicated that you accepted the terms and conditions which have been printed below.  Please review your reservation summary as below - then print, sign and return the agreement to:  (EMAIL HIDDEN) or fax it to (PHONE NUMBER HIDDEN) or  mail it to: Spare Suite, Inc., 119 Braintree Street, Suite 510, Boston, MA 02134, USA Upon receipt, we will send you the welcome document with check in instructions and how to get your keys. Terms of the Agreement: BOOKING AND REFUND POLICY Once booked your reservation is guaranteed for the check in and check out times and dates specified. All reservations must be paid in advance, in full for the entire period of stay.  All reservations are final, and NON REFUNDABLE UNDER ANY CIRCUMSTANCES.  If you feel you may need to cancel once booked, you may consider trip insurance through AAA or other reputable provider like (URL HIDDEN) POLICY ON CHILDREN: This property is not ""KID FRIENDLY"" al",
51296536,"Cute Apartment for 2-4 people, IDEAL location NYC",65103845325,unconfirmed,Ryan,Queens,Sunnyside,40.74561,-73.91927,United States,US,False,moderate,Entire home/apt,2010,"$1,174 ",$235 ,3,2.0,2/20/2017,0.07,3.0,1.0,0,I am renting my apartment for the Marathon weekend and you will be a guest in my home. No smoking or pets please.,
51297088,3BR Home 25 Mins to Times Square + Manhattan,23245625436,unconfirmed,Nicholas,Queens,Maspeth,40.73147,-73.89486,United States,US,True,moderate,Entire home/apt,2010,$52 ,$10 ,1,60.0,6/17/2019,3.05,4.0,1.0,317,"When you arrive, my place will be clean, neat, organized & very cozy. All I ask is you leave it the same way upon departing.  Also check out time is 11am & check-in time is 4pm. For those arriving, you may check in early & leave your bags / luggage. I will just need to finish cleaning / setting the place up for you just so before handing the place to you. For those departing: 11am check-out time is strict although you may leave your bags / luggage in the apt if you are doing any last minute sight seeing / activities. Otherwise, enjoy the Allston / Boston area,  a great little neighborhood / city combination.",
51297640,MASSIVE ROOM IN HEART OF NYC!!! (CHELSEA/FLATIRON),69679135315,verified,Teri,Manhattan,Chelsea,40.74512,-73.99179000000001,United States,US,True,strict,Private room,2013,$673 ,$135 ,1,8.0,5/18/2017,0.28,4.0,2.0,0,,
51298192,Gorgeous and sunny 1 br in Little Italy/Nolita,9897734164,unconfirmed,Dianna,Manhattan,Little Italy,40.71867,-73.99709,United States,US,True,flexible,Entire home/apt,2018,$767 ,$153 ,5,0.0,,,3.0,1.0,45,"100% no smoking in the condo itself or in the building. This is a non-smoking building. No pets, no parties of more than four, and no additional overnight guests unless as agreed. Please be respectful of our neighbors and keep the noise low at night.",
51298745,Light-filled Bowery 1BD Apartment,47567681943,unconfirmed,Julien,Manhattan,Chinatown,40.716809999999995,-73.99539,United States,US,False,moderate,Entire home/apt,2004,"$1,067 ",$213 ,5,8.0,6/14/2019,0.3,3.0,1.0,81,"When you arrive, my place will be clean, neat, organized & very cozy. All I ask is you leave it the same way upon departing.  Also check out time is 11am & check-in time is 4pm. For those arriving, you may check in early & leave your bags / luggage. I will just need to finish cleaning / setting the place up for you just so before handing the place to you. For those departing: 11am check-out time is strict although you may leave your bags / luggage in the apt if you are doing any last minute sight seeing / activities. Otherwise, enjoy the Allston / Boston area,  a great little neighborhood / city combination.",
51299297,Charming Studio In Historic Home,25778218995,unconfirmed,Tricia,Staten Island,Stapleton,40.6322,-74.07789,United States,US,False,moderate,Entire home/apt,2011,$79 ,$16 ,2,103.0,7/5/2019,3.52,5.0,1.0,73,,
51299849,Gorgeous Luxury 1 Brd Apt in Trendy West Village!,35567642163,verified,Casey,Manhattan,West Village,40.732490000000006,-74.00854,United States,US,True,moderate,Entire home/apt,2014,$814 ,$163 ,3,0.0,,,4.0,1.0,0,,
51300402,Cozy and Sunny 2 bedroom apartment,58998333833,unconfirmed,Thiago,Manhattan,Harlem,40.80495,-73.9556,United States,US,False,flexible,Entire home/apt,2018,"$1,143 ",$229 ,4,29.0,6/9/2019,0.99,3.0,2.0,0,You will see a piece of paper on my kitchen table about my house rules.  No parties please :),
51300954,Airy Inwood Apartment,79435696085,unconfirmed,Gabriel,Manhattan,Washington Heights,40.85622,-73.93146999999999,United States,US,True,moderate,Entire home/apt,2014,$396 ,$79 ,1,0.0,,,4.0,1.0,0,1) No Smoking in property!!!  2) Do not slam doors!!! Close lightly Please!!! 3) No Shoes in house (except slippers) 4) Quiet down AFTER 10PM.,
51301506,Historic Brownstone in Harlem,37845946214,unconfirmed,Santi,Manhattan,Harlem,40.804429999999996,-73.94546,United States,US,True,flexible,Entire home/apt,2009,$751 ,$150 ,1,9.0,4/17/2017,0.31,2.0,1.0,0,,
51302059,"Guest Room in High Ceiling Duplex, Williamsburg! 2",78442764908,unconfirmed,Auset,Brooklyn,Williamsburg,40.70711,-73.95344,United States,US,True,strict,Private room,2009,$319 ,$64 ,30,11.0,3/31/2019,0.38,1.0,3.0,249,,
51302611,"Beautiful 2 Bedroom Apartment Woodside, Queens, NY",69838209787,verified,Erfan,Queens,Woodside,40.746159999999996,-73.90392,United States,US,True,strict,Entire home/apt,2020,$952 ,$190 ,2,93.0,6/20/2019,3.13,5.0,1.0,34,,
51303163,Charming Apartment,7788935839,verified,Tiffany,Brooklyn,Bushwick,40.70097,-73.9381,United States,US,False,moderate,Entire home/apt,2019,"$1,188 ",$238 ,3,0.0,,,1.0,1.0,0,,
51303715,1 Bedroom in Beautiful/Spacious Bushwick Apt,28426841937,verified,Ryan,Brooklyn,Williamsburg,40.70513,-73.93063000000001,United States,US,False,flexible,Private room,2015,$223 ,$45 ,1,0.0,,,4.0,1.0,0,,
51304268,"Huge Comfy Studio with Private Bath, Near Metro",1448834146,verified,Felix,Bronx,Kingsbridge,40.87924,-73.89791,United States,US,True,strict,Entire home/apt,2012,$324 ,$65 ,3,114.0,6/16/2019,4.0,1.0,4.0,63,"- Non-smoker only - Cologne/perfumed sprays not allowed - Cat in the house - Do not share mailing address with anyone, and if you do it, you will pay $200 - Please take off street shoes and place them on the rack - Slippers can be provided but please bring your own if you can - Recycle all trash, we will help you to understand it - Food may not be left in your room - No eating in bed - No disturbance: please walk slowly when using stairs and very softly close all doors",
51304820,Large Studio one block from Times Square,25356407005,unconfirmed,Vaki,Manhattan,Theater District,40.75951,-73.98796,United States,US,False,strict,Private room,2020,$163 ,$33 ,1,9.0,12/16/2018,0.31,3.0,1.0,9,#NAME?,
51305372,Newly renovated modern Apt in heart of Astoria NY,36617232318,unconfirmed,Charlie,Queens,Astoria,40.76773,-73.91701,United States,US,False,moderate,Entire home/apt,2022,$465 ,$93 ,4,12.0,6/24/2019,0.47,1.0,1.0,42,No smoking and no party allowed. We don't want the neighbor to complain.,
51305925,Sunny room in a shared appartement in Bushwick,36346862984,unconfirmed,Do,Brooklyn,Bushwick,40.70657,-73.92181,United States,US,True,moderate,Private room,2021,$974 ,$195 ,5,1.0,8/27/2017,0.04,3.0,1.0,0,,
51306477,"Sunny, Beautiful, Comforting Greenpoint Apartment",69518105958,unconfirmed,Danielle,Brooklyn,Greenpoint,40.7244,-73.93913,United States,US,False,strict,Private room,2017,$806 ,$161 ,5,6.0,10/24/2018,0.28,4.0,1.0,87,"No smoking inside the house.  No loud parties or disturbing the peace or public nuisance allowed. This is a strictly residential rental NOT commercial.  If holding parties you must first seek owner's permission before inviting anyone other than immediate family.   This is a peaceful family neighborhood and I like to keep it that way.  Clean after yourself, clean the stove and oven and all the appliances.  Leave everything exactly in the condition it is in when you first arrived.  Treat this house as if it is your own with the proper respect and courtesy.  No pets allowed.  Check in is 4PM, Check out 10AM.  On Check out date please leave all the dirty sheets, towels, linens by the washer for the maid.  Please leave the outside trash container for the garbage truck on the night before it arrives.",
51307029,Peaceful room in hip BK area 15 min to Manhattan,17283806449,verified,Cleo,Brooklyn,Bedford-Stuyvesant,40.68869,-73.9231,United States,US,False,moderate,Private room,2017,$300 ,$60 ,1,10.0,6/27/2019,0.35,1.0,1.0,173,"Non-smoker, no smoking in/out of home No cologne/perfume/sprays. Scent-free house Microwave for light use (not cooking) Respect quiet environment No visitors at any time, one room per person Remove outdoor shoes by the entrance inside, slippers available if you need Ask permission before giving this address to anyone Mailing address may only be used only for personal post (family, friends) No bank, no school, no memberships of any kind, no subscriptions If you break this rule, first charge is $200, and after that,  Each commercial letter that arrives after you depart will be charged $5 life time",
51307582,Perfectly Central Upper West Side location,79633124782,unconfirmed,Eitan,Manhattan,Upper West Side,40.79241,-73.97261999999999,United States,US,True,strict,Private room,2020,$788 ,$158 ,1,39.0,7/26/2018,1.39,3.0,1.0,0,,
51308134,Cosy LES/Chinatown private room,59765086755,unconfirmed,Amy,Manhattan,Lower East Side,40.71974,-73.99263,United States,US,True,flexible,Private room,2012,"$1,185 ",$237 ,7,0.0,,,4.0,1.0,0,,
51308686,"1 Bedroom in nice, clean LES apartment",23535823957,unconfirmed,Gaurav,Manhattan,Lower East Side,40.71873,-73.99073,United States,US,True,strict,Private room,2018,"$1,105 ",$221 ,1,3.0,9/27/2017,0.13,3.0,1.0,0,1) No Smoking in property!!!  2) Do not slam doors!!! Close lightly Please!!! 3) No Shoes in house (except slippers) 4) Quiet down AFTER 10PM.,
51309238,Large 2 bdrm loft with outdoor space + trains,86751187375,verified,Claire,Brooklyn,Boerum Hill,40.685829999999996,-73.98267,United States,US,False,flexible,Entire home/apt,2016,$988 ,$198 ,2,23.0,6/23/2019,0.78,5.0,1.0,3,,
51309791,The ❤️ of SoHo: Adorable 2 br // event space,82959501843,unconfirmed,Milly,Manhattan,SoHo,40.7255,-74.00258000000001,United States,US,True,strict,Entire home/apt,2004,$905 ,$181 ,1,61.0,7/1/2019,2.04,2.0,1.0,173,,
51310343,Bright and Spacious East Village Loft,48173914787,verified,J,Manhattan,East Village,40.72977,-73.98841,United States,US,True,flexible,Entire home/apt,2020,$988 ,$198 ,3,85.0,6/24/2019,2.87,5.0,1.0,208,#NAME?,
51310895,Private East Village Bedroom &Roof Deck(manhattan),41377510293,unconfirmed,Joe,Manhattan,East Village,40.72951,-73.98239000000001,United States,US,False,moderate,Private room,2013,$922 ,$184 ,1,200.0,6/22/2019,6.79,3.0,3.0,272,,
51311448,Friendly and well located place to get away,12449868368,verified,Tristan,Brooklyn,Park Slope,40.6675,-73.97694,United States,US,False,moderate,Entire home/apt,2022,$806 ,$161 ,1,5.0,4/10/2018,0.18,5.0,2.0,0,,
51312000,Beautiful Garden Apartment in Bed Stuy Brownstone,75302574466,unconfirmed,Cat,Brooklyn,Bedford-Stuyvesant,40.684979999999996,-73.92613,United States,US,True,flexible,Entire home/apt,2013,$405 ,$81 ,10,26.0,6/14/2019,0.97,1.0,1.0,12,,
51312552,Bedstuy Brownstone,87999361823,unconfirmed,Eric,Brooklyn,Bedford-Stuyvesant,40.681,-73.94707,United States,US,True,flexible,Entire home/apt,2010,$311 ,$62 ,3,5.0,6/23/2019,0.5,1.0,1.0,66,,
51313105,one-bedroom available in Murray Hill NYC,85012338023,verified,Dmitriy,Manhattan,Kips Bay,40.73948,-73.97643000000001,United States,US,False,moderate,Private room,2017,$132 ,$26 ,1,0.0,,,5.0,1.0,0,,
51313657,Cozy Room near Columbia University,58145700568,verified,Tiara,Manhattan,Morningside Heights,40.80766,-73.96594,United States,US,False,flexible,Private room,2016,"$1,099 ",$220 ,30,7.0,7/10/2018,0.27,2.0,2.0,246,,
51314209,"Cozy 1br apartment, 25 min away from Manhattan",26023930304,unconfirmed,Raquel,Queens,Ditmars Steinway,40.77707,-73.91887,United States,US,True,flexible,Entire home/apt,2009,"$1,098 ",$220 ,5,14.0,1/5/2019,0.49,5.0,1.0,1,,
51314761,Clean! Quiet! Near train and park!,64620831449,verified,Kathryn,Brooklyn,Windsor Terrace,40.65998,-73.97811,United States,US,True,strict,Private room,2015,$170 ,$34 ,3,0.0,,,1.0,1.0,0,"Check in 3pm Check out 12pm (Flexible upon requests.) No smoking, No drug, No party in the house. I don't guarantee parking lot. Sorry",
51315314,West Village - 1 Bedroom,72740345767,verified,Laura,Manhattan,West Village,40.734590000000004,-74.00143,United States,US,False,flexible,Entire home/apt,2013,$703 ,$141 ,2,1.0,2/20/2017,0.03,3.0,1.0,0,,
51315866,Glamorous Queen  room in the centre of EVERYTHING!,92821080349,unconfirmed,Bianca,Manhattan,Chinatown,40.71427,-73.99261,United States,US,False,moderate,Private room,2018,$458 ,$92 ,1,49.0,6/30/2019,1.86,5.0,3.0,111,Please do not smoke and be respectful of other guests.,
51316418,Cozy Private Room,16429077525,verified,Nicauris,Manhattan,Washington Heights,40.84194,-73.94203,United States,US,True,moderate,Private room,2017,$83 ,$17 ,30,16.0,1/6/2019,0.59,5.0,3.0,237,,
51316971,Charming 5 Bedroom House in Forest Hills NY,63102253233,unconfirmed,Maayan,Queens,Forest Hills,40.71848,-73.85025,United States,US,True,moderate,Entire home/apt,2008,$304 ,$61 ,2,9.0,12/29/2018,0.37,4.0,2.0,4,,
51317523,Charming Park Slope Apt (fits up to 6 ppl)!,92383379819,unconfirmed,Julia,Brooklyn,Windsor Terrace,40.66063,-73.98348,United States,US,False,flexible,Entire home/apt,2004,$765 ,$153 ,3,0.0,,,3.0,1.0,0,"Please treat my place as your own. Turn off the lights, AC, fan, etc when you leave the apartment, and wash any kitchenware and dishes that you've used. Put used towels on the floor, so that I now they've been used.",
51318075,Studio with amazing view,39181304232,unconfirmed,Carolann,Manhattan,Financial District,40.70588,-74.0159,United States,US,True,strict,Entire home/apt,2010,$201 ,$40 ,300,0.0,,,2.0,1.0,0,,
51318628,Private apartment in new Brooklyn building!,54853990256,unconfirmed,Steven & Melissa,Brooklyn,Bedford-Stuyvesant,40.68438,-73.95299,United States,US,True,strict,Entire home/apt,2019,$132 ,$26 ,2,33.0,5/22/2019,1.21,4.0,1.0,80,"- Non-smoker - No perfume/cologne use - Microwave for light use, not cooking - Very light and fast food prep - Mailing address not to be shared with anyone but family and friends - Take is seriously: If  any of yours not personal mail comes to this mail box, you will be charged $200 and $5 for each letter after that indefinitely - Guest agrees not to write reviews for areas not on amenities list",
51319180,UES(mini loft)Clean flex room (Female Only),22901988695,unconfirmed,Eun M,Manhattan,Upper East Side,40.777590000000004,-73.95321,United States,US,False,strict,Private room,2022,$940 ,$188 ,1,133.0,6/19/2019,4.52,2.0,1.0,43,No smoking. Please respect our neighbors.,
51319732,Luxury Loft in Williamsburg,78980267844,unconfirmed,Aaron,Brooklyn,Williamsburg,40.71218,-73.96048,United States,US,False,moderate,Entire home/apt,2020,"$1,020 ",$204 ,3,8.0,8/26/2018,0.3,3.0,1.0,0,#NAME?,
51320284,"Great 1 BR- Q train, Museum Mile and Central Park!",95672567011,verified,Christina,Manhattan,Upper East Side,40.768679999999996,-73.95744,United States,US,True,strict,Entire home/apt,2014,$448 ,$90 ,5,22.0,7/2/2019,1.27,3.0,1.0,7,,
51320837,Cozy yellow room,46366474204,verified,Hali,Queens,Astoria,40.76964,-73.91559000000001,United States,US,True,strict,Private room,2018,$699 ,$140 ,1,14.0,3/13/2018,0.5,5.0,1.0,0,Let's talk to get to know each other !,
51321389,Private room in a 3BR in Park Slope,5832738064,unconfirmed,David,Brooklyn,Park Slope,40.68203,-73.97834,United States,US,True,moderate,Private room,2009,$868 ,$174 ,4,0.0,,,4.0,1.0,0,Female first please. Please keep the space quiet and clean.,
51321941,QUIET SUNNY PRIVATE ROOM M&L TRAIN,43168760984,unconfirmed,Simon,Brooklyn,Bushwick,40.700790000000005,-73.91847,United States,US,False,moderate,Private room,2021,$523 ,$105 ,1,9.0,10/4/2017,0.35,2.0,1.0,0,"Non-smokers, no smoking in or out of home No perfume/cologne use, no other sprays  Deodorant/antiperspirant is OK but not sprays  Recycling, reusable shopping bags No mailing address sharing: first offense $200, and $5 per letter after that LIFE TIME Please don't use ""single use disposable"" plastic bags Mailing address MAY NOT be shared with anyone accept delivery. Reusable foldeable shopping bag (provided, and you may take it with you) Plates, cup, utensils are only in space between refrigerator and sink Please don't keep dirty dishes in your room, but if you must, tide them in plastic bag (green kind, find in bathroom basket) Please keep your room at least reasonably tidy Host may enter the room to collect the trash or fix things if needed All your things are safe in your room Take off street shoes when indoor Washed slippers provided if you don't have your own  Please be respectful, considered, and aware what is left behind you when you are in common areas, and how it will impact th",
51322494,Cozy bedroom in Bushwick Brooklyn!,3763998246,verified,Rebecca,Brooklyn,Bushwick,40.6978,-73.91677,United States,US,True,strict,Private room,2005,$107 ,$21 ,3,34.0,10/20/2017,1.16,2.0,1.0,0,"This is an old house which was built in the 1900s, and may not be sparkingly clean and modern, but we appreciate it if you can clean after yourself, and put things back to where they belong. Garbage day is on Friday, you can simply put your trash into the dumpster and we'll take care of the rest. Please be respectful to other tenants on the second floor. Thank you.",
51323046,Bay Ridge Apt,3243602169,unconfirmed,Luis,Brooklyn,Bay Ridge,40.62158,-74.02394,United States,US,True,flexible,Entire home/apt,2021,$892 ,$178 ,2,35.0,6/19/2019,1.17,3.0,1.0,325,,
51323598,Entire 3rd Floor of Brooklyn brownstone,97754722790,unconfirmed,Autumn,Brooklyn,South Slope,40.66398,-73.99041,United States,US,False,flexible,Entire home/apt,2013,$846 ,$169 ,3,4.0,11/25/2018,0.14,2.0,1.0,0,1) No Smoking in property!!!  2) Do not slam doors!!! Close lightly Please!!! 3) No Shoes in house (except slippers) 4) Quiet down AFTER 10PM.,
51324151,Budget Friendly Place WIFi AC Parking Comfy Bed,37708787444,unconfirmed,Andrew,Brooklyn,Greenpoint,40.72155,-73.94414,United States,US,True,strict,Private room,2009,"$1,058 ",$212 ,2,155.0,6/30/2019,5.2,5.0,2.0,60,House rules will be provided upon booking.,
51324703,High End Hand Crafted Manhattan Two Bedroom Beauty,58077642796,verified,Tyreik,Manhattan,Harlem,40.82793,-73.94349,United States,US,True,moderate,Private room,2018,$530 ,$106 ,5,8.0,11/3/2018,0.29,2.0,1.0,0,Respectful of the apartment,
51325255,*New 4 bedrooms 2 Bath Home 15 mins to manhattan!,75268943725,verified,Joling,Brooklyn,Bushwick,40.69735,-73.9327,United States,US,True,flexible,Entire home/apt,2005,"$1,027 ",$205 ,3,84.0,6/23/2019,2.95,5.0,1.0,237,"Please treat it like your own place and leave it the way you found it! Please clean up prior to leaving.  No smoking indoors, no late night parties.",
51325807,Ladies Only: Spacious Shared Apt,46229925146,unconfirmed,Angela,Manhattan,Kips Bay,40.74261,-73.98102,United States,US,True,flexible,Shared room,2015,"$1,024 ",$205 ,1,11.0,3/17/2019,0.39,3.0,2.0,304,#NAME?,
51326360,"Newly renovated, large room. Right by trains!",5439568587,unconfirmed,Delphina,Brooklyn,Crown Heights,40.669259999999994,-73.93211,United States,US,False,strict,Private room,2003,$958 ,$192 ,1,13.0,5/1/2017,0.44,4.0,2.0,0,"-Our one golden rule is: Please treat our space with respect (i.e. Clean up after yourself, be sure to lock the door when you leave, etc.)  -Absolutely NO SMOKING!!!! -We are fun-loving people, so we dont mind you having some friends over, but the above rule applies twofold in that scenario. -You're welcome to use dishes, appliances, etc in the kitchen, but we ask that you buy your own food/drinks rather than use ours. -No pets allowed (not our rule, our landlord's) -Upon checkout, please turn A/C units and lights off before leaving. -Feel free to ask us about the area-- we know it well and love to recommend!",
51326912,Large *COZY* Private Bedroom near Yankee Stadium,80141133283,verified,Melissa,Bronx,Concourse Village,40.82692,-73.92183,United States,US,True,strict,Private room,2008,$424 ,$85 ,5,46.0,6/2/2019,1.55,4.0,1.0,174,"Please note that we are a no smoking environment, and pets are only accepted in certain room types that have direct access to the outside. Please call ahead to make arrangements.",
51327464,Cute studio close to Penn Station and Times Square,84253466620,unconfirmed,Estrellita,Manhattan,Chelsea,40.75166,-73.99506,United States,US,True,flexible,Entire home/apt,2017,"$1,114 ",$223 ,19,0.0,,,1.0,1.0,0,"Please note that we are a no smoking environment, and pets are only accepted in certain room types that have direct access to the outside. Please call ahead to make arrangements. ",
51328017,"Queen size bed, private bathroom, great location",45512788780,verified,Axel,Brooklyn,Flatbush,40.64918,-73.96656999999999,United States,US,True,moderate,Private room,2009,$350 ,$70 ,2,25.0,6/24/2019,0.95,4.0,2.0,68,"1.  No loud music. 2. No parties. 3. No removal of items from the apartment unless expressly allowed by the host. 4.  Security deposit shall be claimed in the event of the following:   a. Damaged or soiled sheets, to the extent that they require replacement     b. Theft of items kept on and about the premises.    c. Unreturned keys.    d. Damage to the apartment or any part or item within and without the premises.    e. The presence of pets in the apartment, due to intent or negligence on the part of the guest and their party.    d. The presence of illicit or illegal substances, or illicit or illegal activities, on or about the premises",
51328569,Room in the Heart of Williamsburg,8123974914,verified,Steven,Brooklyn,Williamsburg,40.7176,-73.95359,United States,US,False,flexible,Private room,2018,$207 ,$41 ,2,7.0,10/23/2017,0.24,3.0,1.0,0,,
51329121,Cozy with a private bathroom bklyn,11633711135,unconfirmed,Chadanut,Brooklyn,Kensington,40.64237,-73.98048,United States,US,True,strict,Private room,2020,$504 ,$101 ,1,41.0,5/27/2019,1.41,1.0,11.0,22,,
51329674,The Cozy Cole room at Harlem Townhouse,20643039051,verified,René,Manhattan,Harlem,40.80934,-73.95071999999999,United States,US,True,strict,Private room,2019,$88 ,$18 ,2,66.0,1/27/2019,2.24,4.0,4.0,6,"Please note that we are a no smoking environment, and pets are only accepted in certain room types that have direct access to the outside. Please call ahead to make arrangements. ",
51330226,Cute little room in a 3BR apt with shared bath.,20580773988,unconfirmed,Mireille,Brooklyn,Crown Heights,40.67138,-73.93679,United States,US,False,flexible,Private room,2009,$475 ,$95 ,1,21.0,6/25/2019,0.78,1.0,1.0,89,,
51330778,Beautiful 1br in Manhattan!,4195357550,verified,Kevin,Manhattan,Harlem,40.821670000000005,-73.94988000000001,United States,US,False,flexible,Entire home/apt,2003,$599 ,$120 ,6,5.0,7/23/2018,0.17,1.0,1.0,0,"- Please keep the house exactly like you found it. Please don't leave a mess. Please don't leave things dirty. - If you use the bathroom, clean or wipe things down (there will be a cloth to wipe off excess water, etc.) - If you use the kitchen, please clean dishes and wipe things down as well - No guest allowed - you can meet friends at other venues - Shoes off in the apartment - please leave by the door. If you would like please bring some slippers. - Please keep things quiet after 10pm - If you smoke, you must go outside! NO smoking inside! - If you cook, turn the fan on above the stove - If you watch TV, turn it off when you are done. - Please use your common sense, and if you are not sure, ask... - Remember, this is my house - so try to treat it with respect. - if the parking pass is not returned, you will be charged the full amount of the deposit",
51331330,Private Room Near Columbus Circle.,37134568681,unconfirmed,Matthew,Manhattan,Hell's Kitchen,40.76617,-73.98398,United States,US,True,strict,Private room,2013,$55 ,$11 ,3,2.0,10/7/2017,0.07,5.0,1.0,83,"Please treat my place as your own. Turn off the lights, AC, fan, etc when you leave the apartment, and wash any kitchenware and dishes that you've used. Put used towels on the floor, so that I now they've been used.",
51331883,Large private room w huge loft in Williamsburg,60797293300,unconfirmed,Lauren,Brooklyn,Williamsburg,40.71976,-73.96051999999999,United States,US,False,moderate,Private room,2007,$670 ,$134 ,2,3.0,5/19/2017,0.11,3.0,1.0,0,- Please be respectful and polite to neighbors. There are downstairs tenants so please don't be noisy after 11pm. - Please turn off any lights and adjust down the thermostat to 55 before you depart or please turn off the AC window units/fans - Return keys to lockbox at end of stay. (There is a fee of $50 for each set of lost keys) - No animals - No smoking in the house (there is a backyard area) - Check in is at 4:00 pm (message for special requests) - Check out is at 12 noon,
51332435,Private Room In Clean Quiet Apt,51545697491,unconfirmed,Anthony,Manhattan,Harlem,40.8236,-73.93755,United States,US,False,flexible,Private room,2016,"$1,075 ",$215 ,2,70.0,8/1/2018,2.38,2.0,2.0,0,,
51332987,Classic Room in Vintage Loft,32742831521,verified,Ari,Brooklyn,Williamsburg,40.71586,-73.95395,United States,US,False,flexible,Private room,2006,$435 ,$87 ,2,9.0,4/4/2019,0.31,3.0,3.0,0,"House Rules 1. Check-in is 4 pm local time. If the unit is ready earlier, we’ll let you know. Check-out is normally 11 am local time, but we’d be happy to extend it as long as we don’t have a cleaning scheduled. Just let us know.  2. All bookings require a security deposit of at least $300, which will be refunded within 7 days of your check-out. 3. For security measures we require all guests to provide proof of identification through ID verification on our own website. In order to check in we'll need a photo of your ID.  4. Our cancellation policy is as shown on our ad and defined by the site you are booking through.  5. Don’t let $300 go up in smoke. There's no smoking allowed in any Flatbook and a $300 fine for breaking this rule.  6. Unfortunately we don’t allow pets in any of our apartments. 7. Unless you’re staying in one of our specialty apartments, we don’t allow parties or excessive noise. 8. If we find the place very messy, we have to charge an extra $40 for every extra hour o",
51333540,Artist Loft Bedroom,27287331186,unconfirmed,Gera & Werc,Brooklyn,Bushwick,40.70322,-73.92025,United States,US,True,moderate,Private room,2016,$756 ,$151 ,5,18.0,5/15/2019,0.77,3.0,1.0,66,,
51334092,"East Village, Cozy Room w/ Private Entrance & Bath",97197863920,unconfirmed,RoseAnne,Manhattan,Stuyvesant Town,40.73126,-73.98149000000001,United States,US,False,flexible,Private room,2019,$601 ,$120 ,2,1.0,2/23/2017,0.03,1.0,1.0,0,"Please expect to share the apartment with guests having various backgrounds. Be respectful and decent, also enjoy interacting with each other. Please dress descent in the house especially in and out of the shower.",
51334644,Staten island home not far from ferry to manhattan,62682571068,verified,Gloria,Staten Island,Randall Manor,40.63552,-74.12125,United States,US,False,flexible,Private room,2005,$137 ,$27 ,3,0.0,,,2.0,1.0,362,,
51335197,Large Bright Home on 2 floors perfect for families,95653619835,unconfirmed,May,Brooklyn,Bedford-Stuyvesant,40.693090000000005,-73.94986999999999,United States,US,True,strict,Entire home/apt,2008,$737 ,$147 ,5,13.0,5/1/2019,0.48,4.0,1.0,0,,
51335749,*THE ROOM IS PRIVATE. HUNGRY FOR A KITCHEN ?*,25022374901,verified,Carlos,Queens,Elmhurst,40.74552,-73.88285,United States,US,False,strict,Private room,2003,$107 ,$21 ,6,69.0,7/4/2019,2.44,4.0,5.0,253,,
51336301,"basic room, prime location, 30 day minimum",36843587787,unconfirmed,David,Manhattan,Upper West Side,40.78068,-73.9767,United States,US,False,strict,Private room,2008,$257 ,$51 ,30,5.0,5/1/2019,0.18,1.0,10.0,341,,
51336853,Bright sunny manhattan getaway,37579576191,unconfirmed,Joshua,Manhattan,Washington Heights,40.83498,-73.94214000000001,United States,US,False,strict,Private room,2009,$652 ,$130 ,2,0.0,,,4.0,1.0,0,,
51337406,Cute Room in Lower East Side!,83206766234,verified,Angie,Manhattan,Lower East Side,40.7128,-73.98909,United States,US,True,strict,Private room,2008,$206 ,$41 ,1,121.0,6/23/2019,4.11,3.0,3.0,127,#NAME?,
51337958,Charming Bedroom in hip Lower East Side!,16198388363,verified,Angie,Manhattan,Lower East Side,40.71203,-73.99008,United States,US,True,strict,Private room,2009,$718 ,$144 ,1,125.0,6/26/2019,4.31,5.0,3.0,119,,
