id,NAME,host id,host_identity_verified,host name,neighbourhood group,neighbourhood,lat,long,country,country code,instant_bookable,cancellation_policy,room type,Construction year,price,service fee,minimum nights,number of reviews,last review,reviews per month,review rate number,calculated host listings count,availability 365,house_rules,license
2658236,Affordable Clean Private Room NYC,14857134135,unconfirmed,Alex Nova York,Bronx,Mount Eden,40.84367,-73.91718,United States,US,True,moderate,Private room,2009,"$1,124 ",$225 ,2,11.0,9/28/2014,0.16,5,1,426,"NO PETS!  NO SMOKING ON PREMISES!  NO PARTY! A printed house rule will be provided. Please be respectful to others when all rooms are booked. 10 AM Check-out and Check-in is between 12 PM (noon) - 3 PM.   Late check in after 8 pm is $50, lock out is $50. Respect yourself, Respect others, clean up after yourself.  No Smoking/drinking in apt.  Thank You! Location Rules: The ""Exact Address Location Is Not Disclosed For Security Reasons"" And Is Given Out 24 Hours Prior to Check-in.  If This Is a Problem for You, Please STOP Here And Contact Other Hosts for Your Stay.   This Is a Part Of My House Rules.",
2658788,UPPER EAST SIDE 1BR APT - CENTRAL,81328096550,unconfirmed,Carlos,Manhattan,Upper East Side,40.77219,-73.95073000000001,United States,US,False,flexible,Entire home/apt,2005,$753 ,$151 ,1,29.0,5/29/2019,0.42,1,5,121,,
2659341,"Priv room in 3 bdrm apt - Room ""A""",67240166137,verified,Ryan,Manhattan,Harlem,40.80247,-73.94530999999999,United States,US,False,moderate,Private room,2007,"$1,178 ",$236 ,2,17.0,9/1/2015,0.24,2,3,231,,
2659893,"Modern, Sunny Duplex PENTHOUSE  w/ BALCONY",69962987984,verified,Dahlia,Brooklyn,Bedford-Stuyvesant,40.69194,-73.95952,United States,US,False,moderate,Entire home/apt,2019,"$1,059 ",$212 ,3,78.0,5/12/2019,1.13,5,1,209,"* If you are booking a room, you must be the person staying in room. DO NOT book a room for somebody else!* *ALSO, please only book if you have a face photo in your profile!* This is a residential building, with professionals living throughout. Being respectful is a must! No loud music, No smoking and pets are NOT allowed in the building.  Also, only guests listed on the booking are allowed in this house. Strangers, friends and family members are not allowed inside the house. For your safety, and mine. :) Lost keys will result in a $50 fee to replace the locks in the house.",
2660445,THE LINCOLN PARLOR,61140617531,unconfirmed,Althea,Brooklyn,Crown Heights,40.66946,-73.95008,United States,US,False,strict,Entire home/apt,2021,$638 ,$128 ,3,115.0,6/8/2019,2.09,1,3,366,- No shoes on carpets and rugs - Eating and Drinking only in Kitchen - Quiet time from 11pm - 6am - No gatherings or parties,
2660998,NYC Central Park family apt - 3bdr,12435616623,unconfirmed,Alexana,Manhattan,Upper West Side,40.78952,-73.98097,United States,US,True,moderate,Entire home/apt,2014,$102 ,$20 ,7,19.0,4/27/2019,0.28,4,1,257,"No smoking (indoors or outside on the property). No pets. No parties. Prefer quiet professional singles or couples in town for work and/or tourism. No children. Please note that this is Alex's home (he lives there), so please be respectful by keeping noise down and cleaning up after yourselves.",
2661550,Elegant 1b Near Everything,57584423447,verified,Yvonne,Manhattan,Chelsea,40.743140000000004,-73.9957,United States,US,True,moderate,Entire home/apt,2018,$984 ,$197 ,2,144.0,7/5/2019,2.07,2,1,0,,
2662102,Big quiet Sunny room in Upper East Side,17387931936,unconfirmed,Aaron,Manhattan,East Harlem,40.79692,-73.94434,United States,US,False,strict,Private room,2011,$559 ,$112 ,1,41.0,6/2/2019,0.87,2,2,350,Check in is after 3 pm and check out is at 12 pm.  No parties or events.  No smoking.  No pets.  No unauthorized guests.  My home is not child proof.  Please leave your shoes at the entrance of the apartment.,
2662654,Museum Mile Central Pk- Madison Ave,72599531742,verified,Lynne,Manhattan,Upper East Side,40.77648,-73.96126,United States,US,False,flexible,Entire home/apt,2015,$525 ,$105 ,4,10.0,5/28/2019,0.17,3,1,223,,
2663207,Brooklyn Stunning Event Space.,37794081092,unconfirmed,Maurice,Brooklyn,Crown Heights,40.672470000000004,-73.93616,United States,US,True,strict,Entire home/apt,2014,$895 ,$179 ,1,9.0,3/30/2019,0.25,3,3,32,"We ask that no alcohol or pork be brought into the home. Other than that, my home is your home. I simply ask that you please treat the home and its inhabitants with respect.",
2663759,"Sunny Room, Only 1 Block to Subway!",36623257368,unconfirmed,Angelo,Brooklyn,Bedford-Stuyvesant,40.69696,-73.93576999999999,United States,US,True,moderate,Private room,2014,$58 ,$12 ,3,112.0,1/1/2018,1.61,1,2,383,,
2664311,BEST Bushwick 1 Bedroom - 15 min to Manhattan,22221890789,unconfirmed,Gordon,Brooklyn,Bushwick,40.693659999999994,-73.92281,United States,US,True,flexible,Entire home/apt,2006,"$1,189 ",$238 ,4,123.0,6/17/2019,1.76,1,2,129,"I would like you to respect my house as though it was yours. You break it you buy it. No smoking cigarettes or drugs within the units. Smoking is allowed on the outside porch, however do not throw cigarette butts on the floor/grass please use the ash tray. If something goes wrong or unpleasant with your stay,  please call me immediately so we can rectify the situation.",
2664864,Modern/Renovated/Best EV Location!!,86754315587,unconfirmed,Simon,Manhattan,East Village,40.727140000000006,-73.98397,United States,US,False,flexible,Entire home/apt,2011,$949 ,$190 ,4,127.0,5/28/2019,1.83,1,1,42,"No drunken, naked brawling.  Other than that, no rules. And no smoking. Or illegal drugs. Or pets. OK, so there were more rules. I only accept guests who have been verified through Airbnb.  And I'm a little suspect if you have a blank profile and no picture.  Remember, I'm inviting you into my home and I hope you're not a axe murderer. If this is your first experience with Airbnb, read all the Airbnb information on this website.  Airbnb is not a hostel, nor is it a hotel. I rarely accept guests if they have never used Airbnb before. Please keep the bedroom clean and organized.  You will have exclusive access to the bathroom on the second floor during your stay.   However, this also serves as the guest bathroom, so do your best to keep it tidy.  Don't leave your unmentionables hanging on the light fixtures. You will have access to the first floor (living room, dining room and kitchen) and the guest bedroom and bathroom on the second floor.  My bedroom and study on the second floor and t",
2665416,Lovely Room in Awesome Apartment - Fun/Convenient,38531180913,verified,Yair,Manhattan,Chelsea,40.74563,-73.99325,United States,US,False,flexible,Private room,2004,$126 ,$25 ,3,6.0,6/3/2019,0.1,3,1,315,Please do not smoke in the house.  Please no parties or loud events.,
2665968,"2bd/2bth, drmn, 1 block from subway in LIC",85150662690,verified,Jeremy,Queens,Long Island City,40.748490000000004,-73.94946999999999,United States,US,True,strict,Entire home/apt,2014,$695 ,$139 ,7,0.0,,,3,1,201,"Check-in is 2:00 pm, and checkout 11:00 am (the bedrooms please, you leave your bags to pick up later or bring them early). After reservation please send me your arrival and departure time for logistics 1.No shoes to the second floor  2.Keep the volume low before 8am and after 10pm 3.Close the doors gently 4.No shower after  11:30pm 5.No Laundry after  before 9am and after 8pm 6.Keep the kitchen and  bathroom in decent condition after you 7.Close the shower curtain well (important) 8.No water around the sink (under the sink there is a sponge you can use it to dry) 9.Turn off the light when you leave the room 10.Trash out from the room  BLUE BOX recycling  11.Leave the key in the room THANK YOU",
2666521,Charming and Cozy Bedroom in Artists Colony,20122975620,verified,Beth,Brooklyn,Williamsburg,40.70942,-73.95302,United States,US,True,flexible,Private room,2015,$610 ,$122 ,2,3.0,6/24/2017,0.12,5,2,376,#NAME?,
2667073,"10mins to Manhattan, 59th St, 17mins Times Square.",95188623740,verified,DeLex,Queens,Astoria,40.764509999999994,-73.92942,United States,US,False,strict,Private room,2006,$266 ,$53 ,2,107.0,11/1/2018,1.58,1,1,323,,
2667625,"Cozy 1 BR Apt - Sunnyside, Queens",27941652184,verified,David,Queens,Sunnyside,40.74244,-73.91676,United States,US,False,strict,Entire home/apt,2018,$182 ,$36 ,1,41.0,6/13/2016,0.59,4,2,264,Keep your bedroom and apartment clean. Keep quiet when you share this apartment with other guests. No smoking inside the apartment. Your staying will be terminated if you smoke inside the building. No party after 9:30 p.m.,
2668177,Charming Upper West Side 1 Bedroom,89487023799,verified,Edon,Manhattan,Upper West Side,40.78448,-73.97386,United States,US,True,flexible,Private room,2010,$531 ,$106 ,1,43.0,8/1/2018,0.63,2,1,100,,
2668730,Nice cozy bedroom with cool views in Hell's kit..!,16814284115,unconfirmed,Anthony,Manhattan,Hell's Kitchen,40.76421,-73.99115,United States,US,True,flexible,Private room,2020,$364 ,$73 ,5,62.0,6/23/2019,1.72,4,2,231,"• Check-in time is 3PM. • Check-out time is 11:00AM. • No parties or events • Not suitable for pets • No smoking No smoking, no drugs, no parties and please, no visiting pets or unannounced visitors. Please lock up door when you go out, and during the heating season, turn down the heat. If you are new to Airbnb, the idea is that I’m not renting a room, but rather sharing my home. I live and work here, and enjoy meeting new people. It's like having old friends visit, not like a hotel. You are welcome to make yourself at home in the common living areas and to use the kitchen, but please leave everything as clean and put away as you have found it. As we will be sharing a bathroom, I appreciate your tidying up and keeping personal items in your room. The cat is not allowed outdoors – he can be sneaky so please don’t leave doors open and keep an eye out for her. You are welcome to the kitchen (and common areas), thank you for cleaning your dishes after using them.   I am environmentally fri",
2669282,Newly Renovated East Village Private Guest Studio,62864077343,unconfirmed,S & G,Manhattan,East Village,40.731,-73.98427,United States,US,False,strict,Entire home/apt,2022,$530 ,$106 ,1,233.0,7/6/2019,3.39,3,2,197,"Drinking in moderation, smoking outdoors, no drugs. Please clean up after yourself.",
2669834,Small Cozy Room Wifi & AC near JFK,19353256522,unconfirmed,Antonio,Queens,Woodhaven,40.689679999999996,-73.85219000000001,United States,US,True,strict,Private room,2003,$760 ,$152 ,2,386.0,6/19/2019,5.53,4,3,155,,
2670387,Fully furnished 2 Bedrooms floor-through apartment,35581587448,unconfirmed,Sophie,Manhattan,Harlem,40.802659999999996,-73.94728,United States,US,False,moderate,Entire home/apt,2018,$794 ,$159 ,60,74.0,4/14/2019,1.08,4,1,120,"Please take your street shoes off when entering the house. This is a smoke free home. Please no smoking in and around the house. For all my male guests: Please sit on the toilet. No standing please! This is a shared facility. Therefore, please be considerate of the amount of water and electricity you use. Please keep the noise level low.",
2670939,2000 sqf  Duplex in Townhouse,29974421330,unconfirmed,Francesca,Manhattan,Upper West Side,40.78852,-73.96746,United States,US,False,flexible,Entire home/apt,2003,$885 ,$177 ,5,108.0,7/6/2019,2.63,1,2,237,"NO PETS!  NO SMOKING ON PREMISES! NO PARTY! A printed house rule will be provided. Please be respectful to others when all rooms are booked. 10 AM Check-out and Check-in is between 12 PM (noon) - 3 PM.   Late check in after 8 pm is $50, lock out is $50. Respect yourself, Respect others, clean up after yourself.  No Smoking/drinking in apt.  Thank You! Location Rules: The ""Exact Address Location Is Not Disclosed For Security Reasons"" And Is Given Out 24 Hours Prior to Check-in.  If This Is a Problem for You, Please STOP Here And Contact Other Hosts for Your Stay.   This Is a Part Of My House Rules.",
2671491,Space For guest,74346098489,unconfirmed,Aude,Manhattan,Battery Park City,40.71078,-74.01623000000001,United States,US,False,flexible,Shared room,2017,"$1,022 ",$204 ,1,205.0,6/15/2019,3.04,1,1,360,"No smoking of any kind indoors; no smoking on deck or in back garden; smoking allowed in front garden, where chairs and a table are provided.  Guests using kitchen area are asked to keep it clean and put away food in refrigerator or cabinets or plastic containers.  Quiet hours after 11pm. ",
2672044,( Hostal ) 1 full size Mattress (Top Bunk),50800869033,unconfirmed,Fernando,Queens,Forest Hills,40.71697,-73.83396,United States,US,True,strict,Shared room,2011,"$1,093 ",$219 ,5,63.0,5/19/2019,0.91,3,5,32,"•No Smoking in any part of the property •Please do not leave any trash outside, please leave trash in bag inside the unit •Do not flush anything down toilet except toilet paper •Please maintain a reasonable volume •Please respect the property •No large parties •No more than 4 guests •Please ask before accessing bar •Do not purchase anything on cable •Please do not leave exterior doors open so that we can keep out insects and pests",
2672596,Charming space in lively neighborhood.,2791393223,verified,Joseph,Brooklyn,Crown Heights,40.67528,-73.95741,United States,US,True,strict,Private room,2020,$493 ,$99 ,1,0.0,,,4,1,356,"Unlike most other Airbnb listings, what we do here is long-term rentals by the year, or by the semester.  We try to keep the atmosphere conducive to studying and resting and a couple of house-rules are in place to this end.  1. Towels and linens (sheets, blankets, and pillows) are NOT provided. The bed is twin size. 2. No smoking on the premises.  3. No loud music or TV etc.  4. Only for one person (no couples, no visitors). We seldom have visitors, let alone overnight guests. We know this will be a major turn-off to many people, but we believe we can find a like-minded roommate who can have fun outside the house.  5. If you are not sure about your check-out date, you can reserve the minimum days and extend your stay at a discounted rate.  6. Check-in time has to be coordinated at least 48 hours ahead. On arrival, a short registration process with a picture ID is needed in exchange for keys and wifi access.  7. Inside the apartment, we take off our outside shoes. So if you bring your o",
2673148,Sweet Apartment on Quiet Block,63906881204,verified,Liz,Brooklyn,Bedford-Stuyvesant,40.68931,-73.95548000000001,United States,US,False,strict,Entire home/apt,2007,$818 ,$164 ,7,39.0,6/22/2019,0.91,5,2,156,,
2673700,Sunny 1 bedroom In The Heart of NYC,89953639945,verified,Pk,Manhattan,Murray Hill,40.74881,-73.97234,United States,US,False,strict,Private room,2021,$585 ,$117 ,2,37.0,12/8/2018,0.53,2,1,399,No Parties No Loud Music No Smoking,
2674253,CELEBRATE NEW YEAR'S EVE IN NYC,8572097995,verified,Colleen,Manhattan,Midtown,40.764559999999996,-73.98233,United States,US,True,strict,Entire home/apt,2006,"$1,016 ",$203 ,3,1.0,1/3/2016,0.02,2,1,275,,
2674805,Beautiful 1 bdrm in 2 bdrm apt,79174380251,unconfirmed,Allison,Brooklyn,Williamsburg,40.71284,-73.93965,United States,US,False,flexible,Private room,2008,$57 ,$11 ,3,19.0,6/28/2018,0.41,2,2,303,"- NO PETS!  NO SMOKING ON PREMISES! NO PARTY! A printed house rule will be provided. Please be respectful to others when all rooms are booked. 10 AM Check-out and Check-in is between 12 PM (noon) - 3 PM.   Late check in after 8 pm is $50, lock out is $50. Respect yourself, Respect others, clean up after yourself.  No Smoking/drinking in apt.  Thank You!  Location Rules: The ""Exact Address Location Is Not Disclosed For Security Reasons"" And Is Given Out 24 Hours Prior to Check-in.  If This Is a Problem for You, Please STOP Here And Contact Other Hosts for Your Stay.   This Is a Part Of My House Rules.",
2675357,Charming 1BR,84888521534,verified,Zuffina,Manhattan,Harlem,40.80395,-73.95519,United States,US,False,flexible,Entire home/apt,2008,"$1,082 ",$216 ,3,50.0,5/7/2019,0.74,3,1,48,"NO PETS.  NO SMOKING.  NO PARTIES.  No recreational drugs.  No open flames.  No excess noise after 10:00 pm.  Avoid disturbing neighbors.   NO PETS.  If a pet is found on the premise, a pet surcharge of $300 will be applied. You will be asked to leave immediately and will forfeit your security deposit if an animal is on the property without permission of owner. NO SMOKING PLEASE.  A $500 cleaning fee will be deducted from your deposit if smoking occurs in the unit. This is a NO PARTY house. Parties, loud get-togethers, or gatherings are not allowed because of neighbor issues, and possible damage to property. If a party, loud gathering, or loud disturbance does occur, or if neighbors or other guests call for a loud disturbance, you will forfeit your security deposit and will be evicted immediately. Please Note:  During your stay we ask that you leave the house tidy and in good order.  Guests must provide their own toiletries/cleaning supplies/paper products.  We will have a starter kit ",
2675910,LOFT Private Room - MOVIE THEATER/GYM/LAUNDRY/ROOF,80546444686,unconfirmed,Adriana,Brooklyn,Bedford-Stuyvesant,40.690090000000005,-73.95314,United States,US,True,flexible,Private room,2012,$980 ,$196 ,10,20.0,5/20/2019,0.29,4,1,226,"Guests who use kitchen must wash their dishes (or put them in dishwasher) and wipe stove and counters after eating, in courtesy to other guests. No smoking inside or behind the house; smoking is permitted only in smoking area in front of house. To maintain quiet on floors with bedrooms, please use headphones to listen to music/videos or when making (website hidden) calls in bedrooms, and keep hallways conversations quiet and short.  ",
2676462,1800sf Urban Goddess Brooklyn Loft,71060938896,unconfirmed,Claudia,Brooklyn,Bedford-Stuyvesant,40.69169,-73.9603,United States,US,False,strict,Entire home/apt,2004,$898 ,$180 ,2,85.0,6/17/2019,1.31,2,1,-2,"Respect yourself, respect others, clean up after yourself. No smoking or drinking in the apt. Late check in after 9 p.m. and before 10 A.m. is $50, lock out is $50. Thank you",
2677014,Bushwick Artist Loft - Cozy Room,41503642209,unconfirmed,Tom & Lily,Brooklyn,Bushwick,40.70818,-73.92201999999999,United States,US,False,flexible,Private room,2003,$978 ,$196 ,1,142.0,6/17/2019,2.12,3,3,60,"NO PETS!  NO SMOKING ON PREMISES!  NO PARTY! No ""DRUGS""! - Keep the Place Clean at All Times! - Do Not Ask the ""Neighbors"" for anything.  Ask Me!-  - No Neighbors Interaction! - No ""Drugs"" Please!!! - No Noise! A printed house rule will be provided. Please be respectful to others when all rooms are booked. 10 AM Check-out and Check-in is between 12 PM (noon) - 3 PM.   Late check in after 8 pm is $50, lock out is $50. Respect yourself, Respect others, clean up after yourself.  No Smoking/drinking in apt.  Thank You! Location Rules: The ""Exact Address Location Is Not Stockton St.  It Is 2 Streets Away.  It Is Not Disclosed For Security Reasons"" And Is Given Out 24 Hours Prior to Check-in.  If This Is a Problem for You, Please STOP Here And Contact Other Hosts for Your Stay.   This Is a Part Of My House Rules.",
2677567,Suite Spot in Tribeca,69992649455,verified,Anne,Manhattan,Tribeca,40.71481,-74.00934000000001,United States,US,True,moderate,Entire home/apt,2022,$718 ,$144 ,4,22.0,7/19/2018,0.33,2,1,172,"•Parties or Gatherings are not permitted. •Please be courteous to the neighbors and keep noise levels low, especially between the hours of 10pm-10am. •Absolutely no smoking in the apartment. Smoking only on the back porch •Overnight guests are not permitted unless included on the initial reservation. •Please help us conserve energy by turning off lights, small appliances, lamps, etc. when not being used.  •Please store recyclables separately. •Pets are not permitted at any time. •If you need flexibility around the specified check in or check out times, let us know in advance. •Owner is NOT responsible for any accidents, injuries or illness that occurs while on the premises or its facilities.",
2678119,Entire 1 Bedroom in Williamsburg,39216179291,unconfirmed,Mike,Brooklyn,Williamsburg,40.706579999999995,-73.96759,United States,US,False,moderate,Entire home/apt,2006,$67 ,$13 ,2,6.0,6/11/2017,0.09,3,1,-7,,
2678671,Classic Cool Comfortable LES,76741476123,verified,Rock,Manhattan,Lower East Side,40.721309999999995,-73.98527,United States,US,False,moderate,Private room,2022,$101 ,$20 ,3,210.0,7/5/2019,3.01,3,1,416,,
2679223,"Private, Cozy Bedroom/ Barclay Ctr",52508170846,unconfirmed,Natasha,Brooklyn,Prospect-Lefferts Gardens,40.65987,-73.95076,United States,US,True,strict,Private room,2006,$328 ,$66 ,5,79.0,6/29/2019,1.14,3,3,206,,
2679776,A quite nice bedroom in Greenpoint,76820207813,unconfirmed,Selim,Brooklyn,Greenpoint,40.72495,-73.95111999999999,United States,US,False,moderate,Private room,2010,$229 ,$46 ,3,0.0,,,4,1,240,,
2680328,CHIC NEW YORK OASIS WITH ROOF DECK!,11895287518,verified,Gilleon,Brooklyn,Bedford-Stuyvesant,40.68273,-73.95437,United States,US,True,flexible,Entire home/apt,2015,$84 ,$17 ,1,0.0,,,1,1,229,#NAME?,
2680880,Sunny and charming Soho 1 bedroom,6704399801,unconfirmed,Tanja,Manhattan,Nolita,40.72311,-73.99476,United States,US,True,strict,Entire home/apt,2016,"$1,101 ",$220 ,3,10.0,9/1/2016,0.15,1,1,177,"just act like my friend in building and don't be mean to Jack, he's ugly I know but sweet and small.",
2681433,2 BR Apt in Luxury Building - UES,88954600539,verified,Shane,Manhattan,Upper East Side,40.78277,-73.95164,United States,US,False,flexible,Entire home/apt,2013,$970 ,$194 ,2,2.0,10/19/2014,0.03,2,1,165,"House Rules  Please treat my home as if it were your own. Be respectful of me, my guests, and anyone you may encounter in the building.  No smoking (indoors or on the balcony). Please clean up after yourself, especially in the bathroom. Upon leaving, please put your trash in the chute and strip the linens of the bed. If you have any questions, please ask me. No parties or loud noises in the unit after 10 pm but the club lounge is 24 hours and you are welcome to relax and socialize on the 20th (URL HIDDEN) long as your respectful and not overly loud.   PLEASE ALSO BE MINDFUL OF NEIGHBORS.",
2681985,Harlem Oasis,94295456583,verified,Ephraim,Manhattan,Harlem,40.81157,-73.95335,United States,US,True,moderate,Private room,2003,$989 ,$198 ,1,57.0,5/24/2019,0.91,1,1,87,,
2682537,Private  Studio Museum Block UWS,14290282955,unconfirmed,Ana Maria,Manhattan,Upper West Side,40.776309999999995,-73.97953000000001,United States,US,True,moderate,Entire home/apt,2014,$981 ,$196 ,3,258.0,6/25/2019,3.8,1,1,258,Smoking is strictly prohibited. Your pets are welcome but please mind them. NO PARTIES ALLOWED.  EXCESSIVE NOISE IS STRICTLY PROHIBITED.,
2683090,Union Square/East Village Apartment,75369822182,unconfirmed,Ki,Manhattan,East Village,40.7312,-73.98857,United States,US,False,strict,Entire home/apt,2014,$393 ,$79 ,5,4.0,12/1/2015,0.06,1,1,245,"Check-in is after 3PM Some general information about the apartment. Please try to keep it relatively quite, especially at night. Strict no parties or entertainment policy. No additional guests are allowed outside of reservation. No smoking inside the apartment or hallway. No pets allowed in the apartment. Unfortunately no young children as the house is not equipped for children under 10.   When making a booking - please have a verified email address and phone number on your airbnb account. Respect and treat the apartment as your own and how you would expect others to treat yours. Please communicate with us as soon as possible, should something go wrong during your stay, so we can try to fix it as soon as possible. Once you've confirmed the booking, please respect the apartment and don't hesitate to make it your own. We want you to feel like you are at home, so to sum it all up.. don't do things you wouldn't do at your own place We look forward to welcoming you and have a great time in ",
2683642,"Large, bright Williamsburg room",43233084446,verified,Ana,Brooklyn,Williamsburg,40.70683,-73.95375,United States,US,False,flexible,Private room,2018,$967 ,$193 ,1,10.0,5/20/2019,0.44,4,1,132,"Please do not smoke or do drugs in our home, and please do not have parties.  There is no glass allowed on the roof (which is on the 9th floor).",
2684194,Effortlessly Chic WILLIAMSBURG BK,37153412057,verified,Cory,Brooklyn,Williamsburg,40.71295,-73.93874,United States,US,True,flexible,Entire home/apt,2006,$50 ,$10 ,2,11.0,6/15/2019,0.24,1,1,62,,
2684746,Charming Spacious 1 Bdrm Apt,13302573191,verified,Mike,Brooklyn,Crown Heights,40.67204,-73.95147,United States,US,True,flexible,Entire home/apt,2004,$92 ,$18 ,3,143.0,6/17/2019,2.07,2,1,281,"Please remember that this is a residential building.  All building rules, hotel occupancy restrictions, and year-round tenants must be respected.",
2685299,NYC Super Cool East Village 1 BD,63130688222,unconfirmed,Maegan,Manhattan,East Village,40.72878,-73.97854,United States,US,True,strict,Entire home/apt,2006,$849 ,$170 ,1,26.0,9/5/2016,0.38,2,1,59,,
2685851,Spacious center hall colonial,27615498864,verified,Donna,Staten Island,Woodrow,40.53884,-74.19826,United States,US,False,strict,Entire home/apt,2009,"$1,025 ",$205 ,7,0.0,,,5,1,56,,
2686403,DOMINIQUE'S NY*Wanderlust room/Metro/Bronx Zoo/Gdn,54535258271,unconfirmed,Vie,Bronx,Co-op City,40.863170000000004,-73.82494,United States,US,True,strict,Private room,2021,$228 ,$46 ,2,32.0,1/1/2019,0.46,4,13,245,,
2686956,Private room with sleeping loft,40032701253,verified,Valerie,Brooklyn,Williamsburg,40.7187,-73.95133,United States,US,False,flexible,Private room,2019,$703 ,$141 ,2,14.0,2/1/2014,0.2,4,2,136,#NAME?,
2687508,"Perfect Brooklyn Stay, Apt for 4",37589704173,unconfirmed,Isaac,Brooklyn,Park Slope,40.67749,-73.98031,United States,US,False,moderate,Entire home/apt,2003,$780 ,$156 ,2,15.0,8/7/2015,0.22,5,1,0,#NAME?,
2688060,YOUR  PRIVATE COZY 1Br + 15min from Manhattan,63981707220,verified,John,Queens,Sunnyside,40.73747,-73.9248,United States,US,False,moderate,Entire home/apt,2019,"$1,194 ",$239 ,1,92.0,7/3/2019,6.3,3,2,-8,#NAME?,
2688613,Industrial Modern 1 Bedroom - Prime Williamsburg,15392442806,unconfirmed,Lauren,Brooklyn,Williamsburg,40.71875,-73.94935,United States,US,True,strict,Entire home/apt,2009,$690 ,$138 ,2,14.0,5/20/2019,0.76,2,1,7,,
2689165,Huuuge Sunny Central Park REAL 2 bedroom 1.5 baths,17890758578,verified,Lo,Manhattan,Midtown,40.763909999999996,-73.9782,United States,US,True,strict,Entire home/apt,2004,$299 ,$60 ,6,40.0,9/1/2018,0.58,5,1,117,,
2689717,Near Subway Sunny Spacious Room in NYC,21853476404,verified,Katy,Manhattan,Morningside Heights,40.815690000000004,-73.96058000000001,United States,US,True,flexible,Private room,2021,$541 ,$108 ,2,12.0,3/31/2019,0.17,3,1,54,"No parties, smoking or pets. Feel free to enjoy the location and space, just be respectful, thank you! (My doorman will know if you are bringing people up to the apartment.)",
2690269,nice room in bedstuy B,74818883223,unconfirmed,Randy,Brooklyn,Bedford-Stuyvesant,40.683659999999996,-73.95009,United States,US,False,strict,Private room,2008,$885 ,$177 ,1,71.0,7/4/2019,1.06,4,15,31,,
2690822,Flat Iron 2BD Beautiful Apt,91028461151,verified,Krista,Manhattan,Flatiron District,40.74107,-73.98487,United States,US,False,flexible,Entire home/apt,2003,$605 ,$121 ,1,0.0,,,1,1,53,#NAME?,
2691374,Brooklyn Heights One Bedroom Loft,7890426975,verified,Sherief,Brooklyn,Brooklyn Heights,40.7001,-73.99183000000001,United States,US,True,flexible,Entire home/apt,2007,$781 ,$156 ,5,16.0,8/28/2018,0.23,5,1,137,NO Smoking Pets Allowed with Fee,
2691926,Mayor's Mansion - Fort Greene,38948781012,unconfirmed,Claudia And Leo,Brooklyn,Fort Greene,40.68585,-73.97015999999999,United States,US,False,flexible,Entire home/apt,2017,$648 ,$130 ,4,134.0,7/2/2019,1.95,3,1,414,"Please remember that this is a residential building. The building rules, apartment occupancy restrictions and the year-round tenants must be respected.  Parties, pets and smoking are not allowed under any circumstances and incur significant fees.",
2692479,Bright and Airy Brooklyn Loft,85844934849,verified,Allison,Brooklyn,Williamsburg,40.70498,-73.92868,United States,US,True,moderate,Entire home/apt,2014,$747 ,$149 ,3,2.0,1/2/2015,0.03,5,1,128,"Please remember that this is a residential building. The building rules, apartment occupancy restrictions and the year-round tenants must be respected.  Parties and smoking are not allowed under any circumstances and incur significant fees. Pets may be considered with pre-approval and an additional pet fee.",
2693031,Stunning  Limestone  1 Bdrm Flat,32630834773,verified,Danielle,Brooklyn,Crown Heights,40.67191,-73.93997,United States,US,False,moderate,Entire home/apt,2017,$523 ,$105 ,3,190.0,6/25/2019,2.77,3,1,386,Professional building with professional behavior expectations!,
2693583,"SUNNY,SUPER CLEAN WEST VILLAGE  APT",70818873080,verified,Hakan,Manhattan,West Village,40.732459999999996,-74.00215,United States,US,False,flexible,Entire home/apt,2013,$124 ,$25 ,10,4.0,1/2/2019,0.06,2,1,197,"We expect guests to treat our home as if it were their own. Be neat and clean, considerate, and respectful of both our home and our neighbors. There is NO smoking in the home, NO pets, NO drugs!!!",
2694136,Queen size room in Brooklyn,62710852418,unconfirmed,Christine,Brooklyn,Bedford-Stuyvesant,40.69023,-73.94628,United States,US,True,flexible,Private room,2003,$405 ,$81 ,1,19.0,6/22/2019,0.29,1,5,61,#NAME?,
2694688,Invitation to travelers,90361476003,unconfirmed,Christine,Brooklyn,Bedford-Stuyvesant,40.69096,-73.94613000000001,United States,US,True,moderate,Private room,2008,$742 ,$148 ,7,30.0,2/16/2019,0.43,5,5,157,,
2695240,"Priv room in 3 bdrm apt - Room ""B""",83039352876,unconfirmed,Ryan,Manhattan,East Harlem,40.80126,-73.9454,United States,US,False,strict,Private room,2019,$839 ,$168 ,3,22.0,1/5/2016,0.32,4,3,290,,
2695792,R & R In Harlem,56483375920,unconfirmed,Na'Im,Manhattan,Harlem,40.817479999999996,-73.94539,United States,US,False,strict,Private room,2014,$333 ,$67 ,1,0.0,,,5,1,95,,
2696345,Private Room,98459849749,verified,Brian,Manhattan,Chelsea,40.741659999999996,-73.99892,United States,US,True,flexible,Private room,2007,$470 ,$94 ,30,83.0,10/23/2017,1.2,2,1,332,,
2696897,Spacious Parkside View Bedroom,7803995033,verified,Jennifer,Manhattan,Harlem,40.8145,-73.94962,United States,US,True,flexible,Private room,2012,$807 ,$161 ,1,1.0,11/16/2015,0.02,3,1,425,,
2697449,East Williamsburg Clean Apartment,33120847173,unconfirmed,Nikki,Brooklyn,Williamsburg,40.71261,-73.94154,United States,US,True,strict,Entire home/apt,2007,$253 ,$51 ,2,2.0,2/12/2016,0.05,1,1,411,"Our check in time is 3pm. If you would like to check in earlier please let us know ahead of time.   We are happy to accomidate if possible, but do understand that we need some time to make sure your room is ready on your arrival.  Clean up after yourself & turn lights off on our roof deck.  It is a common space in the building.    There is No Smoking in the apartment or on the roof deck.  Please no guests without checking with us. We have some nosy neighbors so if they ask where you are staying please let them know with friends or family.  Some of our neighbors are not happy with us using AirBNB.   Thank you for helping us out!",
2698002,Enjoy Harlem Renassiance Sunny Room,17924160150,verified,Andre,Manhattan,Harlem,40.82519,-73.9453,United States,US,True,flexible,Private room,2019,"$1,008 ",$202 ,1,93.0,7/2/2019,1.34,2,3,128,,
2698554,"Large, Private 1BR in Noho/Nolita/Soho",8355768835,verified,Drew,Manhattan,NoHo,40.726440000000004,-73.9923,United States,US,True,moderate,Entire home/apt,2010,$483 ,$97 ,2,25.0,12/29/2018,0.36,2,1,15,,
2699106,Urban Jungle in Bedford Stuyvesant,52113110103,verified,Eric,Brooklyn,Bushwick,40.68909,-73.9173,United States,US,False,strict,Entire home/apt,2011,$641 ,$128 ,2,240.0,6/11/2019,3.53,4,2,426,,
2699659,":: Spacious 1bedroom, great loca ::",67494259744,verified,Ilana,Manhattan,Gramercy,40.73689,-73.98451,United States,US,False,moderate,Entire home/apt,2010,$889 ,$178 ,1,80.0,1/2/2018,1.16,3,1,3,,
2700211,Peaceful Oasis. 25 mins. Manhattan,62951883244,unconfirmed,Carlos,Queens,Briarwood,40.71594,-73.82264,United States,US,False,strict,Private room,2006,$321 ,$64 ,5,80.0,6/8/2019,1.16,4,2,262,,
2700763,Skylight BR in Gorgeous Rooftop Apt,94317530239,verified,Charisse,Brooklyn,Bushwick,40.69048,-73.92193,United States,US,True,moderate,Private room,2007,"$1,126 ",$225 ,1,336.0,6/28/2019,4.83,4,1,95,,
2701315,Amazing views in Williamsburg Condo,17298156595,unconfirmed,Mark,Brooklyn,Williamsburg,40.71454,-73.94965,United States,US,True,moderate,Entire home/apt,2011,$301 ,$60 ,2,10.0,6/8/2019,0.15,3,1,247,,
2701868,HUGE 2bdrm LOFT in NOHO/East Vill!,31057046326,unconfirmed,Liam,Manhattan,NoHo,40.72569,-73.99226999999999,United States,US,True,flexible,Entire home/apt,2005,$913 ,$183 ,30,93.0,1/3/2019,1.36,2,2,194,,
2702420,Budget Friendly & Spacious,39191138327,verified,Nancy,Brooklyn,Canarsie,40.64738,-73.89163,United States,US,False,flexible,Private room,2003,$530 ,$106 ,5,54.0,7/3/2019,0.78,2,5,384,"Shoes off in the house, please! Turn A/C off when not home, and hand-wash the knives. Thanks :).",
2702972,Urban Cottage in Williamsburg BK,59183900833,verified,Michael,Brooklyn,Williamsburg,40.71618,-73.94189,United States,US,False,flexible,Entire home/apt,2012,$313 ,$63 ,3,164.0,6/30/2019,2.39,4,2,335,,
2703525,Private room in sunny Bedstuy apartment,65275514496,unconfirmed,Michael,Brooklyn,Bedford-Stuyvesant,40.69493,-73.94161,United States,US,True,moderate,Private room,2017,$658 ,$132 ,3,35.0,6/21/2019,0.72,5,1,131,Parties and smoking are not allowed under any circumstances and incur significant fees. Pets may be considered with pre-approval and an additional pet fee.,
2704077,Large Comfortable Studio in Chelsea,51269574519,verified,Nayef,Manhattan,Chelsea,40.74386,-73.99540999999999,United States,US,True,flexible,Entire home/apt,2009,$591 ,$118 ,2,8.0,7/29/2016,0.18,1,1,304,"In the building you are my guest, know my name and our unit at all times or they will throw you out.  they don't care if you are from airbnb or the king of England, you don't know who you are here with they toss you.  Don't make a problem for the doorman under any circumstances (being drunk and locked out, call me not him).  He can't get you in.   There are some high rollers in the building, act like you have been there before :) There are some nice common areas, just act like the upstanding business professional you are.",
2704629,Gorgeous large 1 bedroom apt for March- April.,45146781204,verified,Marek,Manhattan,Washington Heights,40.85557,-73.93641,United States,US,False,flexible,Entire home/apt,2018,$205 ,$41 ,7,3.0,4/8/2018,0.04,1,1,109,,
2705182,Large 2BR apartment East Village,90881976730,unconfirmed,Chris,Manhattan,East Village,40.7221,-73.98356,United States,US,True,flexible,Entire home/apt,2004,$156 ,$31 ,1,53.0,4/28/2019,1.04,5,3,326,"House Rules  Please treat my home as if it were your own. Be respectful of me, my guests, and anyone you may encounter in the building. Please do NOT mention airbnb and that you are renting the unit.  No smoking (indoors or on the balcony). Please clean up after yourself, especially in the bathroom. Upon leaving, please put your trash in the chute and strip the linens of the bed. If you have any questions, please ask me. No parties or loud noises in the unit after 10 pm but the club lounge is 24 hours and you are welcome to relax and socialize on the 20th (URL HIDDEN) long as your respectful and not overly loud.   PLEASE ALSO BE MINDFUL OF NEIGHBORS.",
2705734,Large 1 BR apartment in the LES!,14608776384,unconfirmed,Leo,Manhattan,Lower East Side,40.72018,-73.98839,United States,US,True,strict,Entire home/apt,2017,"$1,168 ",$234 ,2,0.0,,,5,1,398,,
2706286,LOCATION LOCATION LOCATION Abigail,34652421499,verified,Liz,Manhattan,Gramercy,40.73679,-73.98177,United States,US,False,moderate,Entire home/apt,2008,$738 ,$148 ,30,104.0,4/6/2019,1.51,2,4,288,,
2706838,"Lovely Bedroom - Bed Stuy, Brooklyn",40185284809,verified,Jenelle & Michael,Brooklyn,Bedford-Stuyvesant,40.68385,-73.92349,United States,US,False,moderate,Private room,2009,$594 ,$119 ,1,36.0,1/2/2016,0.53,3,1,311,Smoking is strictly prohibited. Your pets are welcome but please mind them. NO PARTIES ALLOWED.  EXCESSIVE NOISE IS STRICTLY PROHIBITED,
2707391,Just like home & more in Rm #2,13270218375,unconfirmed,Emmett,Manhattan,Harlem,40.82557,-73.95514,United States,US,True,strict,Private room,2017,$794 ,$159 ,7,9.0,5/21/2019,0.14,3,2,408,Strictly no smoking on property. Your pets are welcome but please mind them. NO PARTIES ALLOWED.  EXCESSIVE NOISE IS STRICTLY PROHIBITED,
2707943,Huge Room with Private Bathroom,67051482156,unconfirmed,Lana,Brooklyn,Flatbush,40.65083,-73.96101,United States,US,True,flexible,Private room,2018,$236 ,$47 ,3,3.0,7/3/2016,0.04,2,1,164,,
2708495,2 bdr NYC duplex w balcony,8837030688,verified,Aimee,Manhattan,Gramercy,40.73285,-73.98245,United States,US,True,flexible,Entire home/apt,2022,$870 ,$174 ,2,40.0,5/28/2019,0.63,4,1,297,"Please treat my home as if it were your own. Be respectful of me, my cleaning lady,and anyone you may encounter in the building. No smoking (indoors or on the balcony). Please clean up after yourself, especially in the bathroom. Upon leaving, please put your trash in the chute and strip the linens off the bed. If you have any questions, please ask me.",
2709048,Bright & cosy 1 bedroom apartment,26067465069,unconfirmed,Ines,Brooklyn,Williamsburg,40.717659999999995,-73.95634,United States,US,False,moderate,Entire home/apt,2003,$810 ,$162 ,3,61.0,7/6/2019,0.9,4,1,136,,
2709600,••BEST Manhattan Downtown Location!!••,9643344994,verified,Jessica,Manhattan,East Village,40.729820000000004,-73.98532,United States,US,True,strict,Entire home/apt,2015,$627 ,$125 ,2,53.0,1/1/2018,0.79,3,2,108,"Thank you for your reservation. By placing your reservation online you indicated that you accepted the terms and conditions which have been printed below.  Please review your reservation summary as below - then print, sign and return the agreement to:  (EMAIL HIDDEN) or fax it to (PHONE NUMBER HIDDEN) or  mail it to: Spare Suite, Inc., 119 Braintree Street, Suite 510, Boston, MA 02134, USA Upon receipt, we will send you the welcome document with check in instructions and how to get your keys. ------------------------------------------------------------------------ ------------------------------------------------------------------------ Terms of the Agreement: BOOKING AND REFUND POLICY Once booked your reservation is guaranteed for the check in and check out times and dates specified. All reservations must be paid in advance, in full for the entire period of stay.  All reservations are final, and NON REFUNDABLE UNDER ANY CIRCUMSTANCES.  If you feel you may need to cancel once booked, yo",
2710152,Cool and spacious room-Approx 150 yard from LTrain,8344812293,unconfirmed,Michael,Brooklyn,Bushwick,40.68135,-73.9046,United States,US,True,strict,Private room,2018,$849 ,$170 ,3,7.0,9/4/2017,0.11,3,1,72,"Please no smoking in the house.  As we are working professionals we are hoping you can share this space while you visit and we'd love to chat with you, but no parties please.",
2710705,Brownstone Penthouse Apartment,80767545761,unconfirmed,David,Manhattan,Harlem,40.80964,-73.94098000000001,United States,US,True,strict,Entire home/apt,2004,$888 ,$178 ,4,35.0,6/19/2019,0.52,5,1,255,,
2711257,Heart of Williamsburg,34803744573,verified,Emily,Brooklyn,Williamsburg,40.71216,-73.96274,United States,US,False,moderate,Private room,2009,$544 ,$109 ,3,85.0,6/17/2019,1.35,3,2,267,- Check out by 10am,
2711809,Luxury Contemporary Central Home,18661063045,verified,Ian,Manhattan,Chelsea,40.73865,-73.9962,United States,US,True,flexible,Entire home/apt,2019,$994 ,$199 ,5,0.0,,,3,1,196,"Please remember that this is a residential building. The building rules, apartment occupancy restrictions and the year-round tenants must be respected.  Parties, pets and smoking are not allowed under any circumstances and incur significant fees.",
2712361,"Washer, Marble Bath, Yard near Subways, High Line",97343914670,verified,Michael,Manhattan,Chelsea,40.75,-73.99721,United States,US,False,strict,Entire home/apt,2015,$761 ,$152 ,110,13.0,3/9/2019,0.21,4,19,39,Please pick up/drop packet with front desk concierge. ABSOLUTELY NO SMOKING!!,
2712914,Bushwick / Bed Sty Retreat,74118829120,unconfirmed,Brian,Brooklyn,Bedford-Stuyvesant,40.69168,-73.932,United States,US,True,moderate,Private room,2008,$546 ,$109 ,2,0.0,,,4,1,17,"Please remember that this is a residential building. The building rules, apartment occupancy restrictions and the year-round tenants must be respected.  Parties and smoking are not allowed under any circumstances and incur significant fees. Pets may be considered with pre-approval and an additional pet fee.",
2713466,Great Apt-Heart of East Village!,44938080405,verified,Sinead,Manhattan,East Village,40.73135,-73.98298,United States,US,False,moderate,Entire home/apt,2008,$92 ,$18 ,1,0.0,,,5,1,31,#NAME?,
2714018,Modern Waterfront 2Bed Williamsburg,62290110283,unconfirmed,Cris,Brooklyn,Williamsburg,40.71817,-73.96401,United States,US,False,flexible,Entire home/apt,2010,"$1,146 ",$229 ,5,14.0,2/6/2015,0.22,1,1,213,"Some general information about the apartment. Please be respectful to the neighbors during your stay. Try to keep it relatively quite, especially at night. Strict no parties or entertainment policy. No additional guests are allowed outside of reservation. No smoking inside the apartment or hallway. No pets allowed in the apartment. Unfortunately no young children as the house is not equipped for children under 10.   When making a booking - please have a verified email address and phone number on your airbnb account. Respect and treat the apartment as your own and how you would expect others to treat yours. Please communicate with us as soon as possible, should something go wrong during your stay, so we can try to fix it as soon as possible. Once you've confirmed the booking, please respect the apartment and don't hesitate to make it your own. We want you to feel like you are at home, so to sum it all up.. don't do things you wouldn't do at your own place We look forward to welcoming yo",
2714571,"1B in NYC - East Village, Manhattan",57455866301,unconfirmed,Gwen,Manhattan,Stuyvesant Town,40.73196,-73.97932,United States,US,True,flexible,Entire home/apt,2014,$221 ,$44 ,5,27.0,7/21/2017,0.48,4,1,255,"Please remember that this is a residential building. The building rules, apartment occupancy restrictions and the year-round tenants must be respected.  Parties and smoking are not allowed under any circumstances and incur significant fees. Pets may be considered with pre-approval and an additional pet fee.",
2715123,Cozy spacious 1 bed in Murray Hill,42356108096,verified,Taran Pal,Manhattan,Kips Bay,40.74392,-73.9811,United States,US,True,strict,Private room,2020,"$1,042 ",$208 ,3,12.0,3/8/2016,0.18,5,3,62,"To be helpful to you, I have prepared detailed arrival information and send that to you a few days before you arrive. I ask that you read the info carefully to help you enjoy your stay and ask that you send me a note indicating you have read all the information before your day of arrival. Thanks!",
2715675,Large Eco bedroom on the River,11485543432,unconfirmed,Y&Y,Manhattan,Kips Bay,40.735440000000004,-73.97465,United States,US,False,moderate,Private room,2010,$647 ,$129 ,5,51.0,6/10/2019,0.76,3,1,151,"Please remember that this is a residential building. The building rules, apartment occupancy restrictions and the year-round tenants must be respected.  Parties, pets and smoking are not allowed under any circumstances and incur significant fees.",
2716228,SPECIAL NEW YEAR'S LUXURIOUS MANHATTAN APT,17176347978,unconfirmed,Lois,Manhattan,Midtown,40.76547,-73.97729,United States,US,True,moderate,Entire home/apt,2003,$664 ,$133 ,2,0.0,,,5,1,110,,
2716780,HappyCozy GuestSuite w/ Great Energy close to JFK,45552611590,unconfirmed,Megan,Brooklyn,Cypress Hills,40.6784,-73.89362,United States,US,False,flexible,Entire home/apt,2015,$166 ,$33 ,1,319.0,7/8/2019,8.52,3,1,-10,"Please remember that this is a residential building. The building rules, apartment occupancy restrictions and the year-round tenants must be respected. Parties, pets and smoking are not allowed under any circumstances and incur significant fees.",
2717332,Self contained ground level apt,81825938538,unconfirmed,Mick,Brooklyn,Bedford-Stuyvesant,40.68674,-73.95392,United States,US,False,flexible,Entire home/apt,2021,$744 ,$149 ,7,122.0,6/17/2019,1.91,1,2,230,Smoking is strictly prohibited. Your pets are welcome but please mind them. NO PARTIES ALLOWED.  EXCESSIVE NOISE IS STRICTLY PROHIBITED,
2717884,Spacious Midtown Manhattan room,17877463476,verified,Ayse Sera,Manhattan,Midtown,40.76129,-73.96869000000001,United States,US,True,flexible,Entire home/apt,2010,$76 ,$15 ,3,21.0,10/12/2016,0.34,1,1,280,"wash your dishes, turn off the AC and lights when you leave, keep noise to a minimum after 10pm",
2718437,Renovated Studio Midtown East,94931043645,verified,Evan & Maria,Manhattan,Midtown,40.7525,-73.96491999999999,United States,US,False,flexible,Entire home/apt,2010,$88 ,$18 ,4,130.0,5/31/2019,1.92,5,2,128,Smoking is allowed on balcony and other designated areas. Your pets are welcome but please mind them. NO PARTIES ALLOWED.  EXCESSIVE NOISE IS STRICTLY PROHIBITED.,
2718989,Lux Doorman by 11 trains,19429920897,unconfirmed,Reginald,Brooklyn,Boerum Hill,40.68897,-73.98765,United States,US,True,moderate,Private room,2007,$419 ,$84 ,90,47.0,12/11/2015,0.73,4,1,363,Smoking is strictly prohibited. Your pets are welcome but please mind them. NO PARTIES ALLOWED.  EXCESSIVE NOISE IS STRICTLY PROHIBITED,
2719541,Clean Cute and Cozy Harlem Apt,9487558495,verified,Teresa,Manhattan,Harlem,40.82097,-73.93765,United States,US,True,strict,Private room,2014,$573 ,$115 ,1,1.0,9/11/2016,0.03,2,2,274,#NAME?,
2720094,"Serene, Authentic Artist's Loft",22573807909,unconfirmed,Kali,Brooklyn,Bushwick,40.70714,-73.9216,United States,US,True,strict,Entire home/apt,2015,$143 ,$29 ,2,8.0,6/24/2019,0.12,5,1,42,,
2720646,Cosy Brooklyn NYC One Bedroom in Garden Level,65348033754,unconfirmed,Carol-Anne,Brooklyn,East Flatbush,40.644690000000004,-73.9469,United States,US,True,flexible,Private room,2014,"$1,029 ",$206 ,2,23.0,10/31/2018,0.34,4,1,52,,
2721198,East Village - 180º City View & Private Balcony,73259431731,unconfirmed,Esther & Aaron,Manhattan,East Village,40.723690000000005,-73.9753,United States,US,False,strict,Entire home/apt,2022,$476 ,$95 ,2,29.0,6/28/2019,0.86,4,1,396,,
2721751,Park Slope Bedroom in Eccentric New York Apartment,68025051825,verified,Frederick,Brooklyn,South Slope,40.66516,-73.9794,United States,US,True,flexible,Private room,2013,$925 ,$185 ,2,166.0,7/2/2019,2.49,5,1,192,,
2722303,Beautiful 1BR in East Village!,57941471257,verified,Camille,Manhattan,East Village,40.729690000000005,-73.98151,United States,US,False,strict,Entire home/apt,2019,$551 ,$110 ,5,9.0,6/5/2016,0.13,3,1,134,No pets. No smoking.,
2722855,AUTHENTIC TRIBECA LOFT NEAR SOHO,91759753029,unconfirmed,Genevieve,Manhattan,Tribeca,40.71417,-74.00678,United States,US,False,flexible,Entire home/apt,2013,$251 ,$50 ,3,60.0,5/4/2019,0.91,1,1,87,,
2723407,Beautiful BK 1 Block From Subway,62057671901,unconfirmed,Shane,Brooklyn,Carroll Gardens,40.67522,-73.99978,United States,US,True,strict,Entire home/apt,2015,$356 ,$71 ,2,29.0,6/30/2019,0.63,3,1,161,Smoking is strictly prohibited. Your pets are welcome but please mind them. NO PARTIES ALLOWED.  EXCESSIVE NOISE IS STRICTLY PROHIBITED,
2723960,Beautiful warm duplex apartment,8492858595,verified,Mick,Brooklyn,Bedford-Stuyvesant,40.68489,-73.95473,United States,US,False,moderate,Entire home/apt,2019,$826 ,$165 ,7,108.0,6/17/2019,1.72,5,2,284,,
2724512,Great Manhattan apartment,1840784664,unconfirmed,Roberto,Manhattan,Morningside Heights,40.80738,-73.95855,United States,US,True,moderate,Entire home/apt,2003,$449 ,$90 ,5,4.0,10/6/2017,0.07,3,1,181,,
2725064,Luxurious Brownstone Duplex w Outdoor Space,87871487596,unconfirmed,Will And Jo,Brooklyn,Bedford-Stuyvesant,40.693220000000004,-73.94581,United States,US,True,moderate,Entire home/apt,2021,$998 ,$200 ,3,181.0,6/28/2019,2.69,1,2,342,The home is not suitable for pets or children under 10,
2725617,Studio in the Family Brownstone,15719398849,unconfirmed,Dorcas,Brooklyn,Bedford-Stuyvesant,40.6889,-73.92469,United States,US,True,strict,Entire home/apt,2006,$542 ,$108 ,3,134.0,6/21/2019,2.0,4,1,2,,
2726169,"Pre-War - Subway,Park's & Museum's",44741540268,unconfirmed,Kimberly,Manhattan,Upper East Side,40.775929999999995,-73.94927,United States,US,False,strict,Entire home/apt,2009,$235 ,$47 ,1,0.0,,,4,1,97,,
2726721,Unshared Apt Cozy One Bedroom,66428828191,verified,Sherry,Manhattan,Harlem,40.82597,-73.95102,United States,US,True,strict,Entire home/apt,2021,"$1,042 ",$208 ,5,29.0,5/18/2019,0.43,1,1,93,"First and foremost, treat this house like you would like your guests to respect and treat yours. No shoes in the house (slippers will be provided to you upon your arrival). Clean up after yourself & turn lights off whenever leaving a space, specially on our roof deck.  There is no smoking in the apartment or on the roof deck. Guests are not allowed to have other guests come over.",
2727274,"Hip, Brick East Village Apartment",55018288469,verified,Peter,Manhattan,East Village,40.72485,-73.98349,United States,US,True,moderate,Private room,2016,$994 ,$199 ,3,97.0,6/24/2019,1.45,4,1,245,Be courteous to neighbors. No parties. No smoking. No pets. No hanging around on front porch.,
2727826,Private room in Center of Manhattan,38338638547,unconfirmed,Anthony,Manhattan,Hell's Kitchen,40.76254,-73.98711999999999,United States,US,False,flexible,Private room,2008,"$1,083 ",$217 ,1,61.0,6/25/2019,1.04,5,1,61,,
2728378,Labor Day in Brooklyn Room Stay,13989021386,unconfirmed,Jay,Brooklyn,Crown Heights,40.67143,-73.94929,United States,US,False,flexible,Private room,2020,$584 ,$117 ,5,0.0,,,2,1,352,"1. Only the ORIGINAL OCCUPANTS at the time of booking are allowed to stay in the property overnight and secondly no additional guest will be brought in without prior authorization. 2. Excessive NOISE & DISTURBANCES, specifically on work nights (Sunday thru Thursday) are to be kept to a minimum after 10pm. On other nights of the week we ask that noise is kept to a controlled, restrained and respectable level do to the nature of this being a shared space.  3. SMOKING is not permitted in any of the inside premises, this includes the guest room, condo unit and building. You may smoke outside on the sidewalk. 4. DAMAGES to the property and it's contents (within the bedroom and the condo itself) will be subject to reinstitution in accordance to airbnb rules and regulations and may lead to the immediate dismissal from the property. 5. WASHER & DRYER is available for use by the guest free of charge, but under the condition that we (the host) are present at the time of use. In an effort to cons",
2728930,1BR Priv. East Village Apt Sleeps 4,11681753362,verified,Ross,Manhattan,East Village,40.72335,-73.98549,United States,US,True,moderate,Entire home/apt,2020,$152 ,$30 ,3,10.0,9/7/2016,0.15,2,1,227,"* Guest booking room, must be the person staying in room. DO NOT book room for somebody else! Thanks! * No smoking and pets are not allowed in the building. Also, only guests listed on the booking are allowed in this house. Sorry, friends and family are not allowed inside the house. For your safety, and mine. :) Lost keys will result in a $75 fee to replace the locks in the house.",
2729483,Luxury Apartment a walk to the park,36407237411,unconfirmed,Amber,Manhattan,Upper East Side,40.769059999999996,-73.9517,United States,US,False,strict,Entire home/apt,2016,$648 ,$130 ,5,6.0,7/13/2015,0.1,4,1,263,,
2730035,Prime East Village Spacious 1 BED,65239664684,unconfirmed,Amanda,Manhattan,East Village,40.72394,-73.98940999999999,United States,US,False,flexible,Entire home/apt,2015,$126 ,$25 ,4,43.0,12/30/2018,0.68,4,1,264,I have no time restraints on Guests. Come and go as you please.,
2730587,Affordable Private Room in NYC!,54442949042,verified,Alex,Manhattan,Washington Heights,40.84278,-73.93725,United States,US,True,moderate,Private room,2007,"$1,052 ",$210 ,3,79.0,6/23/2019,1.15,3,1,104,"1. Only the ORIGINAL OCCUPANTS at the time of booking are allowed to stay in the property overnight and secondly no additional guest will be brought in without prior authorization. 2. CHECK IN/OUT: We typically follow the standard check in and out times (4 p.m., 11 p.m. respectively) however we're flexible and can accommodate your needs as long as it doesn't impact another renter if you have special check-in or out times. There is a keypad lock and each renter will receive their own passcode so you can come and go as you please and not worry about keys or timing. 3. Excessive NOISE & DISTURBANCES, specifically on work nights (Sunday thru Thursday) are to be kept to a minimum after 10 pm. On other nights of the week we ask that noise is kept to a controlled, restrained and respectable level do to the nature of this being a shared space. 4. SMOKING is not permitted in any of the inside premises, this includes the guest room, condo unit and building. You may smoke outside in the street or",
2731140,Carol,41426587231,unconfirmed,Jessica,Manhattan,East Village,40.72898,-73.98051,United States,US,True,moderate,Private room,2020,"$1,197 ",$239 ,1,0.0,,,3,1,386,"1. Only the ORIGINAL OCCUPANTS at the time of booking are allowed to stay in the property overnight and secondly no additional guest will be brought in without prior authorization. 2. CHECK IN/OUT: We typically follow the standard check in and out times (4 p.m., 11 p.m. respectively) however we're flexible and can accommodate your needs as long as it doesn't impact another renter if you have special check-in or out times. There is a keypad lock and each renter will receive their own passcode so you can come and go as you please and not worry about keys or timing. 3. Excessive NOISE & DISTURBANCES, specifically on work nights (Sunday thru Thursday) are to be kept to a minimum after 10 pm. On other nights of the week we ask that noise is kept to a controlled, restrained and respectable level do to the nature of this being a shared space. 4. SMOKING is not permitted in any of the inside premises, this includes the guest room, condo unit and building. You may smoke outside in the street or",
2731692,1 BR Penthouse with Private Terrace,6214712454,unconfirmed,Kristie,Manhattan,Upper West Side,40.78618,-73.97339000000001,United States,US,True,flexible,Entire home/apt,2011,$310 ,$62 ,4,38.0,1/1/2018,0.56,5,1,242,No outdoor shoes within the apartment and loud noises.,
2732244,2nd@THROOP MANSION,20295017502,unconfirmed,Kris,Brooklyn,Bedford-Stuyvesant,40.68864,-73.94166,United States,US,False,strict,Entire home/apt,2015,$172 ,$34 ,1,93.0,4/29/2018,1.51,5,1,317,To keep house and house items in the same condition that they were when guests arrived,
2732797,"2 Br Condo: Elegant, Amazing Views!",30273461075,unconfirmed,Coats,Manhattan,Hell's Kitchen,40.75562,-73.99736,United States,US,True,moderate,Entire home/apt,2011,$425 ,$85 ,5,42.0,5/25/2019,0.61,5,1,408,"No pets and no smoking (including outside near the entrance, as it sometimes blows back into the building). Please remove your shoes when entering (we have sensitive floors :)). Thank you!",
2733349,3+ Bedroom Steps to Park Avenue,6653219993,unconfirmed,David,Manhattan,Upper East Side,40.77585,-73.95566,United States,US,False,strict,Entire home/apt,2016,$496 ,$99 ,3,46.0,5/27/2019,0.67,4,1,412,No smoking or pets allowed and we request that you respect our neighbors by observing quiet hours between 9 p.m. and 8 a.m.  We also request that you do not invite other guests over without our permission.  No shoes allowed in the house.  Please treat our home as you would treat yours!,
2733901,Private bedroom in awesome loft apt,29820288847,verified,J.D. & Stephanie,Brooklyn,Williamsburg,40.71338,-73.96833000000001,United States,US,False,strict,Private room,2009,$155 ,$31 ,1,220.0,6/21/2019,3.53,4,2,12,"Please let me know a head your checking in and checking out  time. I request the guest to be respectable. Only the guest is allowed to stay in the room, pets and smoking not allowed. Please shut off all lights and electrical appliances when you not using the premises.",
2734453,Harlem 1BR - 3 blocks to subway!,74314544991,verified,Abby,Manhattan,Harlem,40.80491,-73.94752,United States,US,False,strict,Entire home/apt,2021,$947 ,$189 ,5,0.0,,,3,1,189,"Check In/ Check Out: Flexible regarding to check in time, but please give notice ahead of time to make sure your check in goes smoothly. Would like to be there to greet you, but often times are away. If so, will leave you the keys for self check in. Please refer to check out time as 12PM and inquire if you require a different check out time. Parking: There is a dedicated off-street parking spot for ONE car only. More than one car in parking area is strictly prohibited. Any extra vehicles will need to go in a nearby parking garage.  Shoes Off: Please kindly take your shoes off at the entrance. Smoking: There is strictly no smoking in or outside of the house. Bring Home guests: Please inform ahead of time if you would like to bring friends to the house. Kitchen Use: Please keep kitchen use to prepare snacks or coffee/tea. Party/Drinking: Please be responsible if you are to consume alcoholic beverages. Kindly clean up your messes and leave a clean space. Parties are strictly prohibited.",
2735006,1 BR in Luxury Chelsea Doorman Bldg,21930815288,verified,Brian,Manhattan,Chelsea,40.74386,-74.00106,United States,US,True,flexible,Entire home/apt,2019,$259 ,$52 ,2,2.0,3/13/2016,0.05,3,1,404,"Please, no smoking or parties in the home.",
2735558,Cozy & Sunny central Manhattan APT!,85032688222,unconfirmed,Mich,Manhattan,Midtown,40.7582,-73.96692,United States,US,True,strict,Entire home/apt,2010,$568 ,$114 ,2,19.0,2/20/2016,0.28,2,1,53,Be courteous to neighbors. No parties. No smoking. No pets. No hanging around on front porch.,
2736110,West Village/SOHO Pretty Apartment,94753013067,verified,Melissa,Manhattan,SoHo,40.72838,-74.00461999999999,United States,US,False,moderate,Entire home/apt,2006,$988 ,$198 ,2,7.0,1/1/2018,0.1,3,1,136,"Please, no smoking and /or parties. This is my home, I would like my home to be treated with the utmost care and respect by all the wonderful individuals I host as a member of the Air BnB network. Thank you!",
2736663,Carroll Gardens Brownstone Flat,16105141698,verified,Mary,Brooklyn,Carroll Gardens,40.682829999999996,-73.99813,United States,US,True,strict,Entire home/apt,2022,$202 ,$40 ,3,14.0,5/27/2019,0.21,1,1,4,,
2737215,Cozy apartment available!,6470935300,verified,Idoline,Brooklyn,Bedford-Stuyvesant,40.68185,-73.95336,United States,US,False,strict,Entire home/apt,2013,$627 ,$125 ,7,8.0,5/10/2019,0.35,5,2,369,"This is our home, please be respectful, we only accept reservations of those which the profile requesting the room represents. Thank you for your cooperation and respect for our rule.",
2737767,Long Island City Home 1.!,30406923913,unconfirmed,Antonio,Queens,Long Island City,40.752829999999996,-73.92915,United States,US,False,moderate,Private room,2005,$638 ,$128 ,2,97.0,6/9/2019,1.44,2,3,417,"Please Note: This unit was just gut-renovated in May 2015 and it comfortably accommodates 4 guests, but up to 5 guests are permitted if you so desire (two guests in each bedroom and 1 guest on the available air mattress). Please request an air mattress (if needed) when making a reservation. No smoking, no pets, no parties, and must be 25 years old to book.   For check-out, please ensure: -  All plates and cups are left in the sink or dishwasher -  All trash is left in the kitchen trash can or bagged and left next to the trash can (additional bags are under the sink) -  All windows are closed and locked -  If used, the air mattresses are deflated and put away (please leave used linens for the air mattresses on the floor) -  If furniture was moved during your stay, please return to its original location Please be mindful to our neighbors in the building; quiet hours after 10pm. Please be considerate of our next guests who will be staying after you, if something is broken or needs fixing,",
2738320,Big room only 90. Great location.,45255648180,unconfirmed,Asuka,Manhattan,Chelsea,40.74599,-73.99775,United States,US,False,moderate,Private room,2016,$477 ,$95 ,6,4.0,12/28/2015,0.07,1,1,416,"This house is used year round, so please no smoking. Pets are unfortunately not allowed.",
2738872,Times Square Modern Apartment,96723637221,verified,Frederic,Manhattan,Hell's Kitchen,40.76316,-73.99358000000001,United States,US,True,strict,Entire home/apt,2008,$356 ,$71 ,2,6.0,6/9/2019,0.09,1,1,318,To keep the house and house items in the same condition they were when they arrived,
2739424,Clean & Cozy 1BD,3038008791,unconfirmed,Natalie,Brooklyn,Crown Heights,40.67593,-73.95885,United States,US,True,flexible,Entire home/apt,2012,$869 ,$174 ,20,46.0,2/26/2019,0.72,2,1,366,,
2739976,Entire Apartment in Nolita/LES,13974656465,unconfirmed,Mary,Manhattan,Lower East Side,40.71845,-73.99325999999999,United States,US,False,moderate,Entire home/apt,2004,$767 ,$153 ,1,0.0,,,3,1,27,"Please respect all personal property/possessions on the premises. The house is the primary residence of the owner and his wife: it is not a primary rental space, vacation home, etc.  Smoking: Absolutely NO SMOKING in the house, on the deck, or in the backyard. Any evidence of smoking on the premises will result in the loss of your security deposit. Pets: The house has 2 glass sliders leading out to the deck and private backyard. One of the sliders (it is fixed - do NOT try to slide it) has an installed doggy door, capable of accommodating a small dog (less than 25 pounds) or a cat. You are welcome to have your WELL-BEHAVED, HOUSE-BROKEN small dog or cat stay at the house for a small additional fee ($25/day); however, you must provide more details about your pet's needs PRIOR to renting the house.  Evidence of an unapproved pet stay will result in the loss of your security deposit.  Thank you for your respectful consideration!",
2740529,Sweet Union Square/ Gramercy Studio,3337216518,verified,Dan,Manhattan,Gramercy,40.7366,-73.98703,United States,US,True,strict,Entire home/apt,2006,$297 ,$59 ,2,,7/2/2019,3.49,3,1,236,"We expect guests to be mindful of the neighbors, especially during evening hours.",
2741081,Penthouse in Bedford Stuyvesant,7538463263,verified,Shane,Brooklyn,Bedford-Stuyvesant,40.68305,-73.9419,United States,US,False,strict,Entire home/apt,2014,"$1,136 ",$227 ,1,0.0,,,4,1,196,,
2741633,"PRIVATE Room, located on Central MANHATTAN***",51637858755,verified,Denise,Manhattan,Upper East Side,40.7789,-73.95311,United States,US,True,flexible,Private room,2018,$436 ,$87 ,3,134.0,6/18/2019,1.96,5,1,12,"I expect guests to treat my home as if it were their own. Be neat and clean, considerate, and respectful of both my home and my neighbors. There is NO additional guests permitted! There is NO smoking in the home, NO pets, NO drugs!!! NO food in the bedroom!! Shoes are to be take off upon entry!!",
2742186,"New York City, Manhattan Modern Apartment",97566452050,unconfirmed,Ronald,Manhattan,Murray Hill,40.74855,-73.977,United States,US,False,strict,Entire home/apt,2003,"$1,112 ",$222 ,4,31.0,7/1/2019,0.46,2,1,324,,
2742738,Andrea's bohemian pied-a-terre,87521845584,verified,Andrea,Manhattan,Greenwich Village,40.72934,-74.00075,United States,US,True,moderate,Entire home/apt,2003,$601 ,$120 ,5,143.0,6/26/2019,2.13,3,1,30,,
2743290,Gorgeous 2BR Flex Loft w/NYC views,8624371928,verified,Vida,Brooklyn,Greenpoint,40.72589,-73.94055,United States,US,True,flexible,Entire home/apt,2008,"$1,055 ",$211 ,30,5.0,1/1/2019,0.07,4,52,303,"Mutual respect and low maintenance. If you need to do your own thing and just need a place to crash, I'm totally cool with that - I will not take up any of your time like I know some share-hosts like to do.",
2743843,Room in spacious charming loft,3415219629,unconfirmed,Naomi,Brooklyn,Williamsburg,40.71216,-73.96615,United States,US,False,moderate,Private room,2008,$335 ,$67 ,3,92.0,6/28/2019,1.57,2,1,227,No partying or guests who are not booked in the house. Respect my home and treat it with care. Please remove shoes inside the home. Thanks!,
2744395,"Private, Spacious Garden Apartment",53738354155,verified,Ayana,Brooklyn,Bedford-Stuyvesant,40.684129999999996,-73.92693,United States,US,False,strict,Entire home/apt,2016,$156 ,$31 ,3,207.0,6/23/2019,3.04,1,1,97,"Please Note: This unit was just gut-renovated in May 2015 and it comfortably accommodates 8 guests (two guests in each bedroom and/or guest(s) on the available air mattresses). Please request an air mattress (if needed) when making a reservation. No smoking, no pets, no parties, and must be 25 years old to book.   For check-out, please ensure: -  All plates and cups are left in the sink or dishwasher -  All trash is left in the kitchen trash can or bagged and left next to the trash can (additional bags are under the sink) -  All windows are closed and locked -  If used, the air mattresses are deflated and put away (please leave used linens for the air mattresses on the floor) -  If furniture was moved during your stay, please return to its original location Please be mindful to our neighbors in the building; quiet hours after 10pm. Please be considerate of our next guests who will be staying after you, if something is broken or needs fixing, please let me know, as I have an arsenal of ",
2744947,"Spacious, Sunny, 1br in Midtown East with doorman",1231323862,verified,Joel,Manhattan,Midtown,40.75669,-73.9666,United States,US,True,strict,Entire home/apt,2005,$83 ,$17 ,3,1.0,1/1/2018,0.05,1,1,219,"Since this is our permanent residence and not just a house we own to rent out, we very much hope our guests will treat it as it were their own and be kind and respectful of the space and our personal property in the home.  Please no parties or events and be aware that the upstairs neighbors have access to the backyard as that is shared space.  Taking your shoes off in the house keeps the floors and carpets clean.  Small, quiet pets will be considered upon request.",
2745499,Gorgeous 1.5 Br - 1 block to Subway-9 min to NYC!,30750992678,unconfirmed,Christian,Brooklyn,Williamsburg,40.71394,-73.94193,United States,US,False,moderate,Entire home/apt,2010,$605 ,$121 ,2,111.0,6/23/2019,2.4,4,2,235,,
2746052,Cozy sunny room in the heart of the city,79802340595,unconfirmed,Ahmed,Manhattan,Midtown,40.75375,-73.96556,United States,US,False,strict,Private room,2016,$656 ,$131 ,2,128.0,5/28/2019,1.88,5,1,239,We're flexible on check-in/checkout times,
2746604,Art-filled 1BR on best block in WV,77520841485,verified,Brandon,Manhattan,West Village,40.733109999999996,-74.00761,United States,US,False,flexible,Entire home/apt,2019,$505 ,$101 ,60,0.0,,,3,1,277,"• Check-in time is 5PM. • No parties or events • Not suitable for pets • No smoking •I'd ask guests to respect my privacy and not walk down to the lower level where I stay.  •No parties, this is a quiet building with all working professionals. •You ABSOLUTELY cannot just show up at my property without a reservation. •Please be respectful of noise levels at all times. Do not slam doors, play music loud, yell, etc.. •I also ask guests to pick up after themselves if they want to use the kitchen/dining areas.  •No smoking please.",
2747156,Large Sunny Room,42507787285,unconfirmed,Nancy,Brooklyn,Canarsie,40.64448,-73.89222,United States,US,True,strict,Private room,2014,$118 ,$24 ,5,72.0,3/16/2018,1.11,2,5,220,We are flexible on check-in/checkout times,
2747709,Nice Bedroom in Central Bushwick!,5218623181,verified,David,Brooklyn,Bushwick,40.70343,-73.91343,United States,US,False,strict,Private room,2018,$264 ,$53 ,1,38.0,5/25/2019,0.55,3,1,62,"House Rules: We are seeking responsible and respectful guests for our property, as this is our home when you are not staying.  Please do not smoke in the apartment, no pets and no parties. Please be mindful to our neighbors in the building; quiet hours after 10pm.  Check In/ Check Out:  We are flexible regarding to check in time, but please notice us ahead of time to make sure your check in goes smoothly.  We would like to be home to greet you, however we maybe away or at work. If so, we will leave you the keys for self check in. Please refer check out time as 11AM and kindly inquire if you require a different check out time. For check-out, please ensure: - All plates and cups are left in the sink or dishwasher - All trash is left in the kitchen trash can or bagged and left in the trash can on the back porch (additional bags are under the sink if needed) - All windows are closed - If furniture was moved during your stay, please return to its original location Strict cancellation polici",
2748261,LOFT-CentralPrk/TimeSq/TheaterDist1,84207006891,verified,LoftMidtownNYC,Manhattan,Hell's Kitchen,40.76296,-73.98640999999999,United States,US,False,strict,Private room,2022,"$1,017 ",$203 ,4,108.0,6/23/2019,1.69,2,1,93,No parties No smoking,
2748813,June 30 Th to August 31 st,1407686402,unconfirmed,Tao,Manhattan,SoHo,40.72617,-74.00140999999999,United States,US,False,strict,Entire home/apt,2009,$684 ,$137 ,1,0.0,,,4,1,104,No smoking. Please respect our unit and our neighbors.,
2749366,quitissential brooklyn loft,87542535359,verified,Jeremy,Brooklyn,DUMBO,40.702890000000004,-73.98583,United States,US,False,flexible,Entire home/apt,2007,$621 ,$124 ,9,0.0,,,3,1,120,• Check-in time is 3PM. Clean and respectable . No party animals,
2749918,Sunny & Budget Friendly,89286039666,unconfirmed,Nancy,Brooklyn,Canarsie,40.64674,-73.89501,United States,US,False,flexible,Private room,2014,$335 ,$67 ,5,85.0,6/16/2019,1.25,1,5,376,Please be respectful of our home!,
2750470,"Private, Peaceful Times Square 1BR",24683264237,unconfirmed,Ana,Manhattan,Hell's Kitchen,40.754059999999996,-73.99376,United States,US,True,flexible,Entire home/apt,2011,$148 ,$30 ,3,158.0,6/15/2019,2.33,5,1,393,,
2751022,Gracious Brooklyn Limestone,54796571237,verified,Lara,Brooklyn,Prospect-Lefferts Gardens,40.66173,-73.95382,United States,US,False,strict,Entire home/apt,2015,$134 ,$27 ,1,0.0,,,4,1,129,,
2751575,"Big, bright, Williamsburg bedroom",41633599194,unconfirmed,Brandon,Brooklyn,Williamsburg,40.70711,-73.94457,United States,US,True,flexible,Private room,2020,$613 ,$123 ,7,0.0,,,2,1,168,"Keep in mind that you are staying in our home with us, this is not a rental property. No smoking. Please be mindful of others in our building with noise and late-night entry. No outside guests aside from those you list as staying with us. ",
2752127,"14 Min 2Union Sq, Manhattan with Private Entrance",52968386283,verified,Erica And Jorel,Brooklyn,Bushwick,40.70565,-73.92254,United States,US,True,moderate,Private room,2014,$429 ,$86 ,1,236.0,6/24/2019,3.45,2,3,114,,
2752679,"Stylish,Sunny, spacious luxury loft",28756695594,unconfirmed,Bud,Brooklyn,Bedford-Stuyvesant,40.68166,-73.94325,United States,US,True,moderate,Entire home/apt,2010,$377 ,$75 ,2,20.0,6/9/2019,0.31,4,1,63,"Please be courteous of our neighbors!  We love them all and hope you do to! On requesting a reservation of the apartment please extend to us a description of your visit, with whom you will be traveling, and your arrival time.  Also, please make certain your picture is uploaded on to your profile.  We give preference for those who have verifications.  On confirmation of your booking, we will email to you the address, entry instructions, and other pertinent instructions.  Airbnb will collect the entire amount at the time of your reservation confirmation including the security deposit (which will be released 48 hours after your checkout date).  Our cancellation policy is strict and any cancellation outside of seven days in advance will allow for a 50 percent refund.   There will be a contract exchange for this property which will include keeping noise to respectful level, no more than six renters at a time (without express permission/acceptance from the hosts).   Guests must have a credit",
2753232,Awesome Huge Studio - NYC Center,44877822056,verified,Pavel,Manhattan,Chelsea,40.750659999999996,-74.00376999999999,United States,US,False,strict,Entire home/apt,2004,$676 ,$135 ,3,35.0,8/22/2016,0.55,5,1,353,,
2753784,Large Studio apartment,11269113295,verified,Cassi,Brooklyn,Bedford-Stuyvesant,40.68285,-73.95111999999999,United States,US,True,moderate,Entire home/apt,2015,$374 ,$75 ,4,10.0,6/6/2017,0.24,3,1,307,- Please respect noise levels after 9pm,
2754336,Clinton Hill 1BR in charming 2BR,3934542087,unconfirmed,Daniel,Brooklyn,Bedford-Stuyvesant,40.68442,-73.95639,United States,US,True,moderate,Private room,2019,"$1,003 ",$201 ,2,6.0,10/24/2017,0.12,2,1,164,"1. Only the ORIGINAL OCCUPANTS at the time of booking are allowed to stay in the property overnight and secondly no additional guest will be brought in without prior authorization. 2. Excessive NOISE & DISTURBANCES, specifically on work nights (Sunday thru Thursday) are to be kept to a minimum after 10pm. On other nights of the week we ask that noise is kept to a controlled, restrained and respectable level do to the nature of this being a shared space. 3. SMOKING is not permitted in any of the inside premisses. You may smoke outside on the outdoor patio. 4. DAMAGES to the property and its contents (within the bedroom and the condo itself) will be subject to reinstitution in accordance to airbnb rules and regulations and may lead to the immediate dismissal from the property. 5. NO PETS allowed. 6. ENERGY: We are very energy-conscious, and ask that you turn off lights and other energy-using items when you leave the house for the day. 7. The CLEANING FEE covers the maintenance of the sha",
2754889,The Spencer,5117419554,verified,Stephanie,Brooklyn,Bedford-Stuyvesant,40.69181,-73.95366,United States,US,True,moderate,Entire home/apt,2012,$433 ,$87 ,5,44.0,12/31/2018,1.5,3,1,233,,
2755441,Private BR in Chelsea (women or couples only),27551623045,verified,Anya,Manhattan,Chelsea,40.74793,-74.00690999999999,United States,US,True,moderate,Private room,2009,$811 ,$162 ,2,143.0,5/4/2019,2.13,3,1,0,No pets or shoes at home,
2755993,"Modern, spacious 2 BR, 2 Bath - BK",64747173248,verified,Helena,Brooklyn,Prospect Heights,40.68049,-73.97301999999999,United States,US,False,moderate,Entire home/apt,2014,"$1,085 ",$217 ,4,19.0,8/7/2018,0.28,4,2,45,No pets. No smoking.,
2756545,Apt near Museum Mile,49198346722,unconfirmed,Ksenia,Manhattan,Upper East Side,40.76981,-73.95812,United States,US,False,flexible,Entire home/apt,2011,$461 ,$92 ,2,249.0,6/20/2019,3.63,5,1,226,"This is not a house for parties! There are two other units in the town house so noise should be kept controlled at night and in the mornings (especially when out on the deck or entering/exiting the building). Furnishings and construction are only three years old, respect and cleanliness is asked for.",
2757098,Greenpoint Studio w/ 2 cats,29181628450,verified,Kevin,Brooklyn,Greenpoint,40.72587,-73.94122,United States,US,False,flexible,Entire home/apt,2004,$296 ,$59 ,5,2.0,8/23/2016,0.06,4,1,372,,
2757650,Modern Industrial 1br Loft w/City View,73184104881,unconfirmed,Vida,Brooklyn,Greenpoint,40.72749,-73.94201,United States,US,True,strict,Entire home/apt,2013,$431 ,$86 ,30,7.0,5/31/2019,0.11,4,52,287,#NAME?,
2758202,"GIANT! Perfect for families, in the center of NYC",84829178367,unconfirmed,Izzy,Manhattan,Midtown,40.75463,-73.97062,United States,US,False,strict,Entire home/apt,2004,"$1,129 ",$226 ,5,33.0,3/31/2018,0.49,3,1,26,"No parties, no extra guests, no pets, no smoking. Please treat this space and our neighbors with respect.",
2758755,Large Garden Apartment,48825423070,unconfirmed,Cristobal,Brooklyn,Gowanus,40.68374,-73.98558,United States,US,True,moderate,Entire home/apt,2004,$864 ,$173 ,3,266.0,7/2/2019,4.49,3,1,13,"Check-in is after 3PM Some general information about the apartment. Please try to keep it relatively quite, especially at night. Strict no parties or entertainment policy. No additional guests are allowed outside of reservation. No smoking inside the apartment or hallway. No pets allowed in the apartment. Unfortunately no young children as the house is not equipped for children under 10.   When making a booking - please have a verified email address and phone number on your airbnb account. Respect and treat the apartment as your own and how you would expect others to treat yours. Please communicate with us as soon as possible, should something go wrong during your stay, so we can try to fix it as soon as possible. Once you've confirmed the booking, please respect the apartment and don't hesitate to make it your own. We want you to feel like you are at home, so to sum it all up.. don't do things you wouldn't do at your own place We look forward to welcoming you and have a great time in ",
2759307,Charming one bedroom in brownstone,27513185813,unconfirmed,Vivian,Brooklyn,Gowanus,40.68323,-73.98643,United States,US,True,flexible,Private room,2019,$707 ,$141 ,2,0.0,,,4,1,47,"I prefer guests who are in town for a reason (work or sight-seeing, etc) so they are out & about all day & in to the evening, not hanging around the condo all day.  I require my guests to leave for the day by 10AM & not return before 4PM. Please obey check-in (4PM) & check-out times (10AM). I need time to clean up after prior guest to get ready for your stay. No pets. No parties, this is a quiet building with all working professionals. When using the kitchen facilities, I ask that you tidy up after yourself (dishes in dishwasher, wipe counters down, trash in the trash barrel, etc...) and if you spill anything on the floor/furniture, please clean up after yourself.",
2759859,"14 min to Union Square, Manhattan-Sunny Modern Rm",41110391685,unconfirmed,Erica And Jorel,Brooklyn,Bushwick,40.70505,-73.92281,United States,US,True,moderate,Private room,2005,$121 ,$24 ,1,238.0,5/12/2019,3.46,1,3,36,,
2760412,nice furnished room ground floor,97868529298,verified,Nes,Brooklyn,Williamsburg,40.71863,-73.94575,United States,US,True,strict,Private room,2006,$554 ,$111 ,3,30.0,11/7/2018,0.6,2,1,51,My unit is one of 3 in the building.  My place is penthouse level so please just be considerate of my neighbors downstairs.,
2760964,1000 Sq Ft Loft in Flatiron.,50228652127,unconfirmed,Damian,Manhattan,Gramercy,40.73892,-73.98921999999999,United States,US,False,flexible,Entire home/apt,2016,$472 ,$94 ,4,26.0,1/3/2019,0.62,3,1,288,"Internet, cable and central air included in stay. No smoking allowed in the apartment - - may smoke on the deck if cigarettes are appropriately disposed (and not flicked over the deck). Please be considerate of neighbors.  Not a party house! There are 5 other units in the building so noise should be kept controlled at night and in the mornings (especially when out on the deck). All plates and cups should be left in the sink or dishwasher and all trash should be left in the trash can (additional bags are under the sink if you need more space). If furniture is moved during your stay, please return to its original location. Please be considerate of our next guests who will be staying after you, if something is broken or needs fixing, please let me know immediately so that I can replace it.",
2761516,Spring in Ditmas Park Brooklyn!!!,97879572061,verified,Patrick,Brooklyn,Flatbush,40.6406,-73.96195,United States,US,True,flexible,Entire home/apt,2018,$129 ,$26 ,4,26.0,5/19/2018,0.39,2,1,275,"Check in/out: We typically follow the standard check in and out times (4 p.m., 11 a.m. respectively) however I'm extremely flexible and can accommodate your needs as long as it doesn't impact another renter if you have special check-in or out times.  There is a keypad lock and each renter will receive their own passcode so you can come and go as you please and not worry about keys or timing.   Pets:  I don't have any pets living at the home but I am a dog lover and know it can be difficult to find accommodations for your 4-legged family members.  Pets are welcome but please be respectful of the furniture and floors and clean up after them. Smoking:  There is no cigarette smoking in the home or on the property as there have been concerns with cigarette butts creating a fire hazard on the deck.  Please contact me if you need to discuss for your specific situation. Lock doors/windows at all times:  While the area is safe, it is still an urban environment and doors/windows need to be locke",
2762068,Time Square in 30 minutes. Front room.,33668515407,unconfirmed,Devika,Queens,Sunnyside,40.73673,-73.92526,United States,US,True,strict,Private room,2004,$572 ,$114 ,5,70.0,6/30/2019,2.23,5,4,297,"Guests will be in my personal residence. I take great pride in my home. I ask that guest treat my home with the highest of respect. Please, no strangers or parties will be allowed! Thank you",
2762621,The heart of Manhattan - NYC,35871870448,verified,Michelle,Manhattan,Chelsea,40.746759999999995,-74.00234,United States,US,False,moderate,Private room,2010,$420 ,$84 ,1,202.0,6/5/2019,3.19,5,1,183,"Please Note: This unit was just gut-renovated in May 2015 and it comfortably accommodates 4 guests, but up to 5 guests are permitted if you so desire (two guests in each bedroom and 1 guest on the available air mattress). Please request an air mattress (if needed) when making a reservation. No smoking, no pets, no parties, and must be 25 years old to book.   For check-out, please ensure: -  All plates and cups are left in the sink or dishwasher -  All trash is left in the kitchen trash can or bagged and left next to the trash can (additional bags are under the sink) -  All windows are closed and locked -  If used, the air mattresses are deflated and put away (please leave used linens for the air mattresses on the floor) -  If furniture was moved during your stay, please return to its original location Please be mindful to our neighbors in the building; quiet hours after 10pm. Please be considerate of our next guests who will be staying after you, if something is broken or needs fixing,",
2763173,Beautiful and spacious  bedroom in Williamsburg,23032989570,verified,Nicholas,Brooklyn,Williamsburg,40.71351,-73.94315999999999,United States,US,True,flexible,Private room,2018,"$1,161 ",$232 ,6,1.0,8/26/2017,0.04,3,2,175,,
2763725,Zen & Cozy 2Bedroom in Williamsburg,36678586558,verified,Alison,Brooklyn,Williamsburg,40.70727,-73.95459,United States,US,False,flexible,Entire home/apt,2012,$762 ,$152 ,1,15.0,5/26/2019,0.22,3,2,243,,
2764278,280 Degree Views Of Manhattan (TS),67881594419,unconfirmed,Jonathan,Manhattan,Hell's Kitchen,40.76019,-73.99586,United States,US,False,strict,Entire home/apt,2018,$120 ,$24 ,4,8.0,5/25/2016,0.12,4,1,319,"1. Only the ORIGINAL OCCUPANTS at the time of booking are allowed to stay in the property overnight and secondly no additional guest will be brought in without prior authorization. 2. CHECK IN/OUT: The standard check in and out times are 4 p.m., 12 p.m., respectively. However we're flexible and can accommodate your needs as long as it doesn't impact another renter if you have special check-in or out times. There is a keypad lock and each renter will receive their own passcode so you can come and go as you please and not worry about keys or timing. 3. Excessive NOISE & DISTURBANCES, specifically on work nights (Sunday thru Thursday) are to be kept to a minimum after 10 pm. On other nights of the week we ask that noise is kept to a controlled, restrained and respectable level do to the nature of this being a shared space. 4. SMOKING is not permitted in any of the inside premises, this includes the guest room, condo unit and building. You may smoke outside in the street or on the outdoor ",
2764830,Private Master Bedroom w/Garden 14 min to Union Sq,7334538312,unconfirmed,Erica And Jorel,Brooklyn,Bushwick,40.70561,-73.92515,United States,US,True,flexible,Private room,2015,$869 ,$174 ,1,227.0,6/14/2019,3.31,5,3,149,"Clean, no house parties, no smoking, respectful of owner's home :)",
2765382,Lower East Side Penthouse Room w/ Epic Views,91245316409,verified,Jonathan,Manhattan,Lower East Side,40.721470000000004,-73.98806,United States,US,True,moderate,Private room,2012,"$1,118 ",$224 ,1,2.0,6/23/2019,0.22,2,2,305,,
2765935,PRIVATE ROOM #2 STARTING AT $67 PER NIGHT,12453642823,unconfirmed,Anthony,Brooklyn,East Flatbush,40.64913,-73.92525,United States,US,True,moderate,Private room,2003,$434 ,$87 ,5,17.0,9/23/2018,0.25,3,5,13,,
2766487,Large Bedroom in the East Village,7420728027,verified,Jessica,Manhattan,East Village,40.72745,-73.98344,United States,US,False,moderate,Private room,2009,$891 ,$178 ,3,1.0,12/15/2013,0.01,5,1,23,,
2767039,Oversized Studio By Columbus Circle,81791141333,verified,Alana,Manhattan,Upper West Side,40.7706,-73.98919000000001,United States,US,False,flexible,Entire home/apt,2019,"$1,129 ",$226 ,1,7.0,5/6/2016,0.13,4,1,314,"Please Note: This unit was just gut-renovated in May 2015 and it comfortably accommodates 2 couples. No smoking, no pets, no parties, and must be 25 years old to book.   For check-out, please ensure: -  All plates and cups are left in the sink or dishwasher -  All trash is left in the kitchen trash can or bagged and left next to the trash can (additional bags are under the sink) -  All windows are closed and locked -  If used, the air mattresses are deflated and put away (please leave used linens for the air mattresses on the floor) -  If furniture was moved during your stay, please return to its original location Please be mindful to our neighbors in the building; quiet hours after 10pm. Please be considerate of our next guests who will be staying after you, if something is broken or needs fixing, please let me know, as I have an arsenal of tools and enjoy fixing things.",
2767591,NYC UES APT RENTAL,59925370082,verified,Evan,Manhattan,Upper East Side,40.77785,-73.9454,United States,US,False,flexible,Entire home/apt,2019,$571 ,$114 ,1,0.0,,,1,1,369,#NAME?,
2768144,Lovely Brooklyn Brownstone  one block from Subway,59313190791,unconfirmed,Sunita,Brooklyn,Gowanus,40.68396,-73.98914,United States,US,True,moderate,Entire home/apt,2022,$335 ,$67 ,30,14.0,8/8/2018,0.21,4,1,381,#NAME?,
2768696,A room with private bathroom,54920638117,unconfirmed,Rani,Brooklyn,Bedford-Stuyvesant,40.67814,-73.92375,United States,US,True,moderate,Private room,2003,$956 ,$191 ,29,12.0,11/11/2018,0.18,2,3,409,"Please , no smoking,parties or noise that may disturb the neighbors.",
2769248,"Modern Midtown Apt, close to MoMA",37816662794,verified,Michael,Manhattan,Midtown,40.758759999999995,-73.96854,United States,US,True,moderate,Entire home/apt,2008,"$1,103 ",$221 ,30,2.0,3/23/2015,0.04,5,1,304,,
2769801,"Brooklyn apt, hip hood, with a view",83909941443,unconfirmed,Amy,Brooklyn,Crown Heights,40.67801,-73.96106,United States,US,True,flexible,Entire home/apt,2013,"$1,085 ",$217 ,7,2.0,10/14/2014,0.03,4,1,299,,
2770353,Cute Spacious Studio in Fort Greene,93434433237,verified,Ashley,Brooklyn,Fort Greene,40.685159999999996,-73.97461,United States,US,True,moderate,Entire home/apt,2004,$90 ,$18 ,1,2.0,10/26/2015,0.03,1,1,306,Please be respectful of the driveway and do not park in the driveway or anywhere on Barrett Ave ( as all spots are assigned to residents)  Parking on M street is fine!,
2770905,One Bedroom in an apartment,24779829318,unconfirmed,Idoline,Brooklyn,Crown Heights,40.67138,-73.96058000000001,United States,US,True,moderate,Private room,2010,$681 ,$136 ,30,7.0,5/4/2019,0.15,3,2,18,No smoking inside. Please go in our backyard if you need to smoke. No pets.,
2771458,"Perfect Harlem, New York Retreat",33897886536,unconfirmed,Ferris,Manhattan,Harlem,40.810559999999995,-73.943,United States,US,True,moderate,Entire home/apt,2004,$180 ,$36 ,2,322.0,7/1/2019,4.71,2,1,347,"There will be no pets, parties or smoking allowed on the premises.",
2772010,Bedroom for one,2456717750,verified,Nicole,Manhattan,Harlem,40.82954,-73.94436,United States,US,True,moderate,Private room,2018,$316 ,$63 ,4,7.0,6/23/2019,2.26,5,1,383,No pets. No smoking. Please :),
2772562,"Space, elegance, and comfort - Room",16102778429,verified,Arlene,Manhattan,East Harlem,40.800290000000004,-73.94294000000001,United States,US,True,flexible,Private room,2006,$166 ,$33 ,3,7.0,2/27/2016,0.11,5,1,333,,
2773114,Nice clean large Bedroom in Astoria,19738693918,unconfirmed,Rocio & James,Queens,Astoria,40.76425,-73.90489000000001,United States,US,False,flexible,Private room,2007,$759 ,$152 ,1,108.0,5/30/2019,2.68,5,3,280,"It's our house. So we'd like no extra visitors unless you ask in advance. Weekdays we like it quiet after 10.  Smoke if you must, but on the back deck please.       Oh yeah, enjoy yourself. That's required.",
2773667,"Comfy, Spacious, Modern, Sweet Home",88486011849,unconfirmed,Charlotte And Pierre,Brooklyn,Bedford-Stuyvesant,40.693090000000005,-73.95921,United States,US,False,flexible,Private room,2018,"$1,158 ",$232 ,3,15.0,8/16/2018,0.22,3,1,355,I expect guest to be kind and do not party at the house. I am on the other hand would love to provide any advice and conversation what is possible in Boston and how to enjoy the time in South Boston. ,
2774219,Urban Oasis in Chelsea,19897838610,unconfirmed,Joseph,Manhattan,Chelsea,40.74276,-74.00016,United States,US,False,strict,Entire home/apt,2017,"$1,078 ",$216 ,2,0.0,,,3,1,302,,
2774771,Your home away from home in Comfort,34882559769,verified,Carlos,Queens,Briarwood,40.71477,-73.82011999999999,United States,US,True,strict,Private room,2011,$543 ,$109 ,5,95.0,5/25/2019,1.39,5,2,68,"- No smoking inside the house, we have a porch out back :), no pets",
2775324,Gorgeous duplex 1 BR Brownstone apt,5612973107,unconfirmed,Christine & James,Brooklyn,Clinton Hill,40.694140000000004,-73.96634,United States,US,True,flexible,Entire home/apt,2006,$843 ,$169 ,3,123.0,6/7/2019,1.8,2,3,55,* Please be considerate of our neighbors * Loud music and parties are not permitted * No smoking * No pets allowed,
2775876,Lovely Bedrooms in Artist's Home,84683851554,verified,Lorelei & Alex,Brooklyn,Clinton Hill,40.684740000000005,-73.9632,United States,US,False,strict,Private room,2022,$894 ,$179 ,4,245.0,6/10/2019,3.61,5,1,8,,
2776428,Private 2 BR APT: Free WIFI & JACUZZI,87431166148,unconfirmed,R,Brooklyn,Bedford-Stuyvesant,40.679629999999996,-73.9375,United States,US,False,flexible,Entire home/apt,2011,$498 ,$100 ,3,156.0,4/25/2019,2.36,3,2,147,,
2776981,2 floor Apt w 300sqft Terrace,98437854425,unconfirmed,Evan,Manhattan,Lower East Side,40.72083,-73.98755,United States,US,True,flexible,Entire home/apt,2020,$891 ,$178 ,2,71.0,6/23/2019,1.04,4,1,122,No smoking or pets in the home due to potential allergies of future guests.,
2777533,Full of Harlem Soul & Charm,3481964138,verified,Andre,Manhattan,Harlem,40.82438,-73.94332,United States,US,True,flexible,Private room,2007,$470 ,$94 ,1,245.0,7/7/2019,3.6,1,3,48,,
2778085,Sunny 2 bedroom in Prospect/Crown Heights,33162811455,verified,Nico,Brooklyn,Crown Heights,40.67689,-73.95878,United States,US,True,flexible,Entire home/apt,2004,$89 ,$18 ,5,11.0,5/25/2017,0.16,3,1,18,The apartment is our home 365 days of the year - we rent it only select weekends when we are away so please respect the neighbors in our building and the belongings we love. If you smoke please do so on the street. There is no smoking allowed inside the apartment or on the decks due to fire safety. We cannot accommodate guests with pets.,
2778637,Small Room With Private Loft Bed,67059311475,verified,John,Queens,Long Island City,40.744040000000005,-73.95233,United States,US,False,flexible,Private room,2006,$438 ,$88 ,25,8.0,6/11/2017,0.12,3,3,32,,
2779190,Adorable 1BD Home with view of NYC,2047976432,unconfirmed,Lauren,Queens,Astoria,40.77453,-73.92833,United States,US,True,moderate,Entire home/apt,2006,"$1,178 ",$236 ,4,17.0,5/6/2017,0.25,4,1,223,"Please be respectful of my home and treat the space as if it were your own. No guests No Smoking Always turn off lights when leaving space Please clean up after yourself Always lock door when leaving and after arriving Please observe quiet hours between midnight and 7 am. Upon check-out, please leave sheets + towels on the floor of the bedroom and return key. Check in 3pm: flexible Check out 11am: strict",
2779742,Sunny bedroom in Williamsburg,57550421805,unconfirmed,Angelica,Brooklyn,Williamsburg,40.71278,-73.94035,United States,US,True,strict,Private room,2018,$297 ,$59 ,3,1.0,11/13/2015,0.02,5,1,268,"I expect guests to treat my home as if it were their own.  Be neat and clean, considerate, and  respectful of both my home and my neighbors. There is NO additional guests permitted! NO parties! There is NO smoking in the home, NO pets, NO drugs!!! NO food in the bedrooms!! Shoes are to be take off upon entry!!",
2780294,Bi-level Loft with a Private Garden,33860840636,unconfirmed,Donald P.,Brooklyn,Williamsburg,40.71715,-73.95527,United States,US,True,moderate,Entire home/apt,2018,$115 ,$23 ,3,57.0,6/6/2019,0.9,5,1,129,"Make yourself at home, and of course, feel free to use anything in the house, but please be respectful of the space and make sure to put things back in their rightful locations. Please wash any pots/pans/dishes that you use.  No guests outside of those identified in your party. We also kindly ask that you keep loud noise to a minimum in the late evening and, needless to say, parties are not permitted.",
2780847,Cozy Vintage Inspired East Village,60507298116,verified,Sasha,Manhattan,East Village,40.727090000000004,-73.98442,United States,US,True,moderate,Entire home/apt,2004,$499 ,$100 ,2,18.0,1/15/2017,0.28,3,1,415,,
2781399,Sunny Studio in Prime Williamsburg,13626685615,verified,Ellen,Brooklyn,Williamsburg,40.7161,-73.95074,United States,US,False,flexible,Entire home/apt,2018,"$1,100 ",$220 ,14,29.0,10/4/2016,0.43,1,1,402,,
2781951,"Beautiful, large, charming spot",74585730304,verified,Susan,Brooklyn,Williamsburg,40.71758,-73.9543,United States,US,False,strict,Entire home/apt,2009,$474 ,$95 ,8,79.0,7/1/2019,1.16,4,1,349,"1. Please let me know  ahead your arrival, checking out time and if you will need a parking spot, so I can plan accordingly. 2. Please keep in mind that the checking in is any time after 4 pm and checking out is by 11 am. Earlier check in and late check out must be arranged with me in advance.  3. I request the guest to be respectable and quiet specially after 10 pm. There's absolutely no parties,pets and smoking not allowed.  Please shut off all lights and electrical appliances including AC when you are not using the premises and be sure that the entry door is locked all the time.",
2782504,Sublet: $490/Wk,43025735767,unconfirmed,Amarie2131,Manhattan,Lower East Side,40.7193,-73.98986,United States,US,True,moderate,Private room,2015,$445 ,$89 ,1,1.0,11/1/2015,0.02,3,1,395,,
2783056,"Private Apt, Large, Safe / 5mins to TIMES SQUARE",72353158682,unconfirmed,Zoey,Manhattan,Hell's Kitchen,40.76143,-73.99223,United States,US,True,flexible,Entire home/apt,2021,"$1,107 ",$221 ,5,17.0,4/8/2019,0.25,1,2,259,"WHEN BOOKING, PLEASE PROVIDE THE FOLLOWING IN YOUR MESSAGE to me:  - 1. Total number of guests (adults, children, babies)? Are there any elderly or children under 18? If so, what are their ages?  - 2. Arrival Date AND Time of Check In? (Check In between 2 pm and 9 pm with some leniency)  - 3. Departure Date (Check out before 12 pm/noon ideally)  - 4. Please tell me a little about yourselves and the purpose of your trip.  - 5. What Other Needs or Special Requests or Extra Options (please read below for additional options and possible related additional fees).  ------  PLEASE NOTE THE FOLLOWING BEFORE REQUESTING A BOOKING:  * I will reply as soon as possible to let you know if my apartment will be available for ALL your needs.  - 1. We are happy to host Friendly, Neat, Low-Maintainence Adults & Well-Behaved Children.  ---- All cookware and utensils in the kitchen are at your disposal. There will be water (brita) and basic condiments provided for you. We ask that you rinse whatever dishes",
2783608,"Studio Apt. in Williamsburg, Brooklyn, NY",10827862961,unconfirmed,Jose C.,Brooklyn,Williamsburg,40.71532,-73.94581,United States,US,True,moderate,Entire home/apt,2021,$212 ,$42 ,3,5.0,11/4/2018,0.26,4,1,146,No pets. No smoking. Please :),
2784160,Futon 2.0,15858322220,verified,Gaudhi,Manhattan,Harlem,40.800259999999994,-73.95196999999999,United States,US,False,flexible,Shared room,2009,$285 ,$57 ,3,229.0,6/22/2019,3.36,5,2,310,#NAME?,
2784713,BEST PRICE - WILLIAMSBURG 1 ROOM,70654597402,unconfirmed,Gianni,Brooklyn,Williamsburg,40.70576,-73.94827,United States,US,True,strict,Private room,2005,$954 ,$191 ,1,1.0,9/6/2015,0.02,4,2,326,This is my 2 family house and upstairs in the 2nd apartment I have other tenants who are great. ,
2785265,Modern Bright Loft in Clinton Hill,41753555103,verified,Susan,Brooklyn,Bedford-Stuyvesant,40.69135,-73.95859,United States,US,False,flexible,Entire home/apt,2003,$951 ,$190 ,2,52.0,7/4/2019,1.26,1,1,77,"1. Only the ORIGINAL OCCUPANTS at the time of booking are allowed to stay in the property overnight and secondly no additional guest will be brought in without prior authorization. 2. Excessive NOISE & DISTURBANCES, specifically on work nights (Sunday thru Thursday) are to be kept to a minimum after 10pm. On other nights of the week we ask that noise is kept to a controlled, restrained and respectable level do to the nature of this being a shared space.  3. SMOKING is not permitted in any of the inside premisses, this includes the guest room, condo unit and building. You may smoke outside in the street or on the outdoor patio. 4. DAMAGES to the property and it's contents (within the bedroom and the condo itself) will be subject to reinstitution in accordance to airbnb rules and regulations and may lead to the immediate dismissal from the property. 5. WASHER & DRYER is available for use by the guest free of charge but under the condition that we (the host) are present at the time of use",
2785817,Quiet 1br in a Mansion!,86207089957,unconfirmed,Erika,Brooklyn,Clinton Hill,40.68492,-73.96669,United States,US,False,strict,Entire home/apt,2012,$524 ,$105 ,1,16.0,4/17/2017,0.38,1,2,343,"1. Only the ORIGINAL OCCUPANTS at the time of booking are allowed to stay in the property overnight and secondly no additional guest will be brought in without prior authorization. 2. Excessive NOISE & DISTURBANCES, specifically on work nights (Sunday thru Thursday) are to be kept to a minimum after 10pm. On other nights of the week we ask that noise is kept to a controlled, restrained and respectable level do to the nature of this being a shared space.  3. SMOKING is not permitted in any of the inside premisses, this includes the guest room, condo unit and building. You may smoke outside in the street or on the outdoor patio. 4. DAMAGES to the property and it's contents (within the bedroom and the condo itself) will be subject to reinstitution in accordance to airbnb rules and regulations and may lead to the immediate dismissal from the property. 5. WASHER & DRYER is available for use by the guest free of charge but under the condition that we (the host) are present at the time of use",
2786370,2 floor loft in Gramercy park,37423024262,unconfirmed,Stefano,Manhattan,Kips Bay,40.73772,-73.98025,United States,US,False,moderate,Entire home/apt,2004,$963 ,$193 ,3,9.0,6/21/2014,0.13,5,1,353,,
