id,NAME,host id,host_identity_verified,host name,neighbourhood group,neighbourhood,lat,long,country,country code,instant_bookable,cancellation_policy,room type,Construction year,price,service fee,minimum nights,number of reviews,last review,reviews per month,review rate number,calculated host listings count,availability 365,house_rules,license
52033856,Private Bedroom with en Suite Bathroom in Bushwick,33648208273,verified,Anthony,Brooklyn,Bushwick,40.69859,-73.93534,United States,US,False,strict,Private room,2014,$705 ,$141 ,1,0,,,3,1,0,,
52034408,Astoria very close to Manhattan private bedroom,14925811122,verified,Simone,Queens,Astoria,40.76334,-73.90977,United States,US,True,strict,Private room,2017,"$1,061 ",$212 ,1,4,2/25/2018,0.23,3,3,0,We offer 5 star accommodations and expect guest to treat it in that manner.,
52034961,"cosy 1 bedroom junior apartment, Midtown Manhattan",69583885784,unconfirmed,Lexx,Manhattan,Murray Hill,40.74627,-73.97595,United States,US,False,flexible,Entire home/apt,2010,"$1,122 ",$224 ,1,57,6/17/2019,3.62,3,1,86,"This is a quiet and professional building. Best for quiet, mature, responsible people. There is a no-pet, no-smoking policy.",
52035513,Private Room Upper West Side,66450792012,verified,Stephen,Manhattan,Upper West Side,40.79937,-73.96281,United States,US,False,flexible,Private room,2012,"$1,040 ",$208 ,3,0,,,5,1,0,"Please keep it clean, thats all we really ask from our guest.",
52036065,Studio sanctuary at the epicenter of a local's NYC,38200975526,verified,Jayne,Manhattan,Chelsea,40.73955,-73.99775,United States,US,False,moderate,Entire home/apt,2009,$501 ,$100 ,4,3,3/25/2019,0.76,5,1,0,,
52036618,Lovely New York Guest Room,19363123816,verified,Willa,Manhattan,Inwood,40.86395,-73.92007,United States,US,True,strict,Private room,2021,"$1,138 ",$228 ,1,15,5/17/2018,0.85,5,1,0,"No street shoes in the house, please, but especially not in the bedrooms. Kitchen privileges vary and can be negotiated with length of stay but for shorter stays the kitchen can be used for food storage, occasional light meal prep, eating, and tea and snacks. Check-in and check-out times are flexible all days except Sunday where check-out is by 11 a.m.   Smokers are welcome to smoke outside.",
52037170,Large Master Bedroom- Ridgewood,59662361262,verified,Patricia,Queens,Ridgewood,40.70865,-73.91088,United States,US,False,flexible,Private room,2011,$661 ,$132 ,3,0,,,4,1,0,"This is a self-service room.  The common areas are professionally cleaned but please be considerate and clean up after yourselves in common areas - especially after cooking and eating or using the bathroom.  No street shoes inside, please, so be sure to bring house slippers. Smoking is allowed outside. We recycle and have provided the necessary information so that you can too. Reusable containers for storing food and shopping bags for shopping are provided.  Please consider the environment and do not bring plastic bags or plastic wrap into this house. When in doubt, ask me!",
52037722,Beautiful Private Bedroom for rent  Crown Heights,40593365669,unconfirmed,Mark,Brooklyn,Crown Heights,40.67439,-73.95286,United States,US,False,strict,Private room,2014,"$1,064 ",$213 ,10,5,2/1/2019,0.29,5,2,350,"no smoking allowed, leave it how you found it.",
52038274,Midtown NYC Studio,60661463025,verified,Tom,Manhattan,Hell's Kitchen,40.75574,-73.99638,United States,US,True,strict,Entire home/apt,2009,$785 ,$157 ,1,0,,,3,1,0,#NAME?,
52038827,Spacious Brooklyn Bedroom with Natural Light,2832492355,verified,Trishia,Brooklyn,Greenpoint,40.73375,-73.9557,United States,US,True,strict,Private room,2012,$495 ,$99 ,2,3,6/19/2018,0.23,5,1,0,,
52039379,FUN Bushwick Living,72943390988,verified,Eréz,Brooklyn,Bushwick,40.697829999999996,-73.9301,United States,US,False,moderate,Private room,2010,$707 ,$141 ,14,3,1/2/2019,0.21,5,2,64,13 star treatment is given and expected.,
52039931,"Harlem Deco,",49270921743,unconfirmed,Garret,Manhattan,Harlem,40.82246,-73.93817,United States,US,True,strict,Private room,2009,$650 ,$130 ,1,49,10/22/2018,2.72,2,2,180,"Please read the house manual along with the directions... You have plenty of liberty to do as you wish within the space. I will most likely exchange keys in person when arriving. If I'm not around, I'll be confirming the steps to exchange the keys. *As a visitor, if requested by the front desk... you might have to check-in at the lobby counter.",
52040484,HUGE SOHO 3 BR LOFT★★★★★LES/FULL FLOOR ★★★★★,72184185749,unconfirmed,Mariashi,Manhattan,Lower East Side,40.72015,-73.98376,United States,US,True,strict,Entire home/apt,2017,$880 ,$176 ,4,37,6/9/2019,2.17,5,1,244,"It is VERY important to me that you respect my belongings. I have lots of art, antiques, knick-knacks, books, fragile items, etc. Feel free to borrow a book as long as you return it in the same condition that you found it! Otherwise, please do not pick up or play with my things, go through my drawers, etc. My things are very loved by me, and most cannot be replaced. There will be ZERO tolerance for disrespect or cruelty towards my daughter or my cats.",
52041036,Cozy Bedroom in Heart of Greenpoint,19083332054,verified,Leslie,Brooklyn,Greenpoint,40.729490000000006,-73.95801999999999,United States,US,False,flexible,Private room,2009,$411 ,$82 ,1,1,1/21/2018,0.06,3,1,0,"No smoking  Smoking and the use of marijuana, tobacco or nicotine in any form is not permitted anywhere on the property (inside or out).  Including, but not limited to; Cigarettes, Pipes, E-cigarettes, Cigars, Hookahs, Bidis, Kreteks, Chewing tobacco, Snuff, Snus, Pellets and other candy-like forms of tobacco.  No parties  There should be no more than 4 people sleeping in the apartment unless other arrangements have been made at the time of booking. Please note that the back yard is not intended for use by Airbnb guests. Please remember that we live in the house too.  You will hear us from time to time as we move around and we will hear you as well and that is to be expected (the sound proofing in the house is not great), but please try to keep things quite after 11pm. We have a tan dog named Marco and a black cat named Pana.  They are both very friendly with people, but they don't share well with other animals, so please no pets in the house.",
52041588,LOVE LIFE,47202246056,unconfirmed,Roselie,Manhattan,Upper West Side,40.79787,-73.9688,United States,US,False,moderate,Entire home/apt,2018,$510 ,$102 ,2,6,4/29/2018,0.33,5,1,0,Guests are allowed 1 other to accompany must checkin if staying the night an additional 20$/ per night charge will be assessed Check out time is 10am  Late checkout is at 12 noon,
52042141,Inwood apartment closed to have fun in manhattan,13970867228,unconfirmed,Jose,Manhattan,Inwood,40.86815,-73.92342,United States,US,True,strict,Private room,2013,"$1,101 ",$220 ,1,0,,,2,1,89,"No Smoking,  Respect for other guests and neighbors.  Well behaved children only.  Limit noise after 10pm.  Please do dishes/run dishwasher prior to departure.   Parking is available on Linwood and Gardner streets 24 hours.    No parking is permitted on Centre Place.",
52042693,Chelsea Studio - Fully Furnished,15355054553,unconfirmed,Paddy,Manhattan,Chelsea,40.74776,-74.00238,United States,US,True,flexible,Entire home/apt,2020,$245 ,$49 ,15,1,2/18/2018,0.06,2,1,0,"We try to keep the atmosphere conducive to studying and resting and a couple of house-rules are in place to this end.  1. Towels and linens (sheets, blankets, and pillows) are NOT provided. The bed is twin size. 2. No smoking on the premises.  3. No loud music or TV etc.  4. Only for one person (no couples, no visitors). We seldom have visitors, let alone overnight guests. We know this will be a major turn-off to many people, but we believe we can find a like-minded roommate who can have fun outside the house.  5. If you are not sure about your check-out date, you can reserve the minimum days and extend your stay at a discounted rate.  6. Check-in time has to be coordinated at least 48 hours ahead. On arrival, a short registration process with a picture ID is needed in exchange for keys and wifi access.  7. Inside the apartment, we take off our outside shoes. So if you bring your own flip-flops, slippers or some kind of indoor shoes, that will be useful.",
52043245,Fashion week stay!,36360540661,unconfirmed,Helen,Manhattan,Midtown,40.753009999999996,-73.97277,United States,US,True,moderate,Entire home/apt,2006,"$1,046 ",$209 ,7,0,,,5,1,0,,
52043797,Private Room w/premium  Mattress Near Subway & Gym,85739737150,unconfirmed,Vika & Josh,Brooklyn,Bedford-Stuyvesant,40.68766,-73.92788,United States,US,False,flexible,Private room,2009,$78 ,$16 ,2,31,7/1/2019,1.71,3,5,358,,
52044350,Authentic Brklyn Experience - Room B,47966542962,verified,Tia,Brooklyn,Canarsie,40.648379999999996,-73.89834,United States,US,False,moderate,Private room,2003,$529 ,$106 ,4,4,3/7/2019,0.23,4,4,37,,
52044902,"Calm, cozy bedroom in the heart of Brooklyn!",70726125291,verified,Katharine,Brooklyn,Cobble Hill,40.6887,-73.99168,United States,US,False,strict,Private room,2017,"$1,121 ",$224 ,1,2,1/15/2018,0.11,2,3,0,"No aloud music , no outside guests stay over night without owner's permission. No late night party or assembly in this residential unit. No activities forbidden by law of any kinds. No over night stay guest without permission and payment.",
52045454,"Peaceful, Spacious King-Size Bedroom with Sunlight",19661160142,verified,Jean,Brooklyn,Crown Heights,40.67516,-73.94813,United States,US,True,moderate,Private room,2015,$819 ,$164 ,3,0,,,3,2,0,Respect the neighbors and stay quiet.  No smoking. No party. This is very important for us !!!!,
52046007,Room Private Entrance Close to Subway/Bus/Airport,39576195440,unconfirmed,Jennifer,Queens,Ditmars Steinway,40.77317,-73.91508,United States,US,True,strict,Private room,2022,$89 ,$18 ,2,58,6/27/2019,3.81,5,1,9,,
52046559,Hidden Gem - Entire Bklyn Apt,38367529085,unconfirmed,Tia,Brooklyn,Canarsie,40.64994,-73.8964,United States,US,True,strict,Entire home/apt,2013,$677 ,$135 ,4,31,6/23/2019,1.88,2,4,296,,
52047111,Brooklyn Condominium With Balcony,53880628136,verified,Jenna,Brooklyn,Gravesend,40.58876,-73.97349,United States,US,False,strict,Private room,2003,"$1,005 ",$201 ,3,20,6/15/2019,1.29,3,1,324,,
52047664,Stylish Bedroom In Washington Heights Manhattan.,285312986,verified,Ken,Manhattan,Washington Heights,40.83558,-73.9404,United States,US,False,strict,Private room,2013,$748 ,$150 ,2,23,6/30/2019,1.43,4,1,30,"Family friendly, no smoking please. Please bring trash outside, clean dishes before departure. Please be courteous to our neighbors no parties or pets are allowed.",
52048216,Private room with visit to queens # 3,79718211472,unconfirmed,Sonia,Queens,Glendale,40.701159999999994,-73.88935,United States,US,True,moderate,Private room,2012,$384 ,$77 ,1,61,7/2/2019,3.52,4,6,274,,
52048768,Private Suite in NYC 15 minutes to Times Square,52327522662,unconfirmed,Ayesha,Queens,Sunnyside,40.74648,-73.91919,United States,US,True,flexible,Private room,2019,$441 ,$88 ,1,76,6/30/2019,4.43,5,1,301,No smoking. No pets No visitors Cleaning of rooms & toilets will be down by guest after use and at check out.  A surcharge of $50 will be imposed if guests smoke within the property.  Sanitary pads are not allowed in the WC.   Kitchen utensils are to be washed after use always.  If you lose the keys $20 surcharge will be imposed for replacement. Turn off all lights and electronics  in your room if not in use or not home.,
52049320,Spacious & Chic 2-BR Home in Manhattan,86837066168,unconfirmed,Annika,Manhattan,Inwood,40.86958,-73.9172,United States,US,False,strict,Entire home/apt,2006,"$1,166 ",$233 ,4,9,5/19/2019,0.65,5,1,364,"Our house is an eco-friendly, vegan, minimalistic one and we ask that guests adhere to the following guidelines: 1. No animal products such as eggs, dairy, meat, or by products are to be prepared in the kitchen.  These products may be wrapped and stored in the refrigerator in such a way that does not contaminate other foods. 2. Compost (red ceramic container next to the sink) all food waste and recycle (all paper, plastic and glass either in black bin in your room or white bin in the kitchen) before throwing something out.  We have a bin for donations if there is something you no longer need but does not easily recycle.  And please ask if you have any questions. 3. Shoes are not required to be removed but we do ask that any wet/muddy shoes and coats be removed at the door and hung up. 4. For long-term guests we will wash sheets once a week, please let us know if we should strip the bed or if you will leave these in the hamper. 5. Our check in time is any time after 5 PM, departure must",
52049873,Private room with visit to queens # 2,80365858725,unconfirmed,Sonia,Queens,Glendale,40.70148,-73.88954,United States,US,False,flexible,Private room,2004,$423 ,$85 ,2,75,6/23/2019,4.29,2,6,254,#NAME?,
52050425,"Private room in Queens, Ny # 1",46798609692,unconfirmed,Sonia,Queens,Glendale,40.700990000000004,-73.89034000000001,United States,US,False,flexible,Private room,2007,"$1,164 ",$233 ,1,101,7/4/2019,5.59,5,6,216,,
52050977,Private room,7634708443,unconfirmed,Rishi,Brooklyn,Fort Hamilton,40.61752,-74.03174,United States,US,False,strict,Private room,2005,$750 ,$150 ,1,2,1/18/2019,0.13,3,1,0,No smoking allowed in the house.  No pets.  No loud music or partying allowed at night.  Please respect the property as you would your own house.,
52051530,Brooklyn Apartment - Minutes to Prospect Park,21497598529,unconfirmed,Eric,Brooklyn,Crown Heights,40.67362,-73.9568,United States,US,False,flexible,Private room,2003,$733 ,$147 ,1,2,2/11/2018,0.12,3,1,0,,
52052082,A Brief Welcome,7618176056,unconfirmed,Adrian,Brooklyn,Crown Heights,40.67157,-73.93434,United States,US,False,flexible,Private room,2016,"$1,159 ",$232 ,1,1,1/17/2018,0.06,4,1,0,"No smoking inside the house.  Please respect the space, as this is our home.",
52052634,Hells Kitchen - Midtown West - 1 Bedroom Apartment,52430617528,verified,Daniel,Manhattan,Hell's Kitchen,40.76464,-73.99361,United States,US,False,strict,Entire home/apt,2012,$370 ,$74 ,5,46,7/1/2019,2.63,4,1,228,,
52053187,59th Street,49097248377,verified,Tobey,Manhattan,Midtown,40.7601,-73.96356,United States,US,False,moderate,Entire home/apt,2013,"$1,011 ",$202 ,30,1,3/26/2018,0.06,2,1,177,"Guests are to clean after themselves after bathroom, kitchen, dinning, bed rooms and living room use. No smoking is allowed in the apartment. No pets are allowed Keys are to be returned where designated post reservation stay. Any damages to the property or its contents must be reported immediately",
52053739,"@Ferry,2Bedroom/4bed.Private,Renovated/Stylish...",63686202734,verified,Mark,Staten Island,Tompkinsville,40.63518,-74.07956,United States,US,True,flexible,Entire home/apt,2019,$199 ,$40 ,4,63,6/27/2019,3.63,2,3,191,"As the apartment is currently occupied by students, I ask that guest don't host parties here!",
52054291,"AirBNB Ozone Park by JFK, NY",46001729020,unconfirmed,Denise,Queens,Ozone Park,40.68887,-73.8448,United States,US,False,moderate,Private room,2018,$892 ,$178 ,1,1,1/11/2018,0.06,3,1,0,"COMMON SENSE  -----------------  Common sense is the greatest rule :-) We all have it, so lets try to utilize it. FOOD AND DRINK  ---------------------- Kitchen is user friendly. Please clean up after yourself. Please eat and drink in the kitchen. No food is permitted in the guest rooms because of the potential for unwanted pests. Only bring water into the room. Feel free to use all the kitchen tools you may find useful but please when you are done, wash it. The host of the house is happy to show you how to use it. TOWELS, SHEETS AND PILLOWS  ---------------------  Upon your arrival you are given a couple of towels. Laundry service is not offered, there is a laundromat located close by within walking distance. Sheets/Towels are cleaned and changed every week. BATHROOMS  -------------------- Please limit your shower to 15 mins (This rule is in effect because previous guest have taken 45 - 60 min showers (to soothe their stress) Not only are you depriving your fellow guest of hot water, ",
52054843,Cozy & Sunlit Studio in LES,50434217719,unconfirmed,Laura,Manhattan,Lower East Side,40.72149,-73.98573,United States,US,True,moderate,Entire home/apt,2012,$373 ,$75 ,4,1,11/18/2018,0.13,4,1,0,"Please have a great time but ask me before you have guests, discuss parking, no animals, no loud music, no smoking or drugs, no prostitution or smuggling and please be very respectful of owners, tenant's  and neighbors. Boston is a very exciting city, we ask that you enjoy it but when you enter the premises, we also ask that you leave the party at the party. Please leave the unit as you received it and enjoy a relaxing stay!",
52055396,1BR Guest Suite with private entrance,51142076401,verified,Joel,Queens,Queens Village,40.718990000000005,-73.75347,United States,US,False,moderate,Entire home/apt,2006,$813 ,$163 ,3,27,6/24/2019,3.65,2,1,304,- Quiet time after 19,
52055948,12 east 86th Steet Upper East Side Building,64097678121,verified,Honey,Manhattan,Upper East Side,40.777190000000004,-73.9529,United States,US,True,flexible,Entire home/apt,2011,$632 ,$126 ,30,0,,,2,7,364,I expect my guests to act as though they were in their own home. Make yourself comfortable. Enjoy the city. Put the toilet seat down. :) ,
52056500,Cozy New York Apartment,47895101820,unconfirmed,Shannon R,Manhattan,Chelsea,40.739909999999995,-74.00211,United States,US,False,moderate,Entire home/apt,2014,$415 ,$83 ,1,2,10/11/2018,0.11,3,1,0,,
52057053,"Great room in beautiful, light-filled apartment",79621632773,unconfirmed,Rebecca,Manhattan,Washington Heights,40.83267,-73.94156,United States,US,False,strict,Private room,2022,"$1,165 ",$233 ,30,0,,,3,1,90,,
52057605,HUGE ONE BEDROOM IN BK,3440364807,verified,Bugsy,Brooklyn,Flatbush,40.65105,-73.95935,United States,US,True,moderate,Entire home/apt,2020,$888 ,$178 ,1,4,3/7/2018,0.23,5,1,0,"In order to provide a healthy, comfortable and safe environment, the following are the rules of my house. It is your responsibility to not only read these rules once, but to be aware of and follow all of them throughout your stay at my home. Most of what follows is common sense or common courtesy. The rules serve to protect you as a guest by helping ensure that the environment you find here is the one that I intended to create. Please keep in mind:  You will be sharing common areas with other guests or residents, and thus the cleanliness of the common areas is far more dependent upon all guests cleaning up after themselves, than it is upon my once a week cleaning. Most guests do very well in keeping common areas clean! House rules: Please do not drag luggage up the front stairs. Please leave things as they are in your room: do not remove pictures from walls, don't move furniture around, and do not remove mattress protector from the mattress. Also, it should not be necessary to say, but",
52058157,"Private room for short time rent, Sheepshead Bay",19864780346,verified,Victoria,Brooklyn,Sheepshead Bay,40.589,-73.95675,United States,US,True,strict,Private room,2003,"$1,108 ",$222 ,3,3,9/14/2018,0.28,2,1,189,No Smoking in the Building.  ,
52058710,Beautiful private bedroom/bath in private house,97965849858,verified,Dena,Brooklyn,Gowanus,40.67968,-73.99065999999999,United States,US,True,moderate,Private room,2019,$543 ,$109 ,2,50,6/23/2019,3.19,5,1,80,"We live on a quiet street with many friendly homeowners, please be courteous of neighbors.  Our welcome binder includes helpful information.",
52059262,"Cozy, Chic Private Room -- Steps Away From Metro!",6734606092,unconfirmed,Adrian,Bronx,Longwood,40.81943,-73.90224,United States,US,False,strict,Private room,2012,$393 ,$79 ,2,9,9/30/2018,0.65,3,1,0,,
52059814,Pinterest Room ! Minimal but cute,54631776651,verified,Phil,Brooklyn,Crown Heights,40.67521,-73.93996,United States,US,False,flexible,Private room,2015,$308 ,$62 ,7,0,,,4,1,365,,
52060366,1BR Apartment in the Heart of Gramercy,21928180607,verified,Gary,Manhattan,Gramercy,40.736740000000005,-73.98308,United States,US,True,flexible,Entire home/apt,2007,$752 ,$150 ,3,52,5/31/2019,3.2,4,1,3,"House Rules 1. All bookings made at least a week before check in are fully refundable if cancelled within 24 hours of booking. After this, you will receive a 50% refund if you cancel at least 7 days before the start of your trip. 2. Check-in time is any time after 4 pm local time. If the unit is ready earlier, we’ll let you know. Check-out is normally 11 am local time, but we’d be happy to extend it as long as we don’t have a cleaning scheduled. Just let us know.  3. All bookings require a security deposit of at least $300. 4. For security measures we require all guests to provide proof of identification through ID verification on our own website. In order to check in, we'll need a photo of your ID.  5. Don’t let $300 go up in smoke. There's no smoking allowed in any Flatbook and a $300 fine for breaking this rule.  6. Unfortunately we don’t allow pets in most of our apartments. 7. Unless you’re staying in one of our specialty apartments, we don’t allow parties or excessive noise. 8. I",
52060919,Luxury 2 Bedroom Apartment in Williamsburg,48226153262,verified,Yazmin,Brooklyn,Bedford-Stuyvesant,40.69305,-73.95599,United States,US,True,flexible,Entire home/apt,2015,$309 ,$62 ,2,95,7/5/2019,5.27,5,1,48,"Unlike most other Airbnb listings, what we do here is long-term rentals by the year, or by the semester.  We try to keep the atmosphere conducive to studying and resting and a couple of house-rules are in place to this end.  1. Towels and linens (sheets, blankets, and pillows) are NOT provided. The bed is full size. 2. No smoking on the premises.  3. No loud music or TV etc.  4. Only for one person (no couples, no visitors). We seldom have visitors, let alone overnight guests. We know this will be a major turn-off to many people, but we believe we can find a like-minded roommate who can have fun outside the house.  5. If you are not sure about your check-out date, you can reserve the minimum days and extend your stay at a discounted rate.  6. Check-in time has to be coordinated at least 48 hours ahead. On arrival, a short registration process with a picture ID is needed in exchange for keys and wifi access.  7. Inside the apartment, we take off our outside shoes. So if you bring your o",
52061471,124 West 60th one bedroom apartment,44893997000,verified,Honey,Manhattan,Upper West Side,40.769729999999996,-73.9848,United States,US,True,strict,Entire home/apt,2004,$557 ,$111 ,30,0,,,4,7,365,"Shoes off apartment (slippers available to guests) No smoking of any substance on the property Respectful Friendly Quiet Leave things as they were found, clean after yourself  No dishes left in the sink  Please use blue cups, bowls, utensils and plates and  Store dry foods in 3rd tall pantry cabinet for your personal food storage and store food in the fridge on the 1st top row Guests may not have additional guests without clearing them with me first",
52062023,Cozy 1 Bedroom in South Williamsburg,44132246580,verified,Tiffany,Brooklyn,Williamsburg,40.71082,-73.96128,United States,US,True,moderate,Entire home/apt,2019,$939 ,$188 ,1,1,1/20/2018,0.06,3,1,0,No smoking allowed in the house.  No pets.  No loud music or partying allowed at night.  Please respect the property as you would your own house.,
52062576,Elk Lodge,47820287582,unconfirmed,Devon,Queens,Long Island City,40.75853,-73.94304,United States,US,True,moderate,Private room,2003,$135 ,$27 ,1,0,,,4,1,0,,
52063128,90 Washington top building with spectacular views.,51068456172,verified,Honey,Manhattan,Financial District,40.708529999999996,-74.01436,United States,US,True,flexible,Entire home/apt,2008,$922 ,$184 ,30,1,5/25/2018,0.07,5,7,364,"There are real beds for eight. Linens, sheets, towels,  basic kitchen and basic toiletries are provided. Please leave the house in the condition that you found it. This unit is a townhouse with two neighbors attached side by side to the building. Please be respectful and keep noise to a minimum after 11pm and before 7am.  ""NO SMOKING"" ""NO PARTIES Thank you!",
52063680,Comfy couch in Manhattan!,26777701523,unconfirmed,Sofia,Manhattan,East Harlem,40.8024,-73.93735,United States,US,True,flexible,Shared room,2004,$905 ,$181 ,1,17,5/25/2018,0.94,4,4,0,"No Smoking in the house,  Respect and take care of apartment.  Any dishes you use should be clean/dishwasher loaded and run..  ",
52064233,2-bedroom in the heart of Upper West Side.,35174474136,verified,Jed,Manhattan,Upper West Side,40.782959999999996,-73.98252,United States,US,True,flexible,Entire home/apt,2005,$639 ,$128 ,2,47,6/27/2019,2.79,4,1,269,Please remove your shoes at the door and use coasters for drinks on any furniture.,
52064785,Stylish home in Queens,54879204983,verified,Antonis,Queens,Sunnyside,40.74755,-73.91833000000001,United States,US,False,flexible,Entire home/apt,2021,$961 ,$192 ,5,19,6/23/2019,1.18,4,1,155,"House Rules 1. Check-in is 4 pm local time. If the unit is ready earlier, we’ll let you know. Check-out is normally 11 am local time, but we’d be happy to extend it as long as we don’t have a cleaning scheduled. Just let us know.  2. All bookings require a security deposit of at least $300, which will be refunded within 7 days of your check-out. 3. For security measures we require all guests to provide proof of identification through ID verification on our own website. In order to check in we'll need a photo of your ID.  4. Our cancellation policy is as shown on our ad and defined by the site you are booking through.  5. Don’t let $300 go up in smoke. There's no smoking allowed in any Flatbook and a $300 fine for breaking this rule.  6. Unfortunately we don’t allow pets in any of our apartments. 7. Unless you’re staying in one of our specialty apartments, we don’t allow parties or excessive noise. 8. If we find the place very messy, we have to charge an extra $40 for every extra hour o",
52065337,Spacious and Airy Williamsburg Home,64569566818,verified,Anastasia,Brooklyn,Williamsburg,40.71028,-73.95366999999999,United States,US,False,moderate,Entire home/apt,2022,$930 ,$186 ,1,52,6/13/2019,2.88,5,2,0,"No Smoking in building,  Respect for other guests and neighbors.  Quiet after 10 pm. Parking is available on Linwood and Gardner streets 24 hours.  No parking is permitted on Centre Place.",
52065889,Peaceful Private Luxe Bushwick Space,25744249056,verified,Timothy,Brooklyn,Bushwick,40.6881,-73.91311999999999,United States,US,True,flexible,Private room,2016,$177 ,$35 ,5,19,4/16/2019,1.29,4,7,140,"We're laid back and don't have too many rules! There is a porch outside if you need to smoke. We like to keep our home neat and hope you help us keep it how you find it!  We do ask that you do not bring guests back. This is a way for us to control who is in our home, and it means a lot to us.  As for noise, just be reasonable. If it's getting late, you know the drill :)",
52066442,One bedroom in heart of NYC,25009756240,unconfirmed,Julianna,Manhattan,Upper East Side,40.763729999999995,-73.96595,United States,US,True,strict,Entire home/apt,2010,$273 ,$55 ,2,13,7/29/2018,0.87,4,1,0,"House Rules 1. All bookings made at least a week before check in are fully refundable if cancelled within 24 hours of booking. After this, you will receive a 50% refund if you cancel at least 7 days before the start of your trip. 2. Check-in time is any time after 4 pm local time. If the unit is ready earlier, we’ll let you know. Check-out is normally 11 am local time, but we’d be happy to extend it as long as we don’t have a cleaning scheduled. Just let us know.  3. All bookings require a security deposit of at least $300. 4. For security measures we require all guests to provide proof of identification through ID verification on our own website. In order to check in, we'll need a photo of your ID.  5. Don’t let $300 go up in smoke. There's no smoking allowed in any Flatbook and a $300 fine for breaking this rule.  6. Unfortunately we don’t allow pets in most of our apartments. 7. Unless you’re staying in one of our specialty apartments, we don’t allow parties or excessive noise. 8. I",
52066994,Cute private room in  Downtown NYC,14252783746,verified,Aura,Manhattan,Chinatown,40.71391,-73.99076,United States,US,False,flexible,Private room,2011,$825 ,$165 ,3,3,10/15/2018,0.17,3,3,0,"There are real beds for eight, one pull out couch, and one single mattress available. Linens, sheets, towels, kitchen staples, breakfast foods, and basic toiletries provided. Games, toys and books are here for your use, make themselves at home. Please leave the house in the condition that you found it. This unit is on the second and third floors of a two-family I own, and I have tenants below. Please be respectful of them, and my neighbors, and keep noise to a minimum after 11pm and before 7am. Thank you!",
52067546,Beautiful Private Room in Cobble Hill Brownstone!,3490488067,verified,Will,Brooklyn,Cobble Hill,40.6901,-73.99523,United States,US,False,flexible,Private room,2007,$742 ,$148 ,10,19,11/24/2018,1.06,3,1,0,,
52068099,Entire Private Floor of West Village Duplex- NY,73473521378,verified,Deo,Manhattan,West Village,40.73612,-74.0041,United States,US,True,moderate,Private room,2015,$595 ,$119 ,2,3,5/5/2019,0.85,4,2,0,"House Rules 1. Check-in is 4 pm local time. If the unit is ready earlier, we’ll let you know. Check-out is normally 11 am local time, but we’d be happy to extend it as long as we don’t have a cleaning scheduled. Just let us know.  2. All bookings require a security deposit of at least $300, which will be refunded within 7 days of your check-out. 3. For security measures we require all guests to provide proof of identification through ID verification on our own website. In order to check in we'll need a photo of your ID.  4. Our cancellation policy is as shown on our ad and defined by the site you are booking through.  5. Don’t let $300 go up in smoke. There's no smoking allowed in any Flatbook and a $300 fine for breaking this rule.  6. Unfortunately we don’t allow pets in any of our apartments. 7. Unless you’re staying in one of our specialty apartments, we don’t allow parties or excessive noise. 8. If we find the place very messy, we have to charge an extra $40 for every extra hour o",
52068651,"UWS, Luxury Modern 1 BR 1 Bath, Doorman.",28326795888,verified,Lauren,Manhattan,Upper West Side,40.7817,-73.982,United States,US,True,flexible,Private room,2008,$445 ,$89 ,3,0,,,4,1,365,No parties. No overnight guests. Please use your time in the city to get out and explore and use the apartment as an experience to stay in a neighborhood where you'll never find a hotel! You are so close to everything!,
52069203,Cozy affordable room #1,41984052797,unconfirmed,Jannices,Brooklyn,Bushwick,40.687259999999995,-73.90621,United States,US,True,strict,Private room,2010,$922 ,$184 ,1,36,4/18/2019,2.0,4,6,0,No smoking except smoke deck.,
52069756,Cozy affordable room #3,5411313009,verified,Jannices,Brooklyn,Bushwick,40.68757,-73.90737,United States,US,True,flexible,Private room,2012,$606 ,$121 ,1,33,6/21/2019,1.83,3,6,1,"No pets, and no smoking indoors.",
52070308,Williamsburg Bedroom Available,70619819134,unconfirmed,Logan,Brooklyn,Williamsburg,40.71082,-73.95729,United States,US,False,flexible,Private room,2005,$428 ,$86 ,2,11,7/4/2019,0.67,3,1,3,"A list of house details, rules and local information will be provided upon arrival.",
52070860,55 washington,63519259374,verified,Yoon,Brooklyn,DUMBO,40.703109999999995,-73.98853000000001,United States,US,True,moderate,Private room,2006,"$1,156 ",$231 ,1,0,,,2,1,0,"Shoes off apartment (slippers available to guests) No smoking of any substance on the property Respectful Friendly Quiet Leave things as they were found, clean after yourself  No dishes left in the sink  Please use green cups, bowls, utensils and plates and  Store dry foods in 2nd tall pantry cabinet for your personal food storage and store food in the fridge on the 2nd row Guests may not have additional guests without clearing them with me first",
52071412,A Taste of Historic Bedstuy - 20 mins to City!,34422315160,unconfirmed,Cj,Brooklyn,Bedford-Stuyvesant,40.68141,-73.92769,United States,US,True,strict,Private room,2022,"$1,175 ",$235 ,2,21,7/7/2019,1.2,4,2,28,,
52071965,Artsy 1 bedroom Apartment in East Village,2972131453,unconfirmed,Walid,Manhattan,East Village,40.72785,-73.97976,United States,US,True,moderate,Entire home/apt,2009,$785 ,$157 ,1,80,6/26/2019,4.62,2,3,21,"Shoes off apartment (slippers available to guests) No smoking of any substance on the property Respectful Friendly Quiet Leave things as they were found, clean after yourself  No dishes left in the sink  Please use white cups, bowls, utensils and plates and  Store dry foods in pantry cabinet below the microwave for your personal food storage and store food in the fridge on the left half of the 3rd row Guests may not have additional guests without clearing them with me first",
52072517,Studio Apartment Above Stephen Colbert Show,46942201288,verified,Teena,Manhattan,Midtown,40.76334,-73.98257,United States,US,True,flexible,Entire home/apt,2010,$679 ,$136 ,2,4,4/17/2018,0.24,5,1,188,"No street shoes in the house, please, but especially not in the bedrooms. We recycle - make sure you do too while you're here. It's single stream so very easy -ask if you're not sure how it works. Check-in and check-out times are flexible all days except Sunday where check-out is by 11 a.m.",
52073069,Private bedroom in FiDi,71638518199,unconfirmed,Michelle,Manhattan,Financial District,40.70789,-74.0108,United States,US,False,strict,Private room,2010,$63 ,$13 ,1,1,1/15/2018,0.06,2,1,0,- Guests can smoke outside the building in my backyard if they smoke. - Please arrive at or after 6:30pm as I work during the day and before 11:30pm.,
52073622,"Comfy, private bedroom in the Upper East Side.",76048546209,verified,Ana,Manhattan,Upper East Side,40.77685,-73.9537,United States,US,False,moderate,Private room,2022,"$1,042 ",$208 ,2,12,10/14/2018,0.79,4,1,2,Shoes-off home Respectful Friendly Quiet No smoking of any substance on the property No pets Leave things as they were found Clean up after yourself Reminder: Rest of apartment (kitchen or living room) not available to guests  Guests may not have additional guests without clearing them with Celia or Jonathan.,
52074174,"Central Brooklyn
Beautiful Rooms
Room Vista",5754131176,unconfirmed,Keisha,Brooklyn,Canarsie,40.637609999999995,-73.89339,United States,US,True,moderate,Private room,2010,$899 ,$180 ,2,32,5/27/2019,1.84,2,3,76,#NAME?,
52074726,LIC 1 Bedroom 10 min to Times Sq -1 stop to NYC,85348763231,verified,Kimberley,Queens,Long Island City,40.75489,-73.92166999999999,United States,US,True,moderate,Entire home/apt,2013,$913 ,$183 ,2,54,7/3/2019,3.21,5,2,351,"Pets are cool (just clean up after them!), smoking outside is allowed, and alcohol/coming home drunk is totally ok. If you drink our alcohol then please help replace it or chip in! Otherwise, we're pretty simple college guys who enjoy being social.",
52075279,307 east 44th street fully furnished,52428944325,unconfirmed,Honey,Manhattan,Midtown,40.75059,-73.97122,United States,US,True,flexible,Entire home/apt,2019,$585 ,$117 ,30,0,,,2,7,364,"Starting mid-November, I am looking for a longer-term guest (2+ months); someone who is responsible and employed outside of the home. A sublease agreement will need to be signed for any stay longer than one month.",
52075831,Large 1 bdr apartment. 20 mins to Times square,91579651995,verified,Tatiana,Manhattan,Harlem,40.82779,-73.94716,United States,US,False,moderate,Entire home/apt,2011,"$1,060 ",$212 ,4,34,5/30/2019,2.03,4,1,56,"Just be clean, be tidy, be yourself and enjoy your stay.",
52076383,The place,82152886554,verified,Marko,Brooklyn,Prospect-Lefferts Gardens,40.656859999999995,-73.95758000000001,United States,US,False,flexible,Private room,2015,"$1,142 ",$228 ,7,5,5/28/2019,0.3,2,1,5,,
52076935,Furnished Bedroom Meat Packing District,46981122340,unconfirmed,Percy,Manhattan,Chelsea,40.7394,-73.99964,United States,US,True,flexible,Private room,2003,$710 ,$142 ,3,1,5/2/2018,0.07,2,1,364,#NAME?,
52077488,Modern 2 bedroom apartment in Ozone Park Queens,42952509175,unconfirmed,Ashley,Queens,Ozone Park,40.68275,-73.8429,United States,US,True,flexible,Entire home/apt,2011,$86 ,$17 ,3,0,,,2,1,0,Will send it as soon as reservation is confirmed.,
52078040,"Backyard BK! Live like a NY’er in modern, new reno",53186152443,verified,Danielle,Brooklyn,Bedford-Stuyvesant,40.6886,-73.92936999999999,United States,US,False,moderate,Entire home/apt,2007,$665 ,$133 ,4,53,7/6/2019,3.66,2,2,41,,
52078592,**Summer in SugarHill Manhattan is VERY Sweet**,27681994115,unconfirmed,Abel,Manhattan,Harlem,40.82476,-73.94332,United States,US,True,flexible,Entire home/apt,2014,"$1,150 ",$230 ,2,78,7/6/2019,4.43,4,1,0,"Unlike most other Airbnb listings, what we do here is long-term rentals by the year, or by the semester and we can welcome compatible short-term guests. We try to keep the atmosphere conducive to studying and resting and a couple of house-rules are in place to this end.  1. Non-smoker preferred.  2. No loud music or TV etc.  3. Only for one person (no couples, no visitors). We seldom have visitors, let alone overnight guests. We know this will be a major turn-off to many people, but we believe we can find a like-minded roommate who can have fun outside the house.  4. If you re not sure about your check-out date, you can reserve the minimum days and extend your stay at a discounted rate.  5. Check-in time is flexible, but it has to be coordinated at least 24 hours ahead. On arrival, a short registration process with a picture ID is needed in exchange for keys and wifi access.  6. Inside the apartment, we take off our outside shoes. So if you bring your own flip-flops, slippers or some k",
52079145,"Be Queen For a Stay - Safe, Clean, Trendy in BK",21755890750,unconfirmed,Anna,Brooklyn,Williamsburg,40.71945,-73.94648000000001,United States,US,True,moderate,Entire home/apt,2021,$692 ,$138 ,4,6,9/23/2018,0.37,3,1,0,Please note that there is no smoking or any type of drugs in the apartment and please be respectful of other apartment mates. You are welcome to use the kitchen appliances as long as you clean up after yourself!,
52079697,307 east 44th street fully furnished,62656201744,verified,Honey,Manhattan,Midtown,40.751290000000004,-73.9698,United States,US,False,strict,Entire home/apt,2011,$978 ,$196 ,30,0,,,3,7,364,Shoes off apartment (slippers available to guests)  No smoking of any substance on the property  No parties Respectful  Friendly  Quiet  Leave things as they were found upon check-out,
52080249,Modern Bedstuy apartment,1508584215,verified,Reginald,Brooklyn,Bedford-Stuyvesant,40.6805,-73.92823,United States,US,True,flexible,Entire home/apt,2014,$217 ,$43 ,2,10,6/30/2019,0.68,5,1,0,,
52080802,Cozy private room,68574472450,verified,Kennedy,Brooklyn,Bushwick,40.69827,-73.93207,United States,US,True,moderate,Private room,2006,$996 ,$199 ,5,1,1/21/2018,0.06,4,1,0,Shoes-off home [tray provided] Respectful Friendly Quiet No smoking of any substance(s) on the property No pets Leave things as they were found Clean up after yourself Reminder: Rest of unit (main kitchen & living room not available to guests) Guests may not have additional guests without clearing them with Celia [or Jonathan].,
52081354,A ROOM DESIGNED JUST FOR YOU,96299844781,verified,Stephanie,Brooklyn,Bedford-Stuyvesant,40.683370000000004,-73.93056999999999,United States,US,True,strict,Private room,2010,$336 ,$67 ,2,9,4/4/2019,0.8,5,1,319,"No smoking within the apartment, though may do so on the back pouch. No pet allowed for other's safety reason. Keys must be left behind at the end of stay to avoid monetary penalty. Clean after self after use of  common areas for others comfort and convenience.",
52081906,HUGE One Bedroom East Village!,31421470436,verified,East Village,Manhattan,East Village,40.72162,-73.97774,United States,US,True,strict,Entire home/apt,2009,$272 ,$54 ,3,49,6/25/2019,2.71,2,2,202,Shoes-off home Respectful Friendly Quiet No smoking on the property Of course no drugs No pets Leave things as they were found Clean up after yourself,
52082458,Huge Bright Spacious apartment to Share,66802856568,verified,East Village,Manhattan,East Village,40.7214,-73.97787,United States,US,True,moderate,Private room,2009,$928 ,$186 ,2,3,6/7/2018,0.21,4,2,0,,
52083011,Cozy Brooklyn bedroom and bathoom,91050747658,verified,Hortense,Brooklyn,Bedford-Stuyvesant,40.69563,-73.93466,United States,US,False,flexible,Private room,2006,$701 ,$140 ,5,4,3/15/2018,0.23,4,2,0,No smoking on premises. no unnecessary noise.,
52083563,"Architect's Haven-- Light, Books and Plants!",47180777818,verified,Nicholas,Brooklyn,Gowanus,40.668240000000004,-73.99271999999999,United States,US,False,moderate,Entire home/apt,2006,$391 ,$78 ,5,8,6/25/2018,0.52,5,1,0,,
52084115,Handmade artist loft,28215032021,verified,Damon,Brooklyn,Clinton Hill,40.69675,-73.96188000000001,United States,US,True,moderate,Private room,2022,$767 ,$153 ,3,0,,,5,1,0,"Unlike most other Airbnb listings, what we do here is long-term rentals by the year, or by the semester.  We try to keep the atmosphere conducive to studying and resting and a couple of house-rules are in place to this end.  1. Towels and linens (sheets, blankets, and pillows) are NOT provided. The bed is twin size.  2. No smoking on the premises.  3. No loud music or TV etc.  4. Only for one person (no couples, no visitors). We seldom have visitors, let alone overnight guests. We know this will be a major turn-off to many people, but we believe we can find a like-minded roommate who can have fun outside the house.  5. If you are not sure about your check-out date, you can reserve the minimum days and extend your stay at a discounted rate.  6. Check-in time has to be coordinated at least 48 hours ahead. On arrival, a short registration process with a picture ID is needed in exchange for keys and wifi access.  7. Inside the apartment, we take off our outside shoes. So if you bring your ",
52084668,Sweet studio in Cobble Hill Brooklyn,34135617181,unconfirmed,Jeannette,Brooklyn,Cobble Hill,40.68864,-73.99896,United States,US,True,moderate,Entire home/apt,2022,$525 ,$105 ,30,5,6/15/2019,0.33,3,1,117,,
52085220,BUENA UBICACIÓN CON DESAYUNO INCLUIDO,94935056473,unconfirmed,Carmen,Brooklyn,Brighton Beach,40.57458,-73.96514,United States,US,False,moderate,Private room,2008,$794 ,$159 ,3,23,9/22/2018,1.37,2,1,153,,
52085772,☆Cozy Brooklyn Condo 18 minutes from Manhattan☆,73056116500,unconfirmed,Queen Sheba,Brooklyn,Bedford-Stuyvesant,40.67974,-73.91705,United States,US,False,moderate,Entire home/apt,2012,$804 ,$161 ,2,44,6/26/2019,2.92,5,1,174,,
52086325,"Clean, Large 2 Bedroom Duplex Apartment w/ Patio",419458323,verified,Narina,Manhattan,East Harlem,40.809540000000005,-73.93934,United States,US,False,strict,Entire home/apt,2006,"$1,015 ",$203 ,4,8,6/19/2019,0.51,3,2,160,We ask that guests leave the apartment in the condition that they found it.,
52086877,Location and Comfort Matter!,71581835558,verified,Johny,Brooklyn,Bedford-Stuyvesant,40.69292,-73.94657,United States,US,False,moderate,Entire home/apt,2010,"$1,000 ",$200 ,3,27,6/19/2019,1.58,4,7,319,,
52087429,Beautiful spacious private room w/ lovely backyard,61511066806,verified,Elena,Brooklyn,Bedford-Stuyvesant,40.68422,-73.95907,United States,US,False,strict,Private room,2009,$405 ,$81 ,7,2,1/23/2018,0.11,4,1,0,No Smoking and please clean dishes before departure.,
52087981,Room next to Central Park on the UES!,42126358432,verified,Lejla,Manhattan,Upper East Side,40.772870000000005,-73.95897,United States,US,False,strict,Private room,2007,$854 ,$171 ,2,0,,,2,1,88,,
52088534,Queen-sized bed in Ridgewood/Bushwick Area,61200366562,unconfirmed,Lee,Queens,Ridgewood,40.70348,-73.91051,United States,US,True,moderate,Private room,2016,$921 ,$184 ,2,1,8/9/2018,0.09,5,1,0,Can have friends but not parties. Ideal for students,
52089086,Cozy 1BR Apt in Williamsburg with Roof & Balcony,30588274862,verified,Anna,Brooklyn,Williamsburg,40.71805,-73.94925,United States,US,False,flexible,Private room,2017,$363 ,$73 ,1,9,2/24/2018,0.51,5,1,0,"Shoes off apartment (slippers available to guests) No smoking of any substance on the property Respectful Friendly Quiet Leave things as they were found, clean after yourself  No dishes left in the sink  Please use black cups, bowls, utensils and plates and  Store dry foods in 1st tall pantry cabinet for your personal food storage and store food in the fridge on the right half of the 3rd row Guests may not have additional guests without clearing them with me first Reminder: The bedroom is lofted, open over the staircase located on the top penthouse level of the apartment & building (5th floor) all to yourself. There's no door.",
52089638,"Charming and Spacious, 2bed in Bushwick.",5724903612,unconfirmed,Adelina,Brooklyn,Bushwick,40.70138,-73.9187,United States,US,False,strict,Entire home/apt,2003,$64 ,$13 ,2,6,2/25/2018,0.33,3,1,0,No smoking.,
52090191,Beautiful sunny studio apartment,63430953732,unconfirmed,Ramy,Brooklyn,Bedford-Stuyvesant,40.68037,-73.92029000000001,United States,US,True,moderate,Entire home/apt,2006,$943 ,$189 ,2,5,4/8/2018,0.28,4,1,0,,
52090743,"Cute, comfortable, convenient Brooklyn bedroom!",65355332735,verified,Rebecca,Brooklyn,Crown Heights,40.67131,-73.94753,United States,US,True,strict,Private room,2011,$453 ,$91 ,2,49,6/21/2019,3.15,2,1,8,,
52091295,Greenpoint apt,76582813823,verified,Darby,Brooklyn,Greenpoint,40.72292,-73.94618,United States,US,True,flexible,Private room,2013,$85 ,$17 ,1,2,4/22/2018,0.13,2,1,0,,
52091848,Cozy Brownstone Brooklyn Studio Near Subway!!,89971194156,unconfirmed,Daniel,Brooklyn,Boerum Hill,40.6876,-73.98472,United States,US,False,strict,Entire home/apt,2006,$590 ,$118 ,4,4,9/26/2018,0.3,5,1,14,,
52092400,Furnished Bedroom near Prospect Park!,5548936975,verified,Adam,Brooklyn,Kensington,40.64111,-73.97345,United States,US,True,strict,Private room,2010,$641 ,$128 ,2,0,,,4,1,0,,
52092952,Great affordable price for room near Manhattan,49037541632,unconfirmed,Joey,Queens,Ridgewood,40.69847,-73.90735,United States,US,False,moderate,Private room,2014,$378 ,$76 ,1,38,6/16/2019,2.28,3,7,47,No smoking in building per MGL. ,
52093504,"Great private room in Hell’s kitchen
TIMES SQUARE",55236296830,verified,Piero,Manhattan,Hell's Kitchen,40.75763,-73.99221,United States,US,True,moderate,Private room,2009,$866 ,$173 ,1,64,6/30/2019,3.59,4,2,332,"One week minimum stay please. No smoking, no pets. Antique furnishings so just be careful with glasses, coffee cups, etc..",
52094057,"Central  Brooklyn Beautiful Rooms
Room Florence
#1",94464798305,verified,Keisha,Brooklyn,Canarsie,40.63905,-73.89243,United States,US,True,moderate,Private room,2019,$331 ,$66 ,2,20,6/24/2019,1.4,3,3,177,,
52094609,The Paris - Duplex Penthouse with Roof Deck,90228625078,verified,Hampton,Manhattan,SoHo,40.72044,-73.9998,United States,US,False,moderate,Entire home/apt,2009,"$1,006 ",$201 ,2,0,,,5,1,2,No Smoking.  No Pets.,
52095161,Amazing Central Park One Bedroom,49079399810,unconfirmed,Imri,Manhattan,Upper West Side,40.7861,-73.97097,United States,US,False,moderate,Entire home/apt,2016,$330 ,$66 ,3,0,,,5,1,0,No Smoking.  No Pets.,
52095714,Lincon appartament,97799309144,verified,Nicolo,Manhattan,Upper West Side,40.7734,-73.98684,United States,US,True,strict,Private room,2015,"$1,112 ",$222 ,60,0,,,5,1,365,"1.  Check-in time is after 3 p.m. and check-out time is before 11 a.m.    2.  DO NOT TAKE KEYS WITH YOU! On the Departure Date, the keys shall be left on the kitchen counter.  The door to the Property MUST BE LOCKED BEHIND YOU using the key from the lockbox located inside the drawer to the foyer table.  The front door to the building can simply be closed behind you. 3. This is a NON SMOKING property. The smell of smoke in the property, including the common areas of the building, will result in loss of security deposit. 4. A Security Deposit of $250 is required for stays of less than one month.  For monthly stays a Security Deposit of $750 is required. The Security Deposit is fully refundable within 48 hours of departure, provided the following provisions are met:  a.    No damage is done to home or its contents, beyond normal wear and tear.  b.    No charges are incurred due to contraband, pets of Guest, or collection of rents or services rendered during the stay or any other act or om",
52096266,Cute room in Manhattan 30 mins to Times Square,47325517735,verified,Nuttamon,Manhattan,Washington Heights,40.85411,-73.92952,United States,US,True,strict,Private room,2008,$332 ,$66 ,1,45,6/17/2019,2.7,5,5,315,NO Smoking,
52096818,Spacious apartment with all necessities nearby,95226105806,unconfirmed,Mohammed,Brooklyn,Canarsie,40.64178,-73.90179,United States,US,True,flexible,Entire home/apt,2003,$456 ,$91 ,5,23,6/30/2019,1.7,2,1,293,,
52097371,The Quietest Block in Manhattan :),13640800027,unconfirmed,Kathleen,Manhattan,Harlem,40.83102,-73.94181,United States,US,True,strict,Private room,2022,"$1,160 ",$232 ,2,103,7/7/2019,5.89,3,2,0,,
52097923,1 Large bedroom in Murray Hill,54281965597,unconfirmed,Adil,Manhattan,Murray Hill,40.74476,-73.9755,United States,US,True,moderate,Private room,2005,$140 ,$28 ,15,0,,,5,1,0,"No smoking in apartment, foyer,  or outside building.  No parties. No pets. Quiet and respectful of our neighbors.  ",
52098475,Vintage east village apartment,1609180861,verified,M,Manhattan,East Village,40.72804,-73.98725999999999,United States,US,True,strict,Private room,2004,"$1,028 ",$206 ,2,3,4/9/2018,0.19,3,1,0,A few items to keep costs low and accommodations comfortable: • Only guests included in the booking are allowed in the apartment.  • No smoking in/near the apartment. • No shoes in the apartment. Slippers are provided. • Clean up after yourself and leave the apartment as you found it. • Be mindful of neighbors and other guests.  • Turn off the lights when you're not in the room.  • Tell me how I can help you enjoy your stay!,
52099027,Nice Place in The Bronx!!,47184238130,verified,Erick,Bronx,Longwood,40.81961,-73.90019000000001,United States,US,False,flexible,Entire home/apt,2008,$450 ,$90 ,5,45,6/23/2019,2.51,5,1,266,"No smoking. No pets, please.",
52099580,Bright-Spacious Private Room /30 min NYC,36393116419,unconfirmed,Soon,Queens,Flushing,40.77053,-73.80067,United States,US,False,strict,Private room,2013,$82 ,$16 ,30,5,6/27/2019,0.39,3,3,335,,
52100132,"Private, Comfy Town Home - Heart of Williamsburg",11859575928,verified,Chase,Brooklyn,Williamsburg,40.7169,-73.96493000000001,United States,US,True,flexible,Private room,2007,$308 ,$62 ,1,75,7/7/2019,4.59,5,2,81,"Hello! We look forward to having you. Have a great time! House Rules and Information  Greetings! We like to think of all of our guests as friends and hope that you will treat our apartment as you would treat yours, not as one might treat a hotel room.   There is NO SMOKING allowed in the apartment at any time.  Damages: if you notice any damage when you arrive, please report it to our office so we are aware of it and don’t assume it happened during your stay.  Laundry: there is a European style washer/dryer combo unit in the apartment. The manual is located on the left side wall in the closet. This is a high efficiency energy efficient unit. HE laundry detergent only is to be used. Be advised that wash/dry cycles take a considerable amount of time. Bath: there is a hair dryer in the bathroom for guest use. Linens: When you are done with your towels, please put them in the laundry basket in the bedroom. It would be great if you can take the sheets you have slept on and put them in the b",
52100684,"Bright, minimal hideaway with ensuite bathroom",83034276217,unconfirmed,Raven,Brooklyn,Bushwick,40.69928,-73.9309,United States,US,True,moderate,Private room,2021,$331 ,$66 ,14,1,11/13/2018,0.13,2,1,49,"There is no smoking in any of the house rooms.    Single guests are preferred, but exceptions are made to accommodate 2 people if needed.  The Office Room will only accommodate 1 person.   Every effort is made to insure guest privacy, and quiet, especially during late evening hours.",
52101237,Cozy Private room in Hamilton Heights,94285199564,unconfirmed,Melissa,Manhattan,Harlem,40.82949,-73.94644,United States,US,False,strict,Private room,2011,$761 ,$152 ,3,2,8/13/2018,0.17,2,1,0,,
52101789,Cozy Ridgewood Spot,6345253833,unconfirmed,Hubert,Queens,Ridgewood,40.70111,-73.89988000000001,United States,US,True,moderate,Private room,2008,$124 ,$25 ,3,0,,,3,1,0,"House Rules The house rules are an important part of staying in this condo.  You will be sharing a living space with other guests and a high level of consideration, respect, communication and tolerance is expected from you.  They are meant to make your stay more pleasant, to prevent conflicts and to protect the property of any damage.  If you feel there is something that needs to be addressed and that is not covered in these rules, please make sure you communicate that to the host. 1.  Toilet · The toilettes can only be used with toilet paper provided.  Any other material disposed of will cause the plumbing system to back up and create drainage problems.  No tissues, cotton balls, tampons, Q-tips cotton swabs or any kind of sanitary products are allowed down the toilets.  · Any plumbing work due to clogged toilets will be charged to the guests. 2. Noise and Quiet Hours · Quiet hours are from 10pm until 7am.  During quiet hours radios and stereos may be played at a level not to be heard",
52102341,Large Brooklyn Rm- Prospect Park & F/G Train!,26532577619,unconfirmed,Casey,Brooklyn,South Slope,40.66085,-73.98178,United States,US,False,strict,Shared room,2010,$718 ,$144 ,2,1,3/18/2018,0.06,4,1,0,Kindness and courtesy appreciated. Non-dishwasher safe: pots & pans knives Water filter in the refrigerator Recycling placed between kitchen counter and living room next to the counter,
52102894,Birth place of Hip hop in the heart of the Bronx.,41364007824,verified,Schomberg,Bronx,Hunts Point,40.81978,-73.88743000000001,United States,US,False,flexible,Private room,2009,$432 ,$86 ,2,0,,,3,1,0,Please respect the residents at the building by keeping noise down and absolutely no smoking.  Thank you.,
52103446,Amazing Private Room @Madison Square Garden,89116504096,unconfirmed,Piero,Manhattan,Hell's Kitchen,40.7559,-73.99324,United States,US,False,moderate,Private room,2011,$787 ,$157 ,1,91,6/25/2019,5.11,2,2,304,,
52103998,"Huge, New and Green Oasis in Brooklyn",51470495986,unconfirmed,Judith,Brooklyn,Bay Ridge,40.63557,-74.03449,United States,US,False,moderate,Entire home/apt,2020,$318 ,$64 ,2,34,6/29/2019,3.03,3,1,96,"House Rules 1. Check-in is 4 pm local time. If the unit is ready earlier, we’ll let you know. Check-out is normally 11 am local time, but we’d be happy to extend it as long as we don’t have a cleaning scheduled. Just let us know.  2. All bookings require a security deposit of at least $300, which will be refunded within 7 days of your check-out. 3. For security measures we require all guests to provide proof of identification through ID verification on our own website. In order to check in we'll need a photo of your ID.  4. Our cancellation policy is as shown on our ad and defined by the site you are booking through.  5. Don’t let $300 go up in smoke. There's no smoking allowed in any Flatbook and a $300 fine for breaking this rule.  6. Unfortunately we don’t allow pets in any of our apartments. 7. Unless you’re staying in one of our specialty apartments, we don’t allow parties or excessive noise. 8. If we find the place very messy, we have to charge an extra $40 for every extra hour o",
52104550,Entire Apartment - A retreat in Lefferts Garden,43262850632,verified,Katie,Brooklyn,Prospect-Lefferts Gardens,40.65682,-73.95875,United States,US,False,flexible,Entire home/apt,2007,$974 ,$195 ,3,0,,,2,2,0,"House Rules 1. Check-in is 4 pm local time. If the unit is ready earlier, we’ll let you know. Check-out is normally 11 am local time, but we’d be happy to extend it as long as we don’t have a cleaning scheduled. Just let us know.  2. All bookings require a security deposit of at least $300, which will be refunded within 7 days of your check-out. 3. For security measures we require all guests to provide proof of identification through ID verification on our own website. In order to check in we'll need a photo of your ID.  4. Our cancellation policy is as shown on our ad and defined by the site you are booking through.  5. Don’t let $300 go up in smoke. There's no smoking allowed in any Flatbook and a $300 fine for breaking this rule.  6. Unfortunately we don’t allow pets in any of our apartments. 7. Unless you’re staying in one of our specialty apartments, we don’t allow parties or excessive noise. 8. If we find the place very messy, we have to charge an extra $40 for every extra hour o",
52105103,Duplex Apt in Brooklyn Beautiful Brownstone,27544676246,verified,Paul,Brooklyn,Bedford-Stuyvesant,40.68226,-73.93153000000001,United States,US,False,strict,Entire home/apt,2019,$67 ,$13 ,5,25,5/25/2019,1.49,3,2,77,"House Rules 1. Check-in is 4 pm local time. If the unit is ready earlier, we’ll let you know. Check-out is normally 11 am local time, but we’d be happy to extend it as long as we don’t have a cleaning scheduled. Just let us know.  2. All bookings require a security deposit of at least $300, which will be refunded within 7 days of your check-out. 3. For security measures we require all guests to provide proof of identification through ID verification on our own website. In order to check in we'll need a photo of your ID.  4. Our cancellation policy is as shown on our ad and defined by the site you are booking through.  5. Don’t let $300 go up in smoke. There's no smoking allowed in any Flatbook and a $300 fine for breaking this rule.  6. Unfortunately we don’t allow pets in any of our apartments. 7. Unless you’re staying in one of our specialty apartments, we don’t allow parties or excessive noise. 8. If we find the place very messy, we have to charge an extra $40 for every extra hour o",
52105655,Luxury Chelsea apt. walking distance to everything,16005764796,unconfirmed,Kristen,Manhattan,Chelsea,40.74907,-74.00374000000001,United States,US,False,moderate,Entire home/apt,2018,$453 ,$91 ,4,35,4/26/2019,2.19,3,1,79,No smoking and NO extra quests,
52106207,"Bedroom balcony, modern apt, rooftop williamsburg",40526257165,verified,Lucas,Brooklyn,Williamsburg,40.707879999999996,-73.9511,United States,US,False,strict,Private room,2009,"$1,131 ",$226 ,3,5,5/24/2018,0.31,3,1,0,"House Rules 1. Check-in is 4 pm local time. If the unit is ready earlier, we’ll let you know. Check-out is normally 11 am local time, but we’d be happy to extend it as long as we don’t have a cleaning scheduled. Just let us know.  2. All bookings require a security deposit of at least $300, which will be refunded within 7 days of your check-out. 3. For security measures we require all guests to provide proof of identification through ID verification on our own website. In order to check in we'll need a photo of your ID.  4. Our cancellation policy is as shown on our ad and defined by the site you are booking through.  5. Don’t let $300 go up in smoke. There's no smoking allowed in any Flatbook and a $300 fine for breaking this rule.  6. Unfortunately we don’t allow pets in any of our apartments. 7. Unless you’re staying in one of our specialty apartments, we don’t allow parties or excessive noise. 8. If we find the place very messy, we have to charge an extra $40 for every extra hour o",
52106760,LargeBedroom gem in historic Red Hook Brooklyn!,72739777496,unconfirmed,Jeffrey,Brooklyn,Columbia St,40.68155,-74.0039,United States,US,False,strict,Private room,2005,$787 ,$157 ,4,4,11/11/2018,0.33,3,5,0,"House Rules 1. Check-in is 4 pm local time. If the unit is ready earlier, we’ll let you know. Check-out is normally 11 am local time, but we’d be happy to extend it as long as we don’t have a cleaning scheduled. Just let us know.  2. All bookings require a security deposit of at least $300, which will be refunded within 7 days of your check-out. 3. For security measures we require all guests to provide proof of identification through ID verification on our own website. In order to check in we'll need a photo of your ID.  4. Our cancellation policy is as shown on our ad and defined by the site you are booking through.  5. Don’t let $300 go up in smoke. There's no smoking allowed in any Flatbook and a $300 fine for breaking this rule.  6. Unfortunately we don’t allow pets in any of our apartments. 7. Unless you’re staying in one of our specialty apartments, we don’t allow parties or excessive noise. 8. If we find the place very messy, we have to charge an extra $40 for every extra hour o",
52107312,The heart of Brooklyn,5530435060,unconfirmed,Sophia,Brooklyn,Bedford-Stuyvesant,40.68094,-73.9462,United States,US,False,strict,Entire home/apt,2022,$154 ,$31 ,30,4,5/15/2019,0.26,2,6,220,*No additional guest are to stay/visit besides pre-approved guests.  *Please do not drink my wine.,
52107864,Sunny apartment with easy connections to anywhere.,65966576829,unconfirmed,Sam,Brooklyn,Bedford-Stuyvesant,40.68959,-73.95616,United States,US,True,strict,Private room,2016,$968 ,$194 ,3,11,6/30/2019,0.82,4,1,13,Please respect the residents in the building by keeping noise down and absolutely no smoking!  Thanks.,
52108417,Cozy Brooklyn Stay,53137786008,verified,Qusuquzah,Brooklyn,Cypress Hills,40.68177,-73.88277,United States,US,False,strict,Private room,2017,"$1,152 ",$230 ,2,10,12/1/2018,0.94,3,3,365,Please respect the residents of the building by keeping noise down and absolutely no smoking.,
52108969,Large comfortable Studio! Perfect for couple!,14373737699,verified,Eriko,Manhattan,Harlem,40.80399,-73.95402,United States,US,False,strict,Entire home/apt,2005,$372 ,$74 ,4,5,2/24/2019,0.31,4,1,7,Please do not smoke in the building!!!   You may smoke outside on the private deck.    Please be reasonably quiet and respectful of the host (his bedroom his below your bedroom!),
52109521,Madinina,44967033871,unconfirmed,Bertin,Manhattan,Harlem,40.812940000000005,-73.94609,United States,US,True,moderate,Private room,2022,$779 ,$156 ,2,30,7/1/2019,1.88,3,2,331,No Loud Music,
52110073,Staten Island full size living space-lower level,97655308037,verified,Nabil,Staten Island,Arden Heights,40.56033,-74.18259,United States,US,True,flexible,Entire home/apt,2003,$961 ,$192 ,1,20,1/8/2019,1.55,4,1,6,"House Rules 1. Check-in is 4 pm local time. If the unit is ready earlier, we’ll let you know. Check-out is normally 11 am local time, but we’d be happy to extend it as long as we don’t have a cleaning scheduled. Just let us know.  2. All bookings require a security deposit of at least $300, which will be refunded within 7 days of your check-out. 3. For security measures we require all guests to provide proof of identification through ID verification on our own website. In order to check in we'll need a photo of your ID.  4. Our cancellation policy is as shown on our ad and defined by the site you are booking through.  5. Don’t let $300 go up in smoke. There's no smoking allowed in any Flatbook and a $300 fine for breaking this rule.  6. Unfortunately we don’t allow pets in any of our apartments. 7. Unless you’re staying in one of our specialty apartments, we don’t allow parties or excessive noise. 8. If we find the place very messy, we have to charge an extra $40 for every extra hour o",
52110626,Spacious King size Apartment near Prospect Park,93379454980,unconfirmed,Rose,Brooklyn,Prospect-Lefferts Gardens,40.66248,-73.95427,United States,US,False,flexible,Entire home/apt,2012,$240 ,$48 ,3,36,6/25/2019,2.23,2,1,132,,
52111178,Cozy bedroom in the heart of Greenpoint,79542208608,verified,Justyna,Brooklyn,Greenpoint,40.729040000000005,-73.94885,United States,US,True,moderate,Private room,2008,$990 ,$198 ,5,1,2/20/2018,0.06,5,1,0,"House Rules 1. Check-in is 4 pm local time. If the unit is ready earlier, we’ll let you know. Check-out is normally 11 am local time, but we’d be happy to extend it as long as we don’t have a cleaning scheduled. Just let us know.  2. All bookings require a security deposit of at least $300, which will be refunded within 7 days of your check-out. 3. For security measures we require all guests to provide proof of identification through ID verification on our own website. In order to check in we'll need a photo of your ID.  4. Our cancellation policy is as shown on our ad and defined by the site you are booking through.  5. Don’t let $300 go up in smoke. There's no smoking allowed in any Flatbook and a $300 fine for breaking this rule.  6. Unfortunately we don’t allow pets in any of our apartments. 7. Unless you’re staying in one of our specialty apartments, we don’t allow parties or excessive noise. 8. If we find the place very messy, we have to charge an extra $40 for every extra hour o",
52111730,Cozy apartment in Greenwich Village,44884932227,verified,Christopher,Manhattan,Greenwich Village,40.72815,-73.99586,United States,US,True,flexible,Entire home/apt,2016,$878 ,$176 ,2,14,4/22/2018,0.79,5,3,0,"House Rules 1. Check-in is 4 pm local time. If the unit is ready earlier, we’ll let you know. Check-out is normally 11 am local time, but we’d be happy to extend it as long as we don’t have a cleaning scheduled. Just let us know.  2. All bookings require a security deposit of at least $300, which will be refunded within 7 days of your check-out. 3. For security measures we require all guests to provide proof of identification through ID verification on our own website. In order to check in we'll need a photo of your ID.  4. Our cancellation policy is as shown on our ad and defined by the site you are booking through.  5. Don’t let $300 go up in smoke. There's no smoking allowed in any Flatbook and a $300 fine for breaking this rule.  6. Unfortunately we don’t allow pets in any of our apartments. 7. Unless you’re staying in one of our specialty apartments, we don’t allow parties or excessive noise. 8. If we find the place very messy, we have to charge an extra $40 for every extra hour o",
52112283,Williamsburg BK | Private Guest Suite,60050133154,verified,Daniel,Brooklyn,Williamsburg,40.71589,-73.94288,United States,US,False,flexible,Private room,2019,$57 ,$11 ,3,19,6/24/2019,1.35,5,1,172,10 guest maximum.  Smoking isn't permitted and unfortunately neither are pets. Sorry.   Quiet hours 9p-8a.,
52112835,Gorgeous bedroom in prime park slope,11985517090,verified,Gunveer,Brooklyn,Park Slope,40.67158,-73.97706,United States,US,False,flexible,Private room,2018,"$1,102 ",$220 ,4,0,,,3,1,0,"House Rules 1. Check-in is 4 pm local time. If the unit is ready earlier, we’ll let you know. Check-out is normally 11 am local time, but we’d be happy to extend it as long as we don’t have a cleaning scheduled. Just let us know.  2. All bookings require a security deposit of at least $300, which will be refunded within 7 days of your check-out. 3. For security measures we require all guests to provide proof of identification through ID verification on our own website. In order to check in we'll need a photo of your ID.  4. Our cancellation policy is as shown on our ad and defined by the site you are booking through.  5. Don’t let $300 go up in smoke. There's no smoking allowed in any Flatbook and a $300 fine for breaking this rule.  6. Unfortunately we don’t allow pets in any of our apartments. 7. Unless you’re staying in one of our specialty apartments, we don’t allow parties or excessive noise. 8. If we find the place very messy, we have to charge an extra $40 for every extra hour o",
52113387,Duplex w Rooftop Patio,88950166472,verified,Anna,Brooklyn,Williamsburg,40.71297,-73.95657,United States,US,True,moderate,Entire home/apt,2012,$591 ,$118 ,2,47,6/29/2019,3.24,5,2,146,This is a residential property and quiet is maintained.   Absolutely zero smoking on or near the property.  Be respectful and kind.,
52113940,Private room next to Brooklyn college,46238788799,unconfirmed,Andrew,Brooklyn,Flatlands,40.62812,-73.94664,United States,US,False,strict,Private room,2017,"$1,093 ",$219 ,1,6,3/17/2018,0.34,3,1,0,,
52114492,~Beautiful 1 Bedroom Apt in Prime Upper East Side~,6014409614,unconfirmed,Juline,Manhattan,Upper East Side,40.77207,-73.95599,United States,US,True,moderate,Entire home/apt,2007,$181 ,$36 ,60,6,7/2/2019,0.36,2,3,33,Keep the apartment clean & tidy and take care of the furnishings No smoking No  pets No parties Contact me immediately with any questions or concerns $150.00 Cleaning Fee Enjoy your stay!,
52115044,Clean room with Balcony available.,25041992447,unconfirmed,Marie Louise,Queens,Astoria,40.76645,-73.91486,United States,US,True,flexible,Private room,2012,"$1,173 ",$235 ,3,22,10/25/2018,1.28,4,1,188,This is a residential property. Quiet is important. No smoking. No pets.,
52115596,Sunnyside Bedroom,62264217014,verified,Mehmet,Queens,Sunnyside,40.74439,-73.91372,United States,US,False,moderate,Private room,2003,$611 ,$122 ,1,3,5/28/2018,0.17,4,1,0,No Smoking No Pets,
52116149,Magical 1BR Apt,9391990557,verified,Airik,Manhattan,East Harlem,40.78662,-73.94109,United States,US,False,moderate,Entire home/apt,2008,"$1,142 ",$228 ,1,4,5/19/2018,0.22,5,1,22,No Pets. No smoking. Please :),
52116701,The room,58655428185,verified,Rayshawn,Brooklyn,Flatbush,40.6322,-73.95969000000001,United States,US,True,strict,Private room,2016,$540 ,$108 ,1,0,,,3,1,0,#NAME?,
52117253,Designer’s Penthouse w/ private terrace,38696744863,verified,Autumn,Manhattan,Financial District,40.70402,-74.01572,United States,US,False,moderate,Private room,2016,"$1,144 ",$229 ,2,11,5/30/2019,0.66,3,2,58,"Clean sheets and towels will be provided.  At end of stay sheets and towels must be stripped and left on the bed. You will find the kitchen spotless when you arrive, please leave it the way you found it.  This same courtesy goes for the rest of the unit as well.  It's a real gem, thank you for helping to minimize cleaning fees and to help the next guest to enjoy it as much as you will. The furniture will be changed on Sept 14th, but will still be nicely set up. Also new screens have been installed, to avoid bugs in the early fall its best to have the Windows or screens down.  One last item is that with notice I may need to stop by / in the unit.  This would only be during the daytime, for a short duration, and would have 24 hr notice.  Thanks.  ;)",
52117806,Water View near Flushing近法拉盛海景房,54641482716,unconfirmed,Sijia,Queens,College Point,40.794270000000004,-73.84725999999999,United States,US,False,strict,Entire home/apt,2004,$687 ,$137 ,7,13,4/15/2018,0.73,2,1,0,We don't allow parties or rude guests. We have others that are living in the building. Please treat our house as you would treat yours! No smoking in the apartment please!,
52118358,Cozy Room,7349530589,verified,Nicauris,Manhattan,Harlem,40.823890000000006,-73.95014,United States,US,False,moderate,Private room,2012,$92 ,$18 ,30,5,5/31/2019,0.32,5,3,332,"Absolutely no smoking and no pets.  The place is decorated with taste, please be respectful. I will leave the place as is and expect you to live here as you are in your own home.  I will leave instructions for Cable, Wireless and some of the funky kitchen equipments.  Please enjoy coffee in the morning, make yourself lunch or diner and use utensils. ",
52118910,Large Sunny West Village Room,52217287262,verified,Rachel,Manhattan,West Village,40.73761,-73.99758,United States,US,True,strict,Private room,2004,$893 ,$179 ,1,0,,,2,1,0,,
52119463,Bed no.2 in the living room,31516266347,verified,Iris,Queens,Rego Park,40.726659999999995,-73.87004,United States,US,True,strict,Shared room,2009,$195 ,$39 ,1,13,4/2/2018,0.77,5,4,0,"Please take off your shoes when walking around in the apartment, especially in Winter.",
52120015,Light-filled 1 bdrm with 20ft ceilings,4025886846,unconfirmed,Michael,Brooklyn,Crown Heights,40.67985,-73.96276999999999,United States,US,True,flexible,Entire home/apt,2021,"$1,084 ",$217 ,5,4,8/5/2018,0.31,3,1,98,No Smoking No Pets,
52120567,McSimon's | Cozy Private Studio | Near NYC,29649753250,verified,Cynthia And Froebel,Brooklyn,Canarsie,40.63762,-73.91004000000001,United States,US,True,moderate,Entire home/apt,2012,$406 ,$81 ,3,4,1/3/2019,0.23,3,2,108,No Smoking No Pets,
52121119,Private cozy bedroom in bright and airy apartment.,55468588622,verified,Alison,Brooklyn,Bedford-Stuyvesant,40.68482,-73.93723,United States,US,False,strict,Private room,2008,"$1,175 ",$235 ,1,4,10/6/2018,0.25,2,1,84,"House Rules 1. Check-in is 4 pm local time. If the unit is ready earlier, we’ll let you know. Check-out is normally 11 am local time, but we’d be happy to extend it as long as we don’t have a cleaning scheduled. Just let us know.  2. All bookings require a security deposit of at least $300, which will be refunded within 7 days of your check-out. 3. For security measures we require all guests to provide proof of identification through ID verification on our own website. In order to check in we'll need a photo of your ID.  4. Our cancellation policy is as shown on our ad and defined by the site you are booking through.  5. Don’t let $300 go up in smoke. There's no smoking allowed in any Flatbook and a $300 fine for breaking this rule.  6. Unfortunately we don’t allow pets in any of our apartments. 7. Unless you’re staying in one of our specialty apartments, we don’t allow parties or excessive noise. 8. If we find the place very messy, we have to charge an extra $40 for every extra hour o",
52121672,Luxury Home in the Heart of Manhattan,30024486810,verified,Waj,Manhattan,Kips Bay,40.74322,-73.98005,United States,US,True,moderate,Entire home/apt,2008,$456 ,$91 ,3,19,4/5/2019,1.25,4,1,365,"Thank you for your reservation. By placing your reservation online you indicated that you accepted the terms and conditions which have been printed below.  Please review your reservation summary as below - then print, sign and return the agreement to:  (EMAIL HIDDEN) or fax it to (PHONE NUMBER HIDDEN) or  mail it to: Spare Suite, Inc., 119 Braintree Street, Suite 510, Boston, MA 02134, USA Upon receipt, we will send you the welcome document with check in instructions and how to get your keys. ------------------------------------------------------------------------ ------------------------------------------------------------------------ Terms of the Agreement: BOOKING AND REFUND POLICY Once booked your reservation is guaranteed for the check in and check out times and dates specified. All reservations must be paid in advance, in full for the entire period of stay.  All reservations are final, and NON REFUNDABLE UNDER ANY CIRCUMSTANCES.  If you feel you may need to cancel once booked, yo",
52122224,"Sunny, Private and Spacious Brooklyn Apartment",85673208794,unconfirmed,Caleb,Brooklyn,Crown Heights,40.67605,-73.95791,United States,US,True,moderate,Entire home/apt,2010,$386 ,$77 ,2,20,12/12/2018,1.17,2,1,0,,
52122776,"Cosy, Colorful, Great Bedford Stuyvesant Location",39077455547,verified,Laura,Brooklyn,Bedford-Stuyvesant,40.68567,-73.95146,United States,US,False,flexible,Entire home/apt,2022,$243 ,$49 ,1,8,11/18/2018,0.47,3,2,21,,
52123329,JFK 3 Comfort 5 Mins from JFK Private Bedroom,37748030921,verified,Nalicia,Queens,Springfield Gardens,40.66298,-73.77,United States,US,False,strict,Private room,2022,"$1,117 ",$223 ,1,302,7/6/2019,16.81,5,3,26,,
52123881,Spacious private guest room in Uptown Manhattan,82253588852,unconfirmed,Jeffer,Manhattan,Inwood,40.85925,-73.9297,United States,US,True,strict,Private room,2022,$458 ,$92 ,3,33,6/5/2019,2.05,5,1,18,,
52124433,THE LOFT,97070397123,verified,Michelle,Manhattan,Harlem,40.82881,-73.94309,United States,US,True,flexible,Shared room,2019,$747 ,$149 ,1,1,10/7/2018,0.11,3,1,90,"-  No smoking in the building, please and thanks. -  Clean up after yourself. - $100 fee for lost or non-returned keys. - No outdoor shoes in the house.  Slippers or indoor shoes are fine. -  All guests who are not registered via Air BNB must provide a photo ID and will not be admitted without the person making the reservation - One off-street parking space is available.",
52124986,"REDESIGNED 2Bdrs in PARK SLOPE,BROOKLYN !",10240441244,verified,Sophia,Brooklyn,South Slope,40.66064,-73.98564,United States,US,True,flexible,Entire home/apt,2010,$784 ,$157 ,1,67,6/26/2019,3.97,5,5,255,,
52125538,Metropolitan Brooklyn Oasis in Heart of Bed Stuy,48668303639,unconfirmed,Derick,Brooklyn,Bedford-Stuyvesant,40.68117,-73.93536999999999,United States,US,True,moderate,Entire home/apt,2008,$583 ,$117 ,3,41,6/19/2019,2.46,3,1,211,No Smoking No Pets,
52126090,Spacious 1st fl-basement duplex 20min to Times Sq!,81873492763,verified,Brad,Manhattan,Upper East Side,40.77418,-73.95326999999999,United States,US,True,flexible,Entire home/apt,2015,$351 ,$70 ,7,10,12/30/2018,0.66,3,1,0,,
52126642,"Brand new, sunlit apartment next to Prospect Park",63153724428,unconfirmed,Simone,Brooklyn,Flatbush,40.65217,-73.95974,United States,US,False,moderate,Private room,2021,$658 ,$132 ,2,7,3/31/2018,0.4,2,1,0,"Please understand that this is an apartment building and be mindful of other tenants during your stay. Feel free to use window A/C units but please turn off whenever you leave the apartment. 2 guests maximum; extra $25 per additional adult.  (We can chat about kids) Help yourself to any non-alcoholic beverages (water, coffee. tea, milk etc) but please do not eat any food or drink any alcoholic beverages not explicitly left for you.   Please place all dirty towels and sheets in the laundry basket by the bedroom door upon vacating. Please leave all keys back in the lockbox outside upon vacating.",
52127195,Artist Loft.Good Energy.Big Space With Fire Place!,66338699946,verified,Mari,Manhattan,NoHo,40.7275,-73.99168,United States,US,True,moderate,Entire home/apt,2019,$377 ,$75 ,2,42,6/7/2019,2.45,5,1,70,,
52127747,Private Apartment for Discerning Travelers,47102981253,unconfirmed,Motonobu,Manhattan,Harlem,40.812459999999994,-73.95161,United States,US,False,moderate,Entire home/apt,2008,$476 ,$95 ,4,18,4/20/2019,1.05,3,1,0,,
52128299,"Peaceful, Sunlit Haven with Full sized Bed",739192813,unconfirmed,Jean,Brooklyn,Crown Heights,40.67593,-73.94966,United States,US,True,strict,Private room,2005,$870 ,$174 ,3,0,,,4,2,0,No smoking and no pets. No parties. Names and ages of all guests is required for booking.,
52128852,Private Apartment in Chelsea,81918771978,verified,Ethan,Manhattan,Chelsea,40.739509999999996,-73.99979,United States,US,True,strict,Entire home/apt,2016,$374 ,$75 ,1,4,2/25/2018,0.24,4,1,0,"Hello! You will be sharing the apartment in a private room with my roommate and our very friendly dog. Also, the door to the room is a curtain, not a full door, so it is less private. Please understand this situation before booking. We have had dozens of other guests who have all had a great time!",
52129404,"Brooklynite Room, 10 mins to Williamsburg/LES/City",26349449055,unconfirmed,Roberto,Brooklyn,Bedford-Stuyvesant,40.69251,-73.9301,United States,US,False,flexible,Private room,2006,"$1,120 ",$224 ,1,5,9/1/2018,0.46,5,3,59,"House Rules include no smoking, no illegal drugs, no pets, no entertaining others. Please be respectful of your wonderful neighbors while in the apartment.",
52129956,Huge  Private Garden Apt - Memory Foam Mattress,50741130646,verified,Matt,Brooklyn,Bushwick,40.69124,-73.90236,United States,US,False,moderate,Private room,2006,$894 ,$179 ,14,6,6/27/2019,0.35,3,2,319,"The building is a quiet place and people enjoy peaceful and relaxing stays.  We encourage consideration of others and it is the norm.  Check in is at 4 pm, and check out at 11 am.   When possible we will offer modifications with advanced notice.  There is a laundry available for use on the top floor and we ask that it not be used after 11 pm or before 8 am.  We ask that guests do not wear shoes in the apartment, and provide shoe covers for guests that feel more comfortable with shoes. There is absolutely no smoking on premises.  Trash is picked up by the City on Tuesday and Friday mornings and can be put out at 5 pm on the night before.  Recycling is picked up on Tuesdays, only, and has to be put out in clear plastic bags.  We can not permit residents to bring bicycles in the building.  ",
52130509,"Cozy Design House: Sunny, spacious, 3 bdr getaway",351473048,unconfirmed,Joel,Brooklyn,Bushwick,40.7,-73.91714,United States,US,False,flexible,Entire home/apt,2004,"$1,118 ",$224 ,1,45,6/17/2019,2.56,5,1,96,No Smoking No Pets,
52131061,Zen 1 bedroom near Central Park+MET+Guggenheim,27121688887,verified,Christopher,Manhattan,Upper East Side,40.778620000000004,-73.94561999999999,United States,US,True,strict,Entire home/apt,2006,$517 ,$103 ,14,6,6/12/2019,1.94,3,1,0,No Smoking No Pets,
52131613,Bright spacious Studio overlooking Manhattan,5274311161,verified,Mayra,Manhattan,Midtown,40.75241,-73.98558,United States,US,True,flexible,Entire home/apt,2020,"$1,059 ",$212 ,180,3,1/31/2019,0.42,5,1,299,"No pets, no smoking whatsoever, no loud parties. Our building is home to some families with young children, some older folks, and many doctors who work long hours at the local hospitals, so quiet and respect are of utmost importance.",
52132165,Heart of new york city modern apt,8626905170,verified,Skander,Manhattan,Hell's Kitchen,40.75497,-73.99788000000001,United States,US,False,flexible,Entire home/apt,2021,"$1,119 ",$224 ,2,2,5/26/2018,0.14,2,1,0,"Guests need to understand that this is a private home, not a hotel.  Arrival and departure times are flexible with the owner's schedule. ",
52132718,Spacious Sun-filled Room in Brooklyn,26349393626,verified,Emily,Brooklyn,Crown Heights,40.67508,-73.92269,United States,US,False,strict,Private room,2004,$966 ,$193 ,3,8,11/30/2018,0.55,5,1,0,No Smoking No Pets,
52133270,1 ROOM IN 2 BEDROOM APT DOORMAN BLDG WITH ELEVATOR,19322190359,unconfirmed,Marie,Manhattan,Washington Heights,40.8485,-73.93509,United States,US,True,moderate,Private room,2009,"$1,024 ",$205 ,1,46,6/25/2019,2.73,4,1,21,,
52133822,Gramercy Apartment,7708456574,unconfirmed,Janan,Manhattan,Kips Bay,40.74252,-73.9798,United States,US,True,moderate,Entire home/apt,2021,$925 ,$185 ,2,0,,,2,1,0,"**The building has 5 units in total and all other units are occupied by year-round young professionals who work at the local hospitals, law firms, consulting companies or even dance at the Boston Ballet! Please be mindful of them and act as you would with your year-round neighbors. You know, keeping it quiet, clean and pleasant to you and all else! **The kitchen is fully equipped with top of the line items, but please maintain it a vegetarian kitchen if you choose to cook, so that our kosher friends can enjoy the apartment as well. You may bring in non-vegetarian takeout from Wholefoods or one of the great restaurants around, we will have plenty of plastic/paper utensils and plates for your convenience. **Absolutely NO SMOKING, of any kind, in the apartment or the building's stoop. There is a garden with benches a few buildings down if you must have a smoke.",
52134375,Howard Johnson JFK NYC,76889952686,verified,Danlin,Queens,Jamaica,40.66745,-73.78156,United States,US,False,strict,Private room,2004,$391 ,$78 ,1,4,8/7/2018,0.27,5,1,365,"No smoking, no very late nights, no pets or and crooks allowed. Respectable guests only. In a family neighborhood and building.",
52134927,Room with high ceilings in South Slope,13702283491,verified,Stephanie,Brooklyn,Windsor Terrace,40.65892,-73.98385999999999,United States,US,True,strict,Private room,2019,$215 ,$43 ,2,26,6/23/2019,1.6,4,1,74,No pets. No smoking. Please :),
52135479,Newly Renovated Studio Apartment,56704353037,unconfirmed,Paul,Manhattan,Tribeca,40.7118,-74.0083,United States,US,False,flexible,Entire home/apt,2010,$348 ,$70 ,30,1,8/11/2018,0.09,5,1,328,No pets. No smoking. ,
52136032,4BR Queens Apartment -30 Mins from Manhattan!,5027735338,unconfirmed,Evolve,Queens,Springfield Gardens,40.666579999999996,-73.76581,United States,US,False,flexible,Entire home/apt,2013,"$1,131 ",$226 ,2,4,7/22/2018,0.26,2,2,0,"No smoking in the apartment, in the foyer or outside the building at any time. No pets. No parties.",
52136584,Spacious 2BR/2BTH/& Parking| Close to Everything!,10243147067,unconfirmed,Dalton,Brooklyn,East New York,40.66337,-73.88036,United States,US,True,moderate,Entire home/apt,2007,$204 ,$41 ,5,55,6/24/2019,3.31,5,1,139,"No smoking, no pets",
52137136,2 bedroom in a prewar building,71686523305,unconfirmed,Thikshan,Manhattan,Gramercy,40.73684,-73.98156999999999,United States,US,True,moderate,Entire home/apt,2019,$315 ,$63 ,2,20,5/7/2019,1.17,2,3,20,,
52137688,Marco's place,12907699145,unconfirmed,Marcus,Queens,Richmond Hill,40.703790000000005,-73.8187,United States,US,True,moderate,Private room,2012,$171 ,$34 ,7,14,6/24/2019,1.03,4,1,93,"- The apartment is 3 levels - the 2nd, 3rd, and 4th floors of the house. We kindly ask that guests only utilize the space available on the 3rd and 4th floor (+ roof deck).",
52138241,My Casa es su Casa!,13260910194,verified,Rosa,Bronx,Mott Haven,40.809059999999995,-73.92031,United States,US,True,flexible,Entire home/apt,2009,"$1,112 ",$222 ,1,9,6/30/2019,0.72,4,1,168,No Pets. No Smoking. ,
52138793,HUGE Bushwick Room with TERRACE & Pool,14579327686,verified,Noelle,Brooklyn,Bushwick,40.70262,-73.91679,United States,US,True,flexible,Private room,2005,$547 ,$109 ,2,4,8/31/2018,0.36,4,2,0,,
52139345,XL BUSHWICK DREAM STUDIO BR IN DUPLEX BY TRAIN!,48952442420,verified,Jewel,Brooklyn,Bushwick,40.69062,-73.92079,United States,US,False,strict,Private room,2009,$109 ,$22 ,3,0,,,3,1,0,,
52139898,Charming & Bright East Village One Bedroom,896461382,unconfirmed,April,Manhattan,East Village,40.724059999999994,-73.98275,United States,US,False,strict,Entire home/apt,2005,$508 ,$102 ,3,2,7/8/2018,0.15,4,1,0,,
52140450,Private bedroom in Gorgeous Brooklyn Apartment!,73767574662,verified,Cesar,Brooklyn,Crown Heights,40.67582,-73.94054,United States,US,True,flexible,Private room,2020,$659 ,$132 ,1,5,1/2/2019,0.53,5,1,0,No Smoking No Pets,
52141002,"Bedroom 14x16ft, shared bathroom, 5 mins to subway",23963176616,unconfirmed,Lucky,Queens,Woodside,40.74211,-73.89067,United States,US,True,flexible,Private room,2010,$825 ,$165 ,1,7,9/21/2018,0.41,2,1,0,"There is no smoking and no pets allowed in the apartment. Please leave the apartment as you found it (dishes in the dishwasher, living room & kitchen tidy)",
52141555,Bergen Street by (Hidden by Airbnb),470620826,verified,Sally,Brooklyn,Prospect Heights,40.67862,-73.97065,United States,US,False,flexible,Entire home/apt,2012,"$1,016 ",$203 ,1,0,,,2,12,14,I want you to enjoy your stay!!  Please try not to break anything and also try not to make a mess that I'll have to pay a maid to clean.  Many people charge upwards of $100 a stay for a cleaning fee and I don't think that's fair to tack that on at the end so that's why I don't charge a cleaning fee.  Please note that I also don't clean up after you or clean in your space while you're here.,
52142107,East 72nd Townhouse by (Hidden by Airbnb),60145814781,unconfirmed,Sally,Manhattan,Upper East Side,40.768240000000006,-73.95989,United States,US,False,flexible,Entire home/apt,2019,$395 ,$79 ,1,0,,,3,12,146,,
52142659,East 7th Street III by (Hidden by Airbnb),11670465788,verified,Sally,Manhattan,East Village,40.72779,-73.98644,United States,US,True,moderate,Entire home/apt,2010,$425 ,$85 ,1,0,,,3,12,215,"House Rules 1. Check-in is 4 pm local time. If the unit is ready earlier, we’ll let you know. Check-out is normally 11 am local time, but we’d be happy to extend it as long as we don’t have a cleaning scheduled. Just let us know.  2. All bookings require a security deposit of at least $300, which will be refunded within 7 days of your check-out. 3. For security measures we require all guests to provide proof of identification through ID verification on our own website. In order to check in we'll need a photo of your ID.  4. Our cancellation policy is as shown on our ad and defined by the site you are booking through.  5. Don’t let $300 go up in smoke. There's no smoking allowed in any Flatbook and a $300 fine for breaking this rule.  6. Unfortunately we don’t allow pets in any of our apartments. 7. Unless you’re staying in one of our specialty apartments, we don’t allow parties or excessive noise. 8. If we find the place very messy, we have to charge an extra $40 for every extra hour o",
52143211,Park Avenue Mansion by (Hidden by Airbnb),88066548855,unconfirmed,Sally,Manhattan,Upper East Side,40.78517,-73.9527,United States,US,False,flexible,Entire home/apt,2004,$769 ,$154 ,1,0,,,4,12,45,,
52143764,Park Place Townhouse by (Hidden by Airbnb),70252329298,verified,Sally,Brooklyn,Park Slope,40.67859,-73.97787,United States,US,False,flexible,Entire home/apt,2007,"$1,167 ",$233 ,1,0,,,4,12,31,"Have fun, but please be respectful of your neighbors with volume. Any noise complaints will will be forwarded to me and result in a negative review and requirement to leave the next day.",
52144316,Prospect Place by (Hidden by Airbnb),77878409571,unconfirmed,Sally,Brooklyn,Prospect Heights,40.678290000000004,-73.96899,United States,US,True,moderate,Entire home/apt,2010,$444 ,$89 ,1,0,,,3,12,20,No pets. No smoking. Please :),
52144868,Free bottle of wine with stay!,79503797584,unconfirmed,Sarah,Manhattan,Chelsea,40.73686,-73.99171,United States,US,True,moderate,Entire home/apt,2008,$584 ,$117 ,1,0,,,3,1,0,"“House Rules""   Checkout is by 11am.   At least one person in the apartment must be verified by Airbnb.   Please do not rent an apartment for your friends or extended family No overnight guests.  Even with prior permission, an extra charge of $100 per person per night will be added to your rent.   Boston and the south end are very conscious of overcrowding, (i.e. two families with kids sharing a two bedroom apartment, or three students per bedroom are examples of violations of Boston's occupancy ordinances) NO MORE THAN 4 PEOPLE s.v.p.  Soft soled shoes or socks.The apartments have oak floors, and although there's a lot of soundproofing, footfall can be uncomfortable for other tenants.   Please wear soft sole shoes or socks.   Also keep Direct TV,  Blu Ray DVD and music at a reasonable level between 8am and 10PM and very quiet or headphones after 10 pm.   The apartment is completely private ... your own entrances and exits.    The laundry room ($1.75 per wash and $1.75 per wash takes q",
52145421,BED-STUY BEAUTY W/ Private Entry & Private Garden,75043925818,verified,Jaran,Brooklyn,Bedford-Stuyvesant,40.685179999999995,-73.94283,United States,US,True,flexible,Entire home/apt,2010,$96 ,$19 ,2,61,6/30/2019,3.47,4,3,250,"I expect my home to be treated as any mature adult would treat the home of a respected friend or family member. While the space is to be enjoyed-- there are artworks, antiques, books, electronics and more that need be viewed/handled thoughtfully (i.e. use a coaster when putting a glass on wood tables, etc.) The fireplace, outdoor grill, and washer/dryer are not to be used.  There is no smoking allowed (this includes on the back deck).  Any special check-in and check-out times should be discussed with host. All efforts will be made to accommodate visitor travel schedules.",
52145973,(AC) 4 ppl - 2 Rooms 1 private and 1 sharing bath,39173109490,unconfirmed,Wilson,Queens,Flushing,40.772529999999996,-73.82467,United States,US,False,flexible,Private room,2013,$314 ,$63 ,2,14,5/20/2019,0.81,5,7,57,"House Rules 1. Check-in is 4 pm local time. If the unit is ready earlier, we’ll let you know. Check-out is normally 11 am local time, but we’d be happy to extend it as long as we don’t have a cleaning scheduled. Just let us know.  2. All bookings require a security deposit of at least $300, which will be refunded within 7 days of your check-out. 3. For security measures we require all guests to provide proof of identification through ID verification on our own website. In order to check in we'll need a photo of your ID.  4. Our cancellation policy is as shown on our ad and defined by the site you are booking through.  5. Don’t let $300 go up in smoke. There's no smoking allowed in any Flatbook and a $300 fine for breaking this rule.  6. Unfortunately we don’t allow pets in any of our apartments. 7. Unless you’re staying in one of our specialty apartments, we don’t allow parties or excessive noise. 8. If we find the place very messy, we have to charge an extra $40 for every extra hour o",
52146525,"Luxurious, Modern Studio in Heart of Chelsea, NY",31273752237,unconfirmed,Maddi,Manhattan,Chelsea,40.743759999999995,-73.99313000000001,United States,US,True,moderate,Entire home/apt,2009,"$1,018 ",$204 ,1,9,6/9/2019,1.79,2,1,13,"Shoes off at the door. Whatever you do, clean up after yourself. Be courteous to my neighbors. Avoid activities inside the building at strange hours.  Big smile and loud greetings for extra points.",
52147078,"Newly Refurbished MIDTOWN Condo, PRIVATE BATHROOM",42281947561,unconfirmed,Rolland,Manhattan,Midtown,40.75721,-73.96813,United States,US,False,moderate,Private room,2022,"$1,168 ",$234 ,1,18,7/30/2018,1.01,2,1,0,"We require a signed lease as soon as we accept your request. No smoking, no pets, no parties. We strive to maintain a quiet, professional community. Two week minimum stay. Two occupants maximum per apartment. No Sunday checkins and no check in after 6:30 pm",
52147630,Private room in colorful Brooklyn neighborhood,36447885998,unconfirmed,Herman,Brooklyn,Williamsburg,40.70283,-73.93788,United States,US,True,moderate,Private room,2020,$220 ,$44 ,3,32,6/8/2019,1.85,3,1,36,"Thank you for your reservation. By placing your reservation online you indicated that you accepted the terms and conditions which have been printed below.  Please review your reservation summary as below - then print, sign and return the agreement to:  (EMAIL HIDDEN) or fax it to (PHONE NUMBER HIDDEN) or  mail it to: Spare Suite, Inc., 119 Braintree Street, Suite 510, Boston, MA 02134, USA Upon receipt, we will send you the welcome document with check in instructions and how to get your keys. ------------------------------------------------------------------------ ------------------------------------------------------------------------ Terms of the Agreement: BOOKING AND REFUND POLICY Once booked your reservation is guaranteed for the check in and check out times and dates specified. All reservations must be paid in advance, in full for the entire period of stay.  All reservations are final, and NON REFUNDABLE UNDER ANY CIRCUMSTANCES.  If you feel you may need to cancel once booked, yo",
52148182,Stunning view in TriBeCa luxury 2 bedrooms,76942318264,unconfirmed,Chrystele,Manhattan,Battery Park City,40.7152,-74.01368000000001,United States,US,True,flexible,Entire home/apt,2020,"$1,052 ",$210 ,3,0,,,4,1,0,No Smoking Be courteous to neighbors No pets,
52148734,Cozy and Newly Renovated Brooklyn Brownstone,51113363696,unconfirmed,Chris,Brooklyn,Bedford-Stuyvesant,40.689170000000004,-73.94937,United States,US,True,moderate,Private room,2007,"$1,184 ",$237 ,2,0,,,2,1,0,,
52149287,"GREAT BEDROOM (IN 2 BRS APT)
EXCELLENT LOCATION!!",8211735155,verified,Tsvika,Manhattan,Upper East Side,40.78096,-73.95411999999999,United States,US,True,moderate,Private room,2003,"$1,128 ",$226 ,2,88,7/6/2019,5.69,4,1,107,,
52149839,Bright and Beautiful Artists’ Haven,52732183872,verified,Maresa,Queens,Ridgewood,40.70228,-73.90097,United States,US,True,moderate,Private room,2022,"$1,089 ",$218 ,1,4,6/2/2019,2.26,4,1,1,#NAME?,
52150391,3 Bedroom/4 Beds @ Ferry. Sleeps 7. Beautiful!,64603745821,verified,Dine,Staten Island,St. George,40.64581,-74.07949,United States,US,True,flexible,Entire home/apt,2012,$762 ,$152 ,4,0,,,3,6,0,No smoking. No pets.  No parties without prior approval.  Names and ages of all guests is required for booking.,
52150944,"Spacious Room in Prime Prospect Heights, Brooklyn",97969385266,unconfirmed,Tom,Brooklyn,Prospect Heights,40.674040000000005,-73.96395,United States,US,True,flexible,Private room,2006,$743 ,$149 ,4,16,6/21/2019,0.95,5,1,300,"Act like you own the place... which is to say, make yourself at home but also treat it like you would if you owned it. This is our home so we trust and hope that you will treat it like yours.",
52151496,Cosy bedroom,54319702461,verified,Rusty,Brooklyn,Williamsburg,40.712140000000005,-73.94423,United States,US,False,flexible,Private room,2021,$119 ,$24 ,2,15,5/21/2019,0.97,2,1,0,No smoking please and no running of the washer/dryer after 8:00 P.M.  Thanks No pets ,
52152048,Sunny park-view room in Harlem brownstone,53471625845,verified,Judie And Steven,Manhattan,Harlem,40.81899,-73.94714,United States,US,True,strict,Private room,2020,$823 ,$165 ,30,11,1/17/2019,0.79,4,4,257,No Smoking No Pets,
52152601,Gorgeous Daylight Photo Studio in Chelsea,82981490103,unconfirmed,Kevin,Manhattan,Chelsea,40.74881,-74.00473000000001,United States,US,False,flexible,Entire home/apt,2016,$177 ,$35 ,1,0,,,2,6,0,"--The building has 5 units in total and all other units are occupied by year-round young professionals who work at the local hospitals, law firms, consulting companies and University professors.  Please be mindful of them and act as you would with your year-round neighbors. Please keep quiet, clean and respectful at all hours. --Absolutely NO SMOKING, of any kind, in the apartment or the building's stoop. There is a park with benches across the street if you must have a smoke.",
52153153,Habitacion de renta para 2,13966721601,verified,Jennifer,Bronx,Norwood,40.88007,-73.87326,United States,US,True,strict,Private room,2015,$110 ,$22 ,5,4,6/17/2019,0.26,4,2,324,"Please no parties, guests, and loud noise past 11p out of respect for neighbors and my roommates. Please no smoking inside the building. If you cook or otherwise eat in the apartment, please reasonably clean up after yourself.",
52153705,Gorgeous natural light in Chelsea photo studio,49124076047,unconfirmed,Kevin,Manhattan,Chelsea,40.750209999999996,-74.00479,United States,US,True,moderate,Entire home/apt,2005,"$1,094 ",$219 ,1,0,,,2,6,0,Please tidy up and leave place clean. Dishes are to be placed in dishwasher and cleaned. Laundry to be placed in washer and turned on before leaving.,
52154257,room 3 Manhattan private room,31761100527,unconfirmed,Eliahu,Manhattan,Harlem,40.813759999999995,-73.95354,United States,US,True,moderate,Private room,2010,$614 ,$123 ,2,4,10/28/2018,0.29,4,11,180,Quiet building,
52154810,room 2 Manhattan private room,83152877343,verified,Eliahu,Manhattan,Harlem,40.81236,-73.95204,United States,US,False,flexible,Private room,2011,$300 ,$60 ,1,4,8/23/2018,0.29,5,11,365,Sorry No Smoking  Sorry No Pets This is an elegant property for those who appreciate a quiet environment. Our property has no elevator and because of its historic nature is not Handicap Accessible.,
