id,NAME,host id,host_identity_verified,host name,neighbourhood group,neighbourhood,lat,long,country,country code,instant_bookable,cancellation_policy,room type,Construction year,price,service fee,minimum nights,number of reviews,last review,reviews per month,review rate number,calculated host listings count,availability 365,house_rules,license
18067406,Room in Greenpoint w/ private balcony and bathroom,56986656987,unconfirmed,Rebecca,Brooklyn,Greenpoint,40.72977,-73.95125,United States,US,False,moderate,Private room,2020,$470 ,,1,9,6/4/2019,3.42,4,2,54,"Please remember that this is a residential building. The building rules, apartment occupancy restrictions and the year-round tenants must be respected.  Parties and smoking are not allowed under any circumstances and incur significant fees. Pets may be considered with pre-approval and an additional pet fee.",
18067958,"Quiet, Sunny Bedroom in Lefferts Gardens",98476661565,unconfirmed,Edna,Brooklyn,East Flatbush,40.65381,-73.94893,United States,US,False,moderate,Private room,2005,$835 ,,3,19,6/28/2019,2.38,4,2,12,,
18068511,Bright & airy uptown sanctuary,63902252345,unconfirmed,Ashley,Manhattan,Inwood,40.868159999999996,-73.93131,United States,US,True,flexible,Entire home/apt,2011,"$1,133 ",,1,3,6/16/2019,0.22,4,1,5,No smoking in house.  No parties.  Please be courteous and respectful to our neighbors.  Please leave the apartment in the same clean condition that you found it. Have a great time in Boston and come home to Fenway!,
18069063,Cozy private room / Williamsburg / L train,96046104365,unconfirmed,Sergii,Brooklyn,Greenpoint,40.720290000000006,-73.94,United States,US,False,moderate,Private room,2018,$699 ,,30,1,3/31/2019,0.3,4,10,341,Absolutely no smoking and no pets,
18069615,Times Square+Central Park Luxury Room,44064746693,unconfirmed,Abbie,Manhattan,Hell's Kitchen,40.7653,-73.98737,United States,US,True,flexible,Private room,2004,$577 ,,3,42,6/27/2019,2.71,2,1,286,No shoes in the bedroom and in the bathroom please!,
18070168,Room 5 - Quiet Retreat in Historic Victorian Home,19753309701,verified,Elizabeth,Brooklyn,Flatbush,40.64293,-73.96863,United States,US,False,flexible,Private room,2003,$297 ,,2,51,6/27/2019,3.29,5,6,176,,
18070720,"Sun-filled, Mod 3BR Apt Steps from Prospect Park",20975749709,unconfirmed,Jenna,Brooklyn,Flatbush,40.64866,-73.96986,United States,US,True,flexible,Entire home/apt,2017,$617 ,$123 ,3,52,6/29/2019,3.58,3,3,222,,
18071272,1BR in Downtown Brooklyn,50279790477,verified,Salem,Brooklyn,Downtown Brooklyn,40.69177,-73.98549,United States,US,True,moderate,Entire home/apt,2022,$71 ,$14 ,3,0,,,3,1,0,"- This is a quiet, residential building. Guest need to be conscious of this. - Hostess must know your arrival time at least 2 days in advance",
18071824,Charming Williamsburg Weekend Getaway,29701585790,verified,Shannon,Brooklyn,Williamsburg,40.71201,-73.96048,United States,US,True,moderate,Entire home/apt,2012,$939 ,$188 ,4,0,,,5,1,0,#NAME?,
18072377,"Room #2 Near JFK airport, Race-Track, Casino.",83695941007,unconfirmed,Gregorio,Queens,South Ozone Park,40.67393,-73.82003,United States,US,True,moderate,Private room,2016,$580 ,$116 ,1,124,6/19/2019,7.98,3,3,160,- We are young professionals who like to keep our home neat and quiet. We'll likely be working from home at times during your stay and we ask you to respect us the same way we'll respect you. No shoes from outside worn inside the house (indoor shoes are okay). No smoking. No pets.,
18072929,Sunny artist bedroom in Bedstuy,25830636591,verified,Jessica,Brooklyn,Bedford-Stuyvesant,40.68977,-73.93773,United States,US,False,flexible,Private room,2022,$648 ,$130 ,2,7,7/23/2018,0.46,4,1,0,,
18073481,BRAND NEW PRIVATE STUDIO 5 BLOCKS TO CENTRAL PARK!,15263384511,unconfirmed,Laila,Manhattan,Upper East Side,40.77172,-73.95427,United States,US,False,strict,Entire home/apt,2008,"$1,193 ",$239 ,30,5,5/14/2019,0.34,2,3,283,,
18074034,"Bright and cozy room. Midwood, Brooklyn.",41598069419,verified,Andrew,Brooklyn,Midwood,40.62399,-73.96324,United States,US,False,strict,Private room,2008,$528 ,$106 ,2,0,,,4,2,0,"Please remember that this is a residential building. The building rules, apartment occupancy restrictions and the year-round tenants must be respected.  Parties and smoking are not allowed under any circumstances and incur significant fees. Pets may be considered with pre-approval and an additional pet fee.",
18074586,"Bushwick Room w Private Bath, 1 Block to Subway",72225347414,verified,Michelle,Brooklyn,Bushwick,40.700720000000004,-73.91359,United States,US,True,moderate,Private room,2013,$951 ,$190 ,3,50,5/18/2019,3.33,2,1,85,No smoking No pets We don't charge a cleaning fee - guests are expected to contribute to light cleaning and maintenance for comfort of guests after them!,
18075138,Modern home at excellent location,45725119882,verified,Cindy,Manhattan,Upper East Side,40.759170000000005,-73.95916,United States,US,True,flexible,Entire home/apt,2019,$919 ,$184 ,1,55,6/23/2019,3.59,4,1,123,,
18075691,Cozy Studio Apartment,55733875449,unconfirmed,Endazsia,Brooklyn,Bedford-Stuyvesant,40.68246,-73.94861,United States,US,False,strict,Entire home/apt,2019,$873 ,$175 ,1,21,6/21/2019,1.75,3,2,0,,
18076243,Modern Brooklyn Luxury 1 Bedroom,61217167991,unconfirmed,Kristen,Brooklyn,Boerum Hill,40.68417,-73.98215,United States,US,False,flexible,Entire home/apt,2004,$266 ,$53 ,1,3,5/10/2018,0.2,5,1,0,,
18076795,East Village Celebrity Townhouse,57980338320,unconfirmed,Patti,Manhattan,East Village,40.7235,-73.98534000000001,United States,US,True,moderate,Entire home/apt,2012,$983 ,$197 ,3,55,7/4/2019,3.5,5,1,37,,
18077347,Spacious Studio with Private Patio in Greenwood!,78300921389,verified,Stephanie,Brooklyn,Sunset Park,40.66169,-73.9979,United States,US,False,strict,Entire home/apt,2020,$790 ,$158 ,5,56,6/29/2019,3.78,3,3,10,"- This is a quiet, residential building. Guest need to be conscious of this. - Host must know arrival time.  No arrivals after 10 pm",
18077900,Big Bright 1BR Apt in the Heart of Brooklyn!,22042162116,verified,Aleksandra,Brooklyn,Midwood,40.62923,-73.95746,United States,US,True,moderate,Entire home/apt,2003,$607 ,$121 ,2,19,1/9/2019,1.23,2,1,165,#NAME?,
18078452,Lavish Private room w/ Private Bath in upper east,83384058983,unconfirmed,Gio,Manhattan,Upper East Side,40.77519,-73.95153,United States,US,True,flexible,Private room,2022,$450 ,$90 ,1,67,5/27/2019,4.29,5,4,0,,
18079004,Entire apt in Manhattan. 15 mins to Times Square!,77288102631,verified,Peiyi,Manhattan,East Harlem,40.80942,-73.93701,United States,US,False,moderate,Entire home/apt,2020,$690 ,$138 ,3,118,6/23/2019,8.06,4,1,4,#NAME?,
18079557,Best Place to stay,7862889425,unconfirmed,Maria,Bronx,Longwood,40.82434,-73.88705,United States,US,True,moderate,Private room,2007,$888 ,$178 ,20,0,,,2,2,0,,
18080109,Sunny Harlem room: Ideal sublet for summer intern,80808458618,verified,Lucy,Manhattan,Harlem,40.80731,-73.95155,United States,US,True,strict,Private room,2006,"$1,178 ",$236 ,2,2,8/11/2018,0.15,2,1,1,,
18080661,Sunny East Village 3/2 Apt in Prime Location!,94301150482,verified,P,Manhattan,East Village,40.72574,-73.98272,United States,US,True,strict,Entire home/apt,2011,$443 ,$89 ,5,70,6/2/2019,4.49,5,3,6,,
18081214,Bright room in sunny Prime Williamsburg pad.,54564321270,unconfirmed,Carlos,Brooklyn,Williamsburg,40.71622,-73.95364000000001,United States,US,False,strict,Private room,2013,"$1,061 ",$212 ,1,13,9/6/2018,0.93,3,2,0,No smoking inside No parties  No additional guests without approval  Please be respectful and clean,
18081766,Water views in two directions,86317102517,unconfirmed,C.,Manhattan,Battery Park City,40.70902,-74.01686,United States,US,False,flexible,Entire home/apt,2014,$969 ,$194 ,75,0,,,3,1,55,,
18082318,Kiki’s Place!,15649990953,unconfirmed,Sage,Brooklyn,Bushwick,40.69603,-73.92537,United States,US,False,moderate,Entire home/apt,2012,$874 ,$175 ,2,2,6/25/2019,2.0,3,1,32,,
18082870,Cozy Corner,76505585035,verified,Marlyn,Brooklyn,Canarsie,40.638059999999996,-73.90024,United States,US,False,strict,Private room,2014,$934 ,$187 ,2,16,5/29/2019,1.24,4,3,346,#NAME?,
18083423,The perfect williamsburg-greenpoint location,77893074509,verified,Eric,Brooklyn,Greenpoint,40.725809999999996,-73.95376,United States,US,False,moderate,Entire home/apt,2008,$487 ,$97 ,5,0,,,5,2,0,No smoking  No pets College student at Berklee college of music. Please treat the house belongings as if they were your own.  Be comfortable and respectful.,
18083975,Cozy room in friendly Bed-Stuy apartment,16999760241,unconfirmed,Katharina,Brooklyn,Bedford-Stuyvesant,40.68437,-73.93518,United States,US,True,flexible,Private room,2006,$439 ,$88 ,6,2,10/15/2018,0.15,2,1,0,,
18084527,Private Room in Bklyn Brownstone; 20 mins to NYC!,23974869210,unconfirmed,Carol,Brooklyn,Crown Heights,40.66685,-73.93828,United States,US,False,flexible,Private room,2003,"$1,076 ",$215 ,2,26,6/13/2019,1.68,5,1,79,"Please remember that this is a residential building. The building rules, apartment occupancy restrictions and the year-round tenants must be respected.  Parties and smoking are not allowed under any circumstances and incur significant fees. Pets may be considered with pre-approval and an additional pet fee.",
18085080,The Nile River,85559406749,verified,Killa,Brooklyn,Bedford-Stuyvesant,40.67841,-73.94353000000001,United States,US,False,flexible,Entire home/apt,2018,$870 ,$174 ,5,7,5/29/2019,0.65,4,1,35,"Please remember that this is a residential building. The building rules, apartment occupancy restrictions and the year-round tenants must be respected.  Parties, pets and smoking are not allowed under any circumstances and incur significant fees.",
18085632,Beautiful red-brick bedroom in prime East Village,56567453071,unconfirmed,Steven,Manhattan,East Village,40.72507,-73.9827,United States,US,True,strict,Private room,2015,,$113 ,3,45,7/2/2019,3.53,5,3,6,,
18086184,Home away from home,26355901607,unconfirmed,Ketia,Brooklyn,Canarsie,40.63382,-73.90502,United States,US,False,moderate,Entire home/apt,2020,,$41 ,1,82,7/5/2019,6.97,4,1,302,"Please be respectful in our home. Feel free to use the kitchen, cups, plates, appliances, or make some tea or coffee. Please wash dishes when you're done using them, or load them into the dishwasher (no need to run the dishwasher if it isn't full). Quiet hours in our building are from 10pm-8am. No smoking in the building. Cats are allowed! If you are planning on staying Sunday night into Monday morning, please note that checkout must be at 8am (or earlier).",
18086737,Private Bedroom-Upper East Side-Central Park,22628157106,unconfirmed,Samet,Manhattan,Upper East Side,40.765159999999995,-73.95841,United States,US,True,strict,Private room,2008,,$121 ,1,23,1/28/2019,1.46,3,5,0,,
18087289,Upper East Side Cozy Room!!!,38738160585,verified,Johnny,Manhattan,East Harlem,40.78771,-73.95143,United States,US,True,moderate,Private room,2010,"$1,115 ",$223 ,2,73,6/25/2019,4.69,4,1,260,"Please remember that this is a residential building. The building rules, apartment occupancy restrictions and the year-round tenants must be respected.  Parties, pets and smoking are not allowed under any circumstances and incur significant fees. ",
18087841,Enough space for couple:),13485165337,verified,Crispy,Queens,Maspeth,40.73273,-73.89357,United States,US,True,strict,Private room,2017,"$1,009 ",$202 ,3,15,12/7/2018,1.03,2,3,163,"Our neighbors are easy going but also relatively quiet, so if you can keep that vibe, all will be well. Also, please no smoking, and absolutely no pets.",
18088393,Cleo's Royale,61199886869,unconfirmed,Adeola,Manhattan,Inwood,40.86058,-73.9274,United States,US,True,flexible,Private room,2012,$513 ,$103 ,5,5,5/24/2019,0.41,4,2,90,"Please remember that this is a residential building. The building rules, apartment occupancy restrictions and the year-round tenants must be respected.  Parties and smoking are not allowed under any circumstances and incur significant fees. Pets may be considered with pre-approval and an additional pet fee.",
18088946,Private Room in Astoria 15 mins to Manhattan / LGA,38195495669,unconfirmed,Rafael,Queens,Astoria,40.76801,-73.92673,United States,US,True,strict,Private room,2013,"$1,163 ",$233 ,1,40,6/29/2019,2.61,3,2,48,,
18089498,Comfort & Convenience in the middle of NYC!,90874238073,verified,Tanya & Mirjan,Manhattan,Upper West Side,40.802279999999996,-73.96334,United States,US,True,moderate,Private room,2020,"$1,044 ",$209 ,2,70,6/24/2019,4.6,5,1,1,,
18090050,Private Sunny Apartment on the Upper East Side,98665520091,verified,Jessica,Manhattan,Upper East Side,40.77574,-73.94638,United States,US,False,strict,Entire home/apt,2018,$899 ,$180 ,3,20,6/30/2019,1.33,3,1,157,"Be considerate of others.  Quiet hours after 10 pm.  No smoking. Super Strict 30 Days: 50% refund up until 30 days prior to arrival, except fees Note: The Super Strict cancellation policy applies to special circumstances and is by invitation only. Cleaning fees are always refunded if the guest did not check in. The Airbnb service fee is non-refundable. If there is a complaint from either party, notice must be given to Airbnb within 24 hours of check-in. Airbnb will mediate when necessary, and has the final say in all disputes. A reservation is officially canceled when the guest clicks the cancellation button on the cancellation confirmation page, which they can find in Dashboard > Your Trips > Change or Cancel. Cancellation policies may be superseded by the Guest Refund Policy, safety cancellations, or extenuating circumstances. Please review these exceptions. Applicable taxes will be retained and remitted.",
18090603,"Charming UWS 1-bedroom, 1 block from Central Park!",40130717882,verified,Cyndi,Manhattan,Upper West Side,40.77669,-73.9789,United States,US,False,moderate,Entire home/apt,2004,$773 ,$155 ,3,1,5/26/2018,0.07,5,1,16,"NO loud parties. NO smoking in the condo, hallways, stairwells, or even on the front steps! Building occupants are allergic to smoke! This is ideal for ONE person, comfortable queen sized bed. Longer Bookings Preferred(Per Condo By-Laws and neighbors) preferred. We do not respond to requests for only a few nights stay! Thanks.",
18091155,Your private cozy Williamsburg apartment,18241907599,verified,Nebojsa,Brooklyn,Williamsburg,40.704879999999996,-73.94301,United States,US,False,strict,Entire home/apt,2007,$139 ,$28 ,3,4,5/31/2019,0.35,3,2,46,"Quiet Respectful, clean & organized Nice to my cat Can't arrive after 1 am to check in",
18091707,Clean Private Room in Rosedale - Close to JFK+Mall,286219852,unconfirmed,Latoya,Queens,Rosedale,40.65882,-73.7332,United States,US,True,strict,Private room,2011,$148 ,$30 ,1,35,5/9/2019,2.25,4,1,43,#NAME?,
18092260,HUGE ARTSY DESIGNER APRT IN CHINATOWN W/ ELEVATOR,83932854422,verified,Emily,Manhattan,Chinatown,40.713359999999994,-73.99263,United States,US,False,strict,Entire home/apt,2021,$962 ,$192 ,1,16,5/4/2019,1.04,3,1,318,"Please remember that this is a residential building. The building rules, apartment occupancy restrictions and the year-round tenants must be respected.  Parties, pets and smoking are not allowed under any circumstances and incur significant fees.",
18092812,JFK;minutes to JFK;$2.50to Manhattan,71835794106,verified,Sharon,Queens,Queens Village,40.72822,-73.74119,United States,US,True,flexible,Shared room,2013,$675 ,$135 ,1,0,,,4,1,0,,
18093364,"2 Bedroom. Cozy, inexpensive",58219277545,unconfirmed,Gustavo,Brooklyn,South Slope,40.66429,-73.9906,United States,US,True,strict,Entire home/apt,2009,$394 ,$79 ,5,2,4/15/2018,0.13,4,2,0,,
18093916,"Huge, bright 1 bed w/ priv yard in Crown Heights!",88427469850,verified,Michelle,Brooklyn,Crown Heights,40.67395,-73.94874,United States,US,True,moderate,Entire home/apt,2019,$375 ,$75 ,3,3,9/23/2018,0.2,2,1,0,,
18094469,Charming Bedroom in Luxury Highrise w/ Gym & Sauna,28825334606,unconfirmed,Tsilala,Manhattan,Financial District,40.70851,-74.0137,United States,US,False,strict,Private room,2017,$576 ,$115 ,2,4,1/2/2019,0.27,4,1,0,"Overall please treat the apartment as you would you own home, Keeping it as clean and tidy as you found it. Please clean up before checking out. Any major clean-up service required may be deducted from the deposit. No Loud / Large Parties . Please include the number of people who will be staying before you reserve this apartment. No extra guests other than the maximum 2 allowed who booked All smoking should be done outside, as this is a smoke free enviroment.",
18095021,Pre-War 2BR Pad at Prospect Park,7872919345,verified,Kyle,Brooklyn,Park Slope,40.6678,-73.98106,United States,US,True,strict,Entire home/apt,2020,$299 ,$60 ,2,0,,,3,3,0,,
18095573,Sunny Williamsburg 1 Bedroom! A block from subway,16242813084,unconfirmed,Graham,Brooklyn,Williamsburg,40.708079999999995,-73.93964,United States,US,False,moderate,Entire home/apt,2008,$257 ,$51 ,1,2,4/9/2018,0.13,2,1,0,No cooking Strictly one guest only,
18096126,Quiet room in Bushwick Apartment above Jefferson L,87660760061,unconfirmed,Andrew,Brooklyn,Bushwick,40.7069,-73.92284000000001,United States,US,True,moderate,Private room,2013,$262 ,$52 ,3,1,4/23/2018,0.07,3,1,0,"Please remember that this is a residential building. The building rules, apartment occupancy restrictions, and the year-round tenants must be respected. There is no smoking allowed in the apartments and significant fees will apply if this rule is broken.",
18096678,Manhattan private room 2  Columbia university area,34503388936,unconfirmed,Avner,Manhattan,Harlem,40.81312,-73.95364000000001,United States,US,False,moderate,Private room,2009,$905 ,$181 ,1,11,5/7/2019,0.71,2,4,365,,
18097230,Manhattan private room 3 Columbia university,27383503970,verified,Avner,Manhattan,Harlem,40.81205,-73.95322,United States,US,False,strict,Private room,2004,$926 ,$185 ,1,4,6/2/2019,0.28,4,4,365,,
18097783,Chill in Bushwick,42036118709,unconfirmed,Glynn,Brooklyn,Bushwick,40.702259999999995,-73.92895,United States,US,True,strict,Private room,2019,$226 ,$45 ,1,0,,,3,1,0,,
18098335,Central Harlem Sanctuary for the Bookish Type(s),85221475411,verified,Chloé,Manhattan,Harlem,40.82847,-73.93701,United States,US,False,moderate,Entire home/apt,2022,"$1,082 ",$216 ,7,1,11/27/2018,0.13,2,1,24,,
18098887,Brookyln Brownstone Pied de Terre,81143982808,verified,Alexandra,Brooklyn,Clinton Hill,40.68235,-73.96384,United States,US,False,flexible,Entire home/apt,2007,$546 ,$109 ,2,1,4/22/2018,0.07,5,1,0,#NAME?,
18099439,"Long Island City, Shared 2 bedroom apartment",51465448302,verified,Ben,Queens,Long Island City,40.7546,-73.93643,United States,US,True,moderate,Private room,2016,$243 ,$49 ,6,2,5/2/2018,0.13,4,1,0,,
18099992,Cosy private room in Central Harlem apartment,96396378179,verified,Lina,Manhattan,Harlem,40.815540000000006,-73.94144,United States,US,True,moderate,Private room,2014,$740 ,$148 ,2,12,7/6/2019,0.81,5,1,4,"The rules of the house are pretty basic: treat it like your own and please keep things tidy.  Like any city apartment, the walls can be a bit thin, so guests are encouraged to keep things to a reasonable volume and be respectful of my neighbors. I have some pretty annoying allergies, so no pets are allowed.",
18100544,1 Bedroom in Luxury Building,79993639430,unconfirmed,Grace,Brooklyn,Bedford-Stuyvesant,40.69336,-73.94453,United States,US,True,moderate,Entire home/apt,2010,$455 ,$91 ,2,8,6/16/2019,0.56,5,1,18,No smoking No pets We don't charge a cleaning fee - guests are expected to contribute to light cleaning and maintenance for comfort of guests after them!,
18101096,"Cozy apartment in Brooklyn, NY",92999536896,unconfirmed,Melissa,Brooklyn,East Flatbush,40.6485,-73.95156999999999,United States,US,False,flexible,Entire home/apt,2022,$934 ,$187 ,2,1,1/1/2019,0.16,2,3,191,,
18101649,"Cozy studio in trendy Bushwick, Brooklyn",79290615242,unconfirmed,Laurin,Brooklyn,Bushwick,40.70252,-73.91943,United States,US,True,flexible,Entire home/apt,2019,$182 ,$36 ,4,10,5/10/2019,0.72,5,1,0,,
18102201,Big Room in Quiet Neighborhood,25083350324,verified,Esmee,Queens,Elmhurst,40.72806,-73.87572,United States,US,True,strict,Private room,2011,$199 ,$40 ,1,24,10/28/2018,1.68,2,1,0,"Please remember that this is a residential building. The building rules, apartment occupancy restrictions and the year-round tenants must be respected.  Parties, pets and smoking are not allowed under any circumstances and incur significant fees.",
18102753,"Room in Nice Apartment, Astoria. Great Area!",74997521011,unconfirmed,Jonathan,Queens,Ditmars Steinway,40.77694,-73.90845999999999,United States,US,True,flexible,Private room,2018,$908 ,$182 ,4,5,4/25/2018,0.32,5,1,0,,
18103306,Big one Bedroom in Prospect Park,67517021708,verified,Sylvie,Brooklyn,Prospect-Lefferts Gardens,40.661390000000004,-73.96231,United States,US,True,flexible,Entire home/apt,2009,$303 ,$61 ,4,0,,,4,1,0,No smoking/pets please.,
18103858,FLATIRON LUXURY HIGHRISE//STUNNING VIEWS//4 BEDS!!,72916418852,verified,Navi,Manhattan,Midtown,40.74562,-73.98510999999999,United States,US,True,moderate,Entire home/apt,2022,$928 ,$186 ,4,38,7/6/2019,2.52,2,1,309,,
18104410,Harlem,17792901669,unconfirmed,David,Manhattan,Harlem,40.81498,-73.94622,United States,US,True,flexible,Shared room,2018,$918 ,$184 ,2,8,6/3/2018,0.52,2,1,0,No Smoking.,
18104962,#1  Spacious Private Room,38216544830,unconfirmed,Lissette,Staten Island,Tompkinsville,40.63485,-74.08539,United States,US,False,moderate,Private room,2006,$390 ,$78 ,2,53,6/11/2019,3.4,5,6,341,#NAME?,
18105515,"INCREDIBLE, Spacious 1 BDRM in the heart of SOHO.",61355623862,unconfirmed,Michelle,Manhattan,SoHo,40.72613,-74.00188,United States,US,True,strict,Entire home/apt,2005,$333 ,$67 ,2,37,6/16/2019,2.51,4,1,8,,
18106067,Amazing Artsy&Trendy Building w/Private Bathroom,500219483,unconfirmed,Elena,Brooklyn,Bushwick,40.69999,-73.92806999999999,United States,US,True,flexible,Private room,2020,$709 ,$142 ,5,9,6/15/2019,0.6,2,2,336,,
18106619,Cozy room with a comfortable bed,3957902158,verified,Abe,Staten Island,New Springville,40.57942,-74.15505999999999,United States,US,True,flexible,Private room,2012,$343 ,$69 ,1,38,6/23/2019,2.64,4,3,88,,
18107172,Lovely bedroom in the perfect two bedroom condo.,65767463547,unconfirmed,Mayer,Brooklyn,Crown Heights,40.67237,-73.95191,United States,US,False,moderate,Private room,2007,$699 ,$140 ,1,0,,,4,1,0,"Please clean your dishes, alternate who takes the trash out, don't make too much noise when others go to sleep. Simple rules.",
18107724,"Private studio in East Village, affordable price",41800753486,verified,Valentine,Manhattan,East Village,40.729209999999995,-73.98629,United States,US,False,strict,Entire home/apt,2021,"$1,013 ",$203 ,3,5,12/31/2018,0.37,5,1,5,,
18108276,Stunning Brooklyn Suite,75676748047,unconfirmed,Anthony,Brooklyn,Canarsie,40.6302,-73.8997,United States,US,False,flexible,Entire home/apt,2007,$784 ,$157 ,3,13,9/9/2018,0.86,2,1,0,,
18108829,CLEAN & COZY PRIVATE ROOM SHARING APARTMENT QUEENS,17387184721,unconfirmed,Laura,Queens,Kew Gardens,40.71295,-73.82866999999999,United States,US,True,flexible,Private room,2020,$640 ,$128 ,2,20,7/7/2019,1.4,4,1,334,,
18109381,"Central Brooklyn Beautiful Rooms
Room Cozy
#2",66244210801,unconfirmed,Keisha,Brooklyn,Canarsie,40.637570000000004,-73.89205,United States,US,False,flexible,Private room,2005,$956 ,$191 ,2,27,5/6/2019,1.74,4,3,362,,
18109933,In the Heights!,21995767046,unconfirmed,Peter,Manhattan,Washington Heights,40.83432,-73.94457,United States,US,True,flexible,Private room,2014,$261 ,$52 ,3,3,1/6/2019,0.19,4,1,0,"Please remember that this is a residential building. The building rules, apartment occupancy restrictions and the year-round tenants must be respected.  Parties, pets and smoking are not allowed under any circumstances and incur significant fees.",
18110485,Sunny 2br Apt in Bedstuy.. 20 mins to Manhattan!,94121388046,unconfirmed,Cj,Brooklyn,Bedford-Stuyvesant,40.68238,-73.92918,United States,US,False,flexible,Entire home/apt,2015,$94 ,$19 ,3,3,9/15/2018,0.2,5,2,0,#NAME?,
18111038,New York on The Ocean,75059921725,unconfirmed,Montage Yuriy,Brooklyn,Brighton Beach,40.58019,-73.95403,United States,US,True,strict,Entire home/apt,2004,"$1,185 ",$237 ,1,36,7/7/2019,2.39,5,1,350,#NAME?,
18111590,Private room in Manhattan(2名個室),83594327664,verified,Ky-Tsuyo,Manhattan,East Harlem,40.8003,-73.93829000000001,United States,US,False,flexible,Private room,2012,"$1,145 ",$229 ,7,26,6/21/2019,1.7,3,2,26,,
18112142,Private room in cozy prime Bushwick apartment,21504680475,verified,Elena,Brooklyn,Bushwick,40.70063,-73.92981,United States,US,True,flexible,Private room,2005,$531 ,$106 ,1,59,6/30/2019,4.13,4,1,43,,
18112695,Amazing refuge near Prospect Park,88831178652,unconfirmed,Ben,Brooklyn,Prospect Heights,40.67617,-73.96636,United States,US,False,flexible,Entire home/apt,2013,$104 ,$21 ,30,2,3/31/2019,0.2,3,3,5,,
18113247,"XL Ensuite 5m to Ferry, RUMC, Snug Harbor",55272693641,unconfirmed,Wj,Staten Island,New Brighton,40.64393,-74.09312,United States,US,False,moderate,Private room,2017,$703 ,$141 ,30,1,6/29/2019,1.0,5,2,71,,
18113799,Midtown East furnished studio apartment,69138091017,verified,Melissa,Manhattan,Midtown,40.75247,-73.9695,United States,US,False,strict,Entire home/apt,2004,$229 ,$46 ,2,3,4/26/2018,0.2,4,1,0,"Please remember that this is a residential building. The building rules, apartment occupancy restrictions and the year-round tenants must be respected.",
18114352,Beach Bungalow 2 Bedroom,7451366586,unconfirmed,Jeremy,Queens,Rockaway Beach,40.58773,-73.81367,United States,US,False,flexible,Entire home/apt,2003,$912 ,$182 ,1,61,7/4/2019,4.49,2,2,129,,
18114904,Deluxe East Village Apartment: 2 Bed - 2 Bath,29407365739,verified,Nick,Manhattan,East Village,40.72845,-73.97927,United States,US,False,flexible,Entire home/apt,2013,$700 ,$140 ,1,52,4/21/2019,3.34,3,4,51,This is our home so please treat it with care.  No pets and no smoking.,
18115456,Cozy studio apartment in Bensonhurst,35035381631,unconfirmed,Sergey & Kate,Brooklyn,Bensonhurst,40.62062,-73.99837,United States,US,False,strict,Entire home/apt,2004,$420 ,$84 ,7,0,,,3,2,232,,
18116008,New penthouse with Manhattan and park views!,85119735870,unconfirmed,Nick & Gaby,Brooklyn,East Flatbush,40.65478,-73.95264,United States,US,True,strict,Private room,2018,$449 ,$90 ,3,51,6/20/2019,3.71,4,1,62,,
18116561,Large Opulent Studio Apartment Near Prospect Park,37496412927,unconfirmed,Bridget,Brooklyn,Crown Heights,40.669959999999996,-73.956,United States,US,True,flexible,Entire home/apt,2013,$465 ,$93 ,4,0,,,4,1,0,Be respectful and mindful of neighbors.,
18117113,"Luxury KING 2br, Airports & Times SQ minutes away",76875517265,unconfirmed,Katarina,Queens,Elmhurst,40.73421,-73.87387,United States,US,True,moderate,Entire home/apt,2007,$387 ,$77 ,2,30,6/14/2019,2.97,2,2,51,,
18117665,"Convenience & Luxury, City andAirport minutes away",11602772292,verified,Katarina,Queens,Elmhurst,40.73276,-73.87252,United States,US,True,flexible,Entire home/apt,2008,$357 ,$71 ,2,35,6/9/2019,2.26,3,2,140,"Please remember that this is a residential building. The building rules, apartment occupancy restrictions and the year-round tenants must be respected.",
18118218,1 Bedroom+Piano Studio Manhattan Near Central Park,83870626706,verified,Tj,Manhattan,East Harlem,40.79398,-73.9397,United States,US,True,flexible,Entire home/apt,2010,$445 ,$89 ,2,17,3/24/2019,1.24,5,1,7,,
18118770,JFK Queens Home Away From Home House Of Suedajoy 2,71399049524,unconfirmed,Suzan,Queens,Jamaica,40.67048,-73.77832,United States,US,False,strict,Private room,2011,$197 ,$39 ,1,138,6/23/2019,8.87,3,6,177,,
18119322,Wonderfully cozy studio on Waverly w/nice backyard,74148537734,verified,Erica,Brooklyn,Clinton Hill,40.69415,-73.96788000000001,United States,US,True,flexible,Entire home/apt,2014,$169 ,$34 ,2,69,6/30/2019,4.52,3,6,327,Check-in is after 3 PM Check-out is before 11 AM,
18119875,Greenwich Village Master Bedroom!,73784314992,unconfirmed,Anokhi,Manhattan,Greenwich Village,40.72947,-73.9995,United States,US,False,flexible,Private room,2004,$956 ,$191 ,1,1,3/28/2018,0.06,4,1,0,,
18120427,Oasis in East Village,64613732509,verified,Daniel,Manhattan,East Village,40.726420000000005,-73.98402,United States,US,False,strict,Entire home/apt,2020,$253 ,$51 ,2,5,1/1/2019,0.34,3,1,15,,
18120979,Spacious Bedroom in Prime Brooklyn Location,43155146926,unconfirmed,Jessica,Brooklyn,Bedford-Stuyvesant,40.692859999999996,-73.93235,United States,US,True,strict,Private room,2012,$782 ,$156 ,3,7,6/22/2019,0.46,4,1,0,No pet is allowed No smoking Please be respectful of the neighbors as it's a quiet building You can use the kitchen to cook.,
18121531,Room in Minimalist Brooklyn Loft (Fort Greene),3604847630,unconfirmed,Ryan,Brooklyn,Fort Greene,40.68659,-73.97556999999999,United States,US,True,strict,Private room,2004,$729 ,$146 ,2,9,6/2/2019,0.63,4,2,3,,
18122084,Harlem Charm in a Convenient Location.,43994330607,verified,Tom,Manhattan,East Harlem,40.79931,-73.94726,United States,US,True,strict,Private room,2005,$926 ,$185 ,1,35,6/24/2019,2.34,5,1,94,,
18122636,Warm and Friendly Near Broadway and 96th,86632785341,verified,David,Manhattan,Upper West Side,40.79566,-73.96859,United States,US,True,flexible,Private room,2019,$994 ,$199 ,6,22,8/24/2018,1.47,5,1,0,,
18123188,Charming 1 Bedroom apt at Bayridge,23047885014,unconfirmed,Alex,Brooklyn,Fort Hamilton,40.62225,-74.03444,United States,US,True,flexible,Entire home/apt,2019,$448 ,$90 ,1,2,9/16/2018,0.19,4,1,0,"No shoes in the apartment, please",
18123741,Quiet 1Bed Studio in heart of East Village,96481873793,unconfirmed,Christopher,Manhattan,East Village,40.72578,-73.98763000000001,United States,US,False,flexible,Entire home/apt,2019,$664 ,$133 ,3,8,5/22/2019,0.58,4,1,41,"This is a quiet and primarily owner occupied building, kindly be respectful of the neighbors...and please no smoking!",
18124293,Dreamy Williamsburg Bedroom with Private Terrace,21201546891,verified,Gizem,Brooklyn,Williamsburg,40.708940000000005,-73.94333,United States,US,False,flexible,Private room,2015,$403 ,$81 ,4,10,6/17/2019,0.66,5,2,8,#NAME?,
18124845,Harlem suit  La barrio,8743526249,verified,Najah,Manhattan,East Harlem,40.79815,-73.93906,United States,US,True,moderate,Entire home/apt,2011,$608 ,$122 ,7,7,11/1/2018,0.48,3,2,0,,
18125398,Lovely apartment in  affluent area of Manhattan,52970284712,unconfirmed,Serenity,Manhattan,Upper East Side,40.77989,-73.95159,United States,US,False,moderate,Entire home/apt,2019,$756 ,$151 ,1,21,5/20/2019,1.44,3,1,25,,
18125950,BedSTUY SupperCLUB,90245077607,verified,Shirley,Brooklyn,Bedford-Stuyvesant,40.684909999999995,-73.93399000000001,United States,US,False,strict,Private room,2015,$244 ,$49 ,6,30,6/20/2019,2.06,3,1,21,"No smoking Not suitable for pets No parties or events Check-in is after 3PM Be a good ambassador of your country. :) Due to the fact that the building is purely residential, guests are expected to respect at all times the peace and privacy of the neighbors. Principal Rules: 1) Strictly a non-smoking/ shoe-free apartment. 2) No pets allowed  3) We have zero tolerance disturbance policy, so please do not disturb the residents of the building and avoid any noisy behavior after 9:00 pm and before 9:00 AM. We reserve the right to abort the service without refund if any established complain arrives to us from the neighbors.  4) Guests are not permitted to allow other people into the apartment 5) Any property damage shall be paid in full  6) Please DO NOT send any personal mails/package to the address during your stay. (We had lots of issues from the previous guests) Please Contact us for the further arrangement if you have any mailing request before your trip. We really hope that you enjoy y",
18126502,very cozy private bedroom within a 2 bedroom flat,45057045478,verified,Dan (Leo),Manhattan,Hell's Kitchen,40.75605,-73.99540999999999,United States,US,True,flexible,Private room,2009,$418 ,$84 ,3,9,6/19/2019,0.58,2,1,32,We are young professionals who like to keep our home neat and quiet. We'll likely be working from home at times during your stay and we ask you to respect us the same way we'll respect you. No shoes inside the house.  No smoking. Service pets are ok.,
18127054,Cozy and bright bedroom in South Williamsburg,84985431506,unconfirmed,Sarah,Brooklyn,Williamsburg,40.70989,-73.96231,United States,US,True,strict,Private room,2008,$194 ,$39 ,2,43,6/30/2019,3.04,2,2,0,,
18127607,"Architect Loft,  btw Soho & Tribeca, Private Roof",59458578745,unconfirmed,Edouard,Manhattan,Tribeca,40.719159999999995,-74.00442,United States,US,True,strict,Entire home/apt,2013,$771 ,$154 ,3,9,6/20/2019,0.63,5,1,17,"SEE ABOVE NOTES.   Prefer REPEAT VISITORS, BUSINESS MEETINGS or family obligations, medical needs.  Good for a single or couple, probably not families. Free laundry. GREAT VIEW!",
18128159,Brooklyn house,12887640662,verified,Marixsa,Brooklyn,East Flatbush,40.64282,-73.94497,United States,US,True,strict,Entire home/apt,2005,$161 ,$32 ,4,0,,,2,1,13,,
18128711,Beautiful sunny BR in fully renovated apartment !!,11257537948,unconfirmed,Nicole,Brooklyn,Bedford-Stuyvesant,40.6807,-73.92917,United States,US,True,moderate,Private room,2007,$396 ,$79 ,7,6,4/1/2019,0.45,4,2,216,,
18129264,New One Bedroom 15-20 Min. From NYC! Close to all!,7070116138,verified,Christine,Queens,Ditmars Steinway,40.772890000000004,-73.91293,United States,US,True,moderate,Entire home/apt,2015,$126 ,$25 ,7,24,6/24/2019,1.99,3,1,260,"Please remember that this is a residential building. The building rules, apartment occupancy restrictions and the year-round tenants must be respected.  Parties, pets and smoking are not allowed under any circumstances and incur significant fees.",
18129816,Beautiful sunlit spacious loft-like pvt. bedroom!,26725016835,unconfirmed,Jason,Brooklyn,Bushwick,40.69781,-73.92093,United States,US,True,flexible,Private room,2014,"$1,161 ",$232 ,1,16,7/6/2019,1.2,5,1,21,,
18130368,Modern sunlit apartment in the heart of Bushwick,52780199652,unconfirmed,Yoav,Brooklyn,Bushwick,40.69642,-73.9243,United States,US,True,flexible,Private room,2021,$725 ,$145 ,5,5,4/20/2019,0.58,2,2,3,"House Rules 1. All bookings made at least a week before check in are fully refundable if cancelled within 24 hours of booking. After this, you will receive a 50% refund if you cancel at least 7 days before the start of your trip. 2. Check-in time is any time after 4 pm local time. If the unit is ready earlier, we’ll let you know. Check-out is normally 11 am local time, but we’d be happy to extend it as long as we don’t have a cleaning scheduled. Just let us know.  3. All bookings require a security deposit of at least $300. 4. For security measures we require all guests to provide proof of identification through ID verification on our own website. In order to check in, we'll need a photo of your ID.  5. Don’t let $300 go up in smoke. There's no smoking allowed in any Flatbook and a $300 fine for breaking this rule.  6. Unfortunately we don’t allow pets in most of our apartments. 7. Unless you’re staying in one of our specialty apartments, we don’t allow parties or excessive noise. 8. I",
18130921,"LOVE MANHATTAN 2
NEAR TO YANKE STADIUM",24139874010,unconfirmed,Ociel,Bronx,Mott Haven,40.80863,-73.92121,United States,US,False,moderate,Private room,2009,$760 ,$152 ,1,33,7/3/2019,2.14,3,4,75,"Make yourself at home! While that means enjoy the amenities in the apartment during your stay, I hope you would also treat my home with respect. Lastly, accidents do happen — I get it :) Just leave me a note about things that are broken or not working. ",
18131473,Experience Brownstone Living in Brooklyn!,1972291315,unconfirmed,Lauren,Brooklyn,Bedford-Stuyvesant,40.68967,-73.9366,United States,US,True,strict,Entire home/apt,2008,$479 ,$96 ,2,20,7/1/2019,1.67,5,2,357,,
18132025,Vicky客栈1,52225165590,unconfirmed,Vicky,Queens,Flushing,40.743,-73.82335,United States,US,False,strict,Private room,2014,$553 ,$111 ,1,38,4/21/2019,2.68,5,5,0,,
18132577,"Cozy, Quiet and Spacious Apt in Astoria",96431234026,unconfirmed,Riomar,Queens,Astoria,40.7637,-73.9268,United States,US,False,moderate,Entire home/apt,2011,$645 ,$129 ,7,3,1/4/2019,0.27,2,1,0,,
18133130,Rocco's Pad,18946425438,unconfirmed,Mackenzie,Brooklyn,Williamsburg,40.71168,-73.94058000000001,United States,US,False,moderate,Private room,2008,$695 ,$139 ,20,26,2/1/2019,2.15,5,1,0,May add extra guests (please contact for more info),
18133682,Amazing apartment with Balcony ! GREAT LOCATION!,40635900752,verified,Teresa,Manhattan,Upper West Side,40.79094,-73.97459,United States,US,True,moderate,Entire home/apt,2019,$428 ,$86 ,1,38,7/2/2019,2.56,5,1,86,,
18134234,Flushing Main st 7 train luxurious apartment,53018512027,verified,Tony,Queens,Flushing,40.75671,-73.83337,United States,US,False,moderate,Entire home/apt,2011,$440 ,$88 ,2,39,7/1/2019,2.68,3,7,61,No smoking and no pets please.,
18134787,Beautiful Studio Apt,74674930149,unconfirmed,Friday,Staten Island,Clifton,40.61804,-74.0861,United States,US,True,moderate,Entire home/apt,2015,"$1,036 ",$207 ,1,54,5/22/2019,3.48,4,1,361,Not too loud. No 'house rules' necessary as long as general nice manners are followed.,
18135339,"Upper West / Morningside Heights Apt, Near Subway",35346189377,unconfirmed,Daniel,Manhattan,Morningside Heights,40.809470000000005,-73.96356999999999,United States,US,True,flexible,Entire home/apt,2008,$290 ,$58 ,3,0,,,3,1,0,Respectable,
18135891,EAST VILLAGE STUDIO APT WITH COURTYARD,81588098078,verified,Melissa,Manhattan,East Village,40.73048,-73.98269,United States,US,True,strict,Entire home/apt,2022,$787 ,$157 ,3,4,1/2/2019,0.31,2,1,13,"Please remember that this is a residential building. The building rules, apartment occupancy restrictions and the year-round tenants must be respected.",
18136444,Brooklyn loft with Manhattan skyline view,42195711911,unconfirmed,Eleni,Brooklyn,Bushwick,40.70057,-73.92385,United States,US,True,flexible,Entire home/apt,2018,$80 ,$16 ,7,3,1/2/2019,0.22,3,1,1,"Please remember that this is a residential building. The building rules, apartment occupancy restrictions and the year-round tenants must be respected.  Parties and smoking are not allowed under any circumstances and incur significant fees. Pets may be considered with pre-approval and an additional pet fee.",
18136996,Upper West Side NYC Studio Apartment,18442976532,unconfirmed,Amelia,Manhattan,Upper West Side,40.79719,-73.97097,United States,US,False,strict,Entire home/apt,2019,"$1,068 ",$214 ,3,1,5/4/2018,0.07,2,1,0,,
18137548,Bright 1 Bed w/Lrg Private Balcony in Williamsburg,15252493466,unconfirmed,Carla Isabel,Brooklyn,Williamsburg,40.71607,-73.96365,United States,US,False,strict,Entire home/apt,2021,$544 ,$109 ,3,16,7/3/2019,1.05,4,1,41,"This is a quiet building of professionals (no student renters allowed), so those looking for a place to host large parties, please consider other options.",
18138100,Private Room in Spacious Apartment with Patio!,59193918360,unconfirmed,Travis,Brooklyn,Boerum Hill,40.68503,-73.98232,United States,US,True,strict,Private room,2007,$510 ,$102 ,2,31,7/7/2019,2.04,5,1,0,"You are my guest - please behave as such!  This is where I live. - No neighbor-disturbance-level noise past 11:00PM - No pets of any kind - No smoking - Use the kitchen, not the food (it is ours) - Clean up spills and dishes - No illegal drugs or substances",
18138653,One bedroom in Brooklyn Heights,9282401448,unconfirmed,Scott,Brooklyn,Boerum Hill,40.68958,-73.99141,United States,US,True,moderate,Entire home/apt,2014,$870 ,$174 ,2,3,11/12/2018,0.21,5,1,0,,
18139205,"Overnight Crash Couch 12minNY, 10minLGA/30minJFK",56611585913,verified,Lisa,Queens,Astoria,40.75465,-73.91356999999999,United States,US,True,strict,Shared room,2011,$313 ,$63 ,1,54,4/20/2019,3.48,3,4,66,,
18139757,Gorgeous Room available in a 2 bed/apt!,69546929648,unconfirmed,Nafsica,Manhattan,Harlem,40.82632,-73.94637,United States,US,True,strict,Private room,2017,$573 ,$115 ,3,7,10/25/2018,0.46,2,1,172,"Please remember that this is a residential building. The building rules, apartment occupancy restrictions and the year-round tenants must be respected.",
18140310,Long term rental only.  3months min.,90454086950,verified,Jason,Brooklyn,Bushwick,40.69558,-73.92578,United States,US,True,strict,Private room,2009,$313 ,$63 ,90,0,,,5,1,90,,
18140862,Cozy private room in Times Square/Rockefeller,17474078164,unconfirmed,Cindy,Manhattan,Midtown,40.75866,-73.98031999999999,United States,US,True,flexible,Private room,2008,$930 ,$186 ,3,13,1/1/2019,0.88,4,2,0,"Before checking out, please: 1. Take out trash (basement level, back door - red dumpsters) 2. Wash dishes and put in dishrack 3. Return keys to the lockbox by 12 noon (unless we made other arrangements)",
18141414,Heaven in Hell’s Kitchen,67985692512,unconfirmed,Yaniv,Manhattan,Hell's Kitchen,40.764990000000004,-73.98888000000001,United States,US,True,strict,Private room,2021,$896 ,$179 ,1,67,4/8/2019,4.51,2,2,0,,
18141967,Spacious Brooklyn Apartment w/ private backyard,53822416426,verified,Séamus,Brooklyn,Bedford-Stuyvesant,40.681490000000004,-73.93449,United States,US,False,moderate,Entire home/apt,2010,$743 ,$149 ,2,13,6/28/2019,1.28,5,1,53,,
18142519,Spacious 2 bed/ 1bath w/ outdoor space (sleeps 8),15733615897,unconfirmed,Ivana,Queens,Forest Hills,40.71754,-73.83367,United States,US,True,strict,Entire home/apt,2013,$207 ,$41 ,2,31,6/24/2019,2.04,4,1,89,,
18143071,"ART apt: QUIET, charming, GEM in GREENWICH VILLAGE",753587828,unconfirmed,Mikaela,Manhattan,Greenwich Village,40.72925,-74.00041999999999,United States,US,False,moderate,Entire home/apt,2014,"$1,038 ",$208 ,2,12,5/17/2019,1.07,3,1,0,,
18143623,"Beautiful Private Room near Highline, and Train",85828452503,verified,Colin,Manhattan,Chelsea,40.74648,-74.00265999999999,United States,US,False,strict,Private room,2011,"$1,044 ",$209 ,30,30,6/27/2019,2.73,2,1,105,This home is very clean and well kept. No shoes inside please!,
18144176,HUGE Luxury Upper East Side 1 Bedroom—Roof Access,2716941936,verified,Daniel,Manhattan,Upper East Side,40.76692,-73.95298000000001,United States,US,False,flexible,Entire home/apt,2019,$842 ,$168 ,2,20,6/23/2019,1.38,4,1,78,,
18144728,Haven In The Heights - Huge Manhattan 2BR 2 Bath!,35486935207,unconfirmed,Bruce & Suzanne,Manhattan,Washington Heights,40.846340000000005,-73.93861,United States,US,False,moderate,Entire home/apt,2006,$440 ,$88 ,2,7,5/12/2019,0.52,4,2,0,,
18145280,Luxury spot,89071288372,unconfirmed,Joseph,Brooklyn,Crown Heights,40.67695,-73.95554,United States,US,False,moderate,Entire home/apt,2008,$620 ,$124 ,21,1,4/1/2018,0.06,5,1,0,,
18145833,Your Dream 1 bed Apartment in the heart of SoHo,80114525577,unconfirmed,Jeremie,Manhattan,Little Italy,40.7193,-73.99781999999999,United States,US,True,strict,Entire home/apt,2020,$701 ,$140 ,2,6,7/2/2019,0.41,5,1,0,#NAME?,
18146385,The Bay - A One Bedroom Apartment,20936139373,verified,Ernesto,Manhattan,Kips Bay,40.74346,-73.97827,United States,US,True,flexible,Entire home/apt,2015,$910 ,$182 ,2,8,12/3/2018,0.54,3,1,0,,
18146937,Cozy private room available from January 1st,64206912016,unconfirmed,David,Manhattan,Harlem,40.81787,-73.94286,United States,US,False,flexible,Private room,2012,$176 ,$35 ,3,1,5/8/2018,0.07,4,1,0,"Please remember that this is a residential building. The building rules, apartment occupancy restrictions, and the year-round tenants must be respected. There is no smoking allowed in the apartments and significant fees will apply if this rule is broken.",
18147490,Elegant and Comfortable Home Away from Home in UES,82797756516,verified,Samir,Manhattan,East Harlem,40.78723,-73.94955999999999,United States,US,True,flexible,Private room,2014,$168 ,$34 ,7,68,6/22/2019,4.39,5,1,77,,
18148042,2 Bedroom Astoria Beautiful,4240705892,verified,Louis,Queens,Ditmars Steinway,40.77516,-73.91792,United States,US,True,moderate,Entire home/apt,2009,$419 ,$84 ,5,1,4/22/2018,0.07,2,1,0,,
18148594,HUGE 3500 sf 3 bed/3 bth Loft in SoHo/Little Italy,53453688891,verified,William,Manhattan,Little Italy,40.71841,-73.99753,United States,US,True,moderate,Entire home/apt,2014,$792 ,$158 ,3,38,6/2/2019,2.59,4,1,199,,
18149146,Harlem Sanctuary,62151634103,unconfirmed,Danese,Manhattan,Harlem,40.82356,-73.9401,United States,US,True,moderate,Private room,2004,$590 ,$118 ,2,29,6/3/2019,1.93,4,3,78,- Please call / send message to arrange meeting for check in - Check in 3 pm - 11 pm - Check out by 11 am on last day,
18149699,"The Photographer Room in Private Home, Near Metro",83458174012,unconfirmed,Felix,Bronx,Kingsbridge,40.88004,-73.9,United States,US,True,flexible,Private room,2019,$415 ,$83 ,3,45,6/12/2019,3.0,2,4,59,,
18150251,Beautiful Spacious  Studio Apartment,96384052768,unconfirmed,Samantha,Brooklyn,Bedford-Stuyvesant,40.68548,-73.93805,United States,US,True,flexible,Entire home/apt,2015,$104 ,$21 ,1,50,7/7/2019,4.37,2,2,257,,
18150803,"Spacious Williamsburg, Brooklyn Spare Room",17642558145,verified,Michael,Brooklyn,Williamsburg,40.71952,-73.94165,United States,US,False,moderate,Private room,2022,$582 ,$116 ,2,41,6/30/2019,2.73,3,1,14,,
18151356,Brooklyn Brownstone Bedroom,65510943939,verified,Brady,Brooklyn,Boerum Hill,40.68708,-73.98389,United States,US,True,strict,Private room,2016,$322 ,$64 ,1,9,8/27/2018,0.6,3,1,0,,
18151908,Charming Historic House in Marble Hill!,84545143673,unconfirmed,Valeria,Manhattan,Marble Hill,40.87621,-73.90997,United States,US,False,moderate,Private room,2017,$322 ,$64 ,3,3,7/29/2018,0.24,5,1,238,,
18152460,1BR Apartment on the Upper East Side.,41449241785,verified,Daniel,Manhattan,Upper East Side,40.781240000000004,-73.94988000000001,United States,US,True,flexible,Entire home/apt,2006,$582 ,$116 ,50,0,,,2,1,0,,
18153013,PRIVATE BEDROOM IN BRAND NEW CONDO IN BED STUY,74758117600,verified,Annette,Brooklyn,Bedford-Stuyvesant,40.69292,-73.94326,United States,US,False,moderate,Private room,2015,$723 ,$145 ,3,54,7/6/2019,3.68,5,1,69,#NAME?,
18153565,Brooklyn Stay Inn TH,75944851599,unconfirmed,Nyota,Brooklyn,Crown Heights,40.66555,-73.95496999999999,United States,US,True,flexible,Entire home/apt,2015,$698 ,$140 ,1,4,6/28/2019,2.26,2,2,365,,
18154117,Beautiful 3 BR Midtown East! Clean & Chic!!,62824308244,verified,Ashley,Manhattan,Kips Bay,40.74528,-73.97901,United States,US,False,strict,Entire home/apt,2021,$160 ,$32 ,1,69,7/6/2019,4.45,3,4,133,"No smoking, no parties, very quiet building with friendly neighbors close by",
18154669,3BR Chic & Beautiful NYC Apartment,73680745598,verified,Ashley,Manhattan,Kips Bay,40.74581,-73.9784,United States,US,True,flexible,Entire home/apt,2017,$780 ,$156 ,30,54,6/28/2019,3.48,4,4,227,,
18155222,Gorgeous 3BR Penthouse Murray Hill,76541644219,unconfirmed,Ashley,Manhattan,Kips Bay,40.74481,-73.97879,United States,US,False,strict,Entire home/apt,2003,"$1,014 ",$203 ,30,69,6/24/2019,4.45,2,4,234,,
18155774,"Peaceful spacious bedroom, easy commute to city",14427852374,unconfirmed,Jude,Queens,Glendale,40.70297,-73.895,United States,US,True,strict,Private room,2010,$873 ,$175 ,7,0,,,4,1,0,"no smoking, no pet, keep clean",
18156326,European Cozy Studio w Loft Bedroom - West Village,51306589839,verified,James,Manhattan,West Village,40.7378,-74.0062,United States,US,False,moderate,Entire home/apt,2010,"$1,005 ",$201 ,3,0,,,5,1,0,"Please remember that this is a residential building. The building rules, apartment occupancy restrictions and the year-round tenants must be respected.  Parties and smoking are not allowed under any circumstances and incur significant fees. Pets may be considered with pre-approval and an additional pet fee.",
18156879,The Halsey Brownstone Inn,36831168952,verified,Sabrina,Brooklyn,Bedford-Stuyvesant,40.68314,-73.92784,United States,US,False,flexible,Entire home/apt,2022,$821 ,$164 ,2,6,5/5/2019,0.41,2,1,334,,
18157431,⭐︎⭐︎PRIVATE Bathroom⭐︎⭐︎2min to subway+huge living,42377408725,verified,Hiroki,Queens,Woodside,40.742670000000004,-73.90354,United States,US,False,moderate,Private room,2014,$302 ,$60 ,30,1,9/16/2018,0.1,5,37,1,"Please remember that this is a residential building. The building rules, apartment occupancy restrictions and the year-round tenants must be respected.",
18157983,"Cozy Art Private Bedroom-Hamilton Heights, NY",73883717704,unconfirmed,Allan C.,Manhattan,Harlem,40.83163,-73.94615,United States,US,True,moderate,Private room,2015,$631 ,$126 ,1,16,1/1/2019,1.22,4,6,32,Please clean up before checking out. Any major clean-up service required may be deducted from the deposit.  No Loud / Large Parties . This is a smoke free enviroment. very quiet building with friendly neighbors,
18158536,Clean Private room in Manhattan(females only),71715825111,verified,Aki,Manhattan,East Harlem,40.79309,-73.94346999999999,United States,US,False,flexible,Private room,2014,$496 ,$99 ,4,1,4/16/2018,0.07,2,1,6,,
18159088,"Tranquil private bedroom, Hamilton Heights, NY",60849700016,verified,Allan C.,Manhattan,Harlem,40.8301,-73.94757,United States,US,False,strict,Private room,2003,$804 ,$161 ,1,22,6/30/2019,1.88,2,6,45,"Please leave the apartment neat as you found it.  Put your sheets and towels in the hamper in the guest closet. If you've prepared food and there are leftovers, be sure to place them in the trash. Better yet, bring the trash and recyclable items downstairs and put them into the appropriate containers in the driveway out back.  Thank you, Deborah",
18159640,"Very Spacious bedroom, steps from CENTRAL PARK.",60107085430,verified,Salim,Manhattan,Upper West Side,40.768440000000005,-73.98333000000001,United States,US,False,moderate,Private room,2019,$960 ,$192 ,1,2,4/23/2018,0.13,2,1,0,"Please, no smoking indoors. Do not climb onto the fire escape because the police who routinely walk around will fine you $350.  If you're unsure about anything, just ask! I'm here to help :)",
18160192,Studio for the Summer,49462498652,verified,Adam,Queens,Forest Hills,40.72385,-73.85124,United States,US,True,flexible,Entire home/apt,2018,$606 ,$121 ,30,0,,,2,1,99,#NAME?,
18160745,Modern Room in historic Harlem,16897044078,verified,Hulon,Manhattan,Harlem,40.81503,-73.94341,United States,US,True,moderate,Private room,2009,$496 ,$99 ,5,22,5/13/2019,1.45,3,1,5,No smoking! No party!,
18161297,NYC TOP CHOICE RMS located close to pub transport,59226156603,unconfirmed,Barry,Bronx,Pelham Gardens,40.86615,-73.84185,United States,US,True,moderate,Private room,2011,"$1,185 ",$237 ,1,6,6/18/2019,0.4,5,4,0,,
18161849,Amazing room in super warm apt in prime Bushwick !,50316454725,unconfirmed,Nimo,Brooklyn,Bushwick,40.70575,-73.92075,United States,US,False,strict,Private room,2013,$694 ,$139 ,7,1,4/27/2019,0.41,3,1,0,No pets,
18162402,Beautiful Manhattan Apt- 20 min to Times Square,21694376822,unconfirmed,Lauren,Manhattan,Washington Heights,40.84884,-73.93199,United States,US,False,flexible,Entire home/apt,2020,$79 ,$16 ,7,0,,,2,1,0,"Please remember that this is a residential building. The building rules, apartment occupancy restrictions and the year-round tenants must be respected.  Parties and smoking are not allowed under any circumstances and incur significant fees. Pets may be considered with pre-approval and an additional pet fee.",
18162954,brooklyn next prospect park,1860554393,verified,Manami,Brooklyn,Prospect-Lefferts Gardens,40.65618,-73.95784,United States,US,True,moderate,Private room,2021,"$1,132 ",$226 ,7,0,,,2,1,53,No excess noise Smoking Allowed Drinking Allowed Respect your room mates  No Drugs Respect your neighbours,
18163506,"Paradise - comfortable, spacious loft apartment",40843181320,verified,Ari,Manhattan,Chinatown,40.71396,-73.99771,United States,US,False,flexible,Entire home/apt,2015,"$1,155 ",$231 ,2,3,6/8/2019,0.21,3,1,5,,
18164059,Enjoy a beautiful room in this bohemian duplex,29299561890,verified,Fran,Queens,Rosedale,40.66021,-73.73709000000001,United States,US,True,flexible,Private room,2019,$238 ,$48 ,1,10,7/1/2019,0.92,3,3,164,,
18164611,Spacious sanctuary in the heart of Brooklyn,80627672709,unconfirmed,Catherine,Brooklyn,Bedford-Stuyvesant,40.68056,-73.94685,United States,US,False,strict,Entire home/apt,2015,$445 ,$89 ,3,2,6/6/2018,0.15,5,1,0,Quiet time in our building is from 10pm-8am.,
18165163,✔ Home Away From Home ✔ 100Mbps ✔ Transit Score 99,53849517129,verified,Daniel Rusteen,Bronx,Concourse,40.819520000000004,-73.92844000000001,United States,US,False,flexible,Entire home/apt,2022,$979 ,$196 ,2,37,7/6/2019,2.89,3,1,193,,
18165715,Private clean room complementary coffee Manhattan,56121947938,verified,Renat,Manhattan,East Harlem,40.79805,-73.93526999999999,United States,US,True,flexible,Private room,2004,$272 ,$54 ,2,62,7/6/2019,4.14,4,1,9,Please do not play any of the guitars in the room.,
18166268,Charming Brooklyn Gem with Beautiful Views,12521056698,verified,Kareem,Brooklyn,Midwood,40.61379,-73.96826,United States,US,True,flexible,Private room,2007,$602 ,$120 ,3,4,5/31/2018,0.26,4,1,18,Always lock the front door and the apartment door. Always enter/exit through the front door. Don't smoke in the house. Don't leave dirty dishes.  Tidy the kitchen when done and leave dishes ti dry in the dishwasher rack.  Feel free to use the dishwasher.  Detergent is under the sink.,
18166820,*Large 3 bedroom getaway* Pre Summer discounts,74157062995,verified,Krystle,Queens,Arverne,40.59746,-73.79688,United States,US,True,strict,Entire home/apt,2022,$995 ,$199 ,3,21,6/24/2019,1.49,3,1,327,"When you arrive, the keys will be in a lock box outside. Please return keys to that lock box upon your departure.",
18167372,Live in our Bushwick Townhouse,96013157642,verified,Nabeel,Brooklyn,Bushwick,40.69211,-73.90634,United States,US,False,moderate,Private room,2012,$915 ,$183 ,12,0,,,3,1,14,,
18167925,Woody's Larger Bedroom,85821380508,unconfirmed,Woody,Brooklyn,Bedford-Stuyvesant,40.67924,-73.9102,United States,US,True,flexible,Private room,2011,$834 ,$167 ,4,25,1/14/2019,1.67,5,2,0,,
18168477,Woody's Smaller Bedroom,93063220634,unconfirmed,Woody,Brooklyn,Bedford-Stuyvesant,40.67749,-73.91084000000001,United States,US,True,moderate,Private room,2014,$114 ,$23 ,7,41,1/9/2019,2.67,5,2,0,No Smoking,
18169029,Cozy Private Bedroom Upper East Side,84998710804,unconfirmed,Milena,Manhattan,Upper East Side,40.7668,-73.954,United States,US,False,flexible,Private room,2010,$485 ,$97 ,3,64,6/25/2019,4.19,3,2,275,"Please remember that this is a residential building. The building rules, apartment occupancy restrictions and the year-round tenants must be respected.  Parties, pets and smoking are not allowed under any circumstances and incur significant fees.",
18169582,Cozy room in a Victorian house in Central Brooklyn,29021869828,unconfirmed,Myriam,Brooklyn,Kensington,40.63966,-73.9716,United States,US,True,flexible,Private room,2015,"$1,110 ",$222 ,1,11,5/27/2019,0.81,3,1,0,No loud house parties. Please be respectful of others living in the building in other units.,
18170134,Ivoire Realty(Bronx maison avec vue),42649464135,unconfirmed,Christophe,Bronx,Kingsbridge,40.86286,-73.9024,United States,US,True,strict,Private room,2020,"$1,050 ",$210 ,2,24,6/7/2019,1.56,3,2,365,,
18170686,Cozy Private Room in Flushing 法拉盛中心單人房间,69747989621,unconfirmed,Michelle & Evelyn,Queens,Flushing,40.76562,-73.8299,United States,US,True,flexible,Private room,2014,"$1,094 ",$219 ,1,96,7/7/2019,6.56,2,3,44,"Please remember that this is a residential building. The building rules, apartment occupancy restrictions and the year-round tenants must be respected.",
18171238,Sunny Private Bushwick Bedroom,23232368710,unconfirmed,Melissa,Brooklyn,Bushwick,40.69384,-73.90674,United States,US,True,flexible,Private room,2020,$727 ,$145 ,1,18,5/5/2019,1.19,5,1,0,"Please remember that this is a residential building. The building rules, apartment occupancy restrictions and the year-round tenants must be respected.  Parties, pets and smoking are not allowed under any circumstances and incur significant fees.",
18171791,Luxury apartment with amazing views!,85330391824,verified,Matthew,Manhattan,Hell's Kitchen,40.76125,-73.99859000000001,United States,US,True,flexible,Entire home/apt,2020,$216 ,$43 ,4,2,6/8/2018,0.13,2,1,0,,
18172343,Luxury One Bedroom Apartment in Financial District,18653721233,unconfirmed,Cindy,Manhattan,Financial District,40.70745,-74.01521,United States,US,True,strict,Entire home/apt,2021,$402 ,$80 ,30,4,1/2/2019,0.35,3,1,322,"Please remember that this is a residential building. The building rules, apartment occupancy restrictions and the year-round tenants must be respected.  Parties and smoking are not allowed under any circumstances and incur significant fees. Pets may be considered with pre-approval and an additional pet fee.",
18172895,Classical Upper West Side Experience,97013856766,verified,Katya,Manhattan,Upper West Side,40.77799,-73.9782,United States,US,True,strict,Entire home/apt,2018,$942 ,$188 ,4,15,6/11/2019,1.0,2,1,57,,
18173448,Modern & Spacious 1br East Village Apartment,45298276517,verified,Nikki,Manhattan,SoHo,40.722559999999994,-74.00018,United States,US,True,flexible,Private room,2005,"$1,034 ",$207 ,2,3,1/21/2019,0.48,4,1,0,,
18174000,"Snug, Sun Flooded Room in The Upper West Side",35637871413,verified,Daniyal,Manhattan,Morningside Heights,40.80466,-73.96529,United States,US,True,moderate,Private room,2017,$392 ,$78 ,4,3,4/13/2018,0.2,4,1,0,,
18174552,2 Bdrm Luxury Condo Wyndham Presidential Sleeps 6,85699236678,verified,Rich,Manhattan,Midtown,40.75305,-73.96947,United States,US,False,moderate,Entire home/apt,2007,$942 ,$188 ,2,1,5/4/2018,0.07,2,4,0,Like they are in their own home!!! Please respect! This is not a hotel! Be neat & clean,
18175105,Spacious room in the heart of Bushwick!,57547305445,unconfirmed,Luisa,Brooklyn,Bushwick,40.69876,-73.92968,United States,US,False,strict,Private room,2019,$174 ,$35 ,15,6,10/31/2018,0.42,4,1,321,We expect guests to respect our neighbors and not be overly loud. No parties please. Absolutely no smoking.,
18175657,A futon in a beautiful studio for females only,63984371894,verified,Maryam,Manhattan,East Harlem,40.78999,-73.95226,United States,US,False,strict,Shared room,2020,$777 ,$155 ,3,5,6/13/2018,0.32,3,2,0,The only thing i would have to say is not playing music too loud past 11 o clock.,
18176209,Beautiful New York City Midtown Cozy Apartment,34283482065,verified,Lea,Manhattan,Hell's Kitchen,40.76657,-73.98514,United States,US,True,strict,Entire home/apt,2016,$854 ,$171 ,3,28,7/2/2019,1.87,2,1,323,,
18176761,"4 Bed, 2 Bath Apt in East Village-Garden Duplex",9998961904,unconfirmed,East Village,Manhattan,East Village,40.72468,-73.98996,United States,US,False,flexible,Entire home/apt,2013,$634 ,$127 ,4,11,7/7/2019,0.75,5,4,164,,
18177314,Sunny Studio Williamsburg w/ Private Bath&Entrance,71131603241,unconfirmed,Christine,Brooklyn,Williamsburg,40.71195,-73.94306999999999,United States,US,True,strict,Private room,2008,$509 ,$102 ,5,10,9/19/2018,0.7,5,2,0,,
18177866,"2 Bedroom, 1 Bath Apartment in East Village- Sol",26104451806,verified,East Village,Manhattan,East Village,40.72677,-73.9911,United States,US,False,strict,Entire home/apt,2008,$448 ,$90 ,4,6,3/20/2019,0.4,3,4,121,"Please, be conscious of other residents in the building. Refrain from loud noises in the evening. Thank you!",
18178418,FACTORY ARTIST LOFT - 4 ROOMS SLEEPS 10,84365872686,verified,Julian,Brooklyn,Williamsburg,40.70505,-73.92936999999999,United States,US,False,strict,Entire home/apt,2020,$829 ,$166 ,3,0,,,5,1,345,-No shoes (leave at the entrance door) -No loud noises after 10 pm -No bike -NO SMOKERS/SMOKING/DRUG USE,
18178971,"3 Bedroom, 2 Bath Apt in East Village- Penthouse",61422133441,unconfirmed,East Village,Manhattan,East Village,40.726009999999995,-73.99086,United States,US,False,flexible,Entire home/apt,2008,"$1,077 ",$215 ,4,19,5/31/2019,1.27,3,4,151,Please take care of and respect the apartment as if it were your own home. We expect guests to be courteous of the other residents of the building. Both the building and apartment are strictly non-smoking. No pets allowed. Please do not use the hair dryer in the bathroom.,
18179523,Prime Dumbo location for a great price!,51863221014,verified,Rafael,Brooklyn,Vinegar Hill,40.70045,-73.98468000000001,United States,US,False,strict,Private room,2011,$267 ,$53 ,3,4,5/2/2018,0.26,5,1,0,,
18180075,Private chef & Chill.,78216739167,verified,Jennifer,Bronx,Morrisania,40.83252,-73.89811,United States,US,False,moderate,Private room,2013,"$1,049 ",$210 ,1,0,,,4,1,83,,
18180628,Manhattan Studio doorman elevator 10min->Times Sq.,18760903015,unconfirmed,Johnny,Manhattan,Upper West Side,40.77864,-73.98482,United States,US,False,moderate,Entire home/apt,2008,$840 ,$168 ,2,34,12/31/2018,2.27,5,1,0,"Please remember that this is a residential building. The building rules, apartment occupancy restrictions and the year-round tenants must be respected.",
18181180,Master Garden Suite @ Northern Lights Mansion,42935535955,unconfirmed,Diane,Manhattan,Harlem,40.806459999999994,-73.9517,United States,US,True,moderate,Private room,2008,"$1,165 ",$233 ,2,0,,,3,2,192,"No shoes in the apartment, please",
18181732,Shabby Chic UES,4465430929,verified,Ellie,Manhattan,Upper East Side,40.7682,-73.95323,United States,US,True,moderate,Entire home/apt,2014,"$1,161 ",$232 ,1,3,7/8/2018,0.2,5,1,0,,
18182284,"Best Williamsburg, Brooklyn NY- 30 days or more",90383237614,verified,John,Brooklyn,Williamsburg,40.71032,-73.94806,United States,US,False,strict,Entire home/apt,2017,$325 ,$65 ,30,15,7/1/2019,1.03,2,2,55,,
18182837,Couch of your dreams,64448945267,unconfirmed,Yael,Manhattan,Harlem,40.82829,-73.94691,United States,US,True,strict,Shared room,2019,$82 ,$16 ,5,0,,,4,2,363,#NAME?,
18183389,"Cozy space with privacy near JFK, CASINO & NYC",37786740348,unconfirmed,Ling,Queens,South Ozone Park,40.67344,-73.82096,United States,US,False,moderate,Private room,2018,$434 ,$87 ,1,91,7/5/2019,5.95,2,1,90,,
18183941,1 Bedroom Elevator Building Apartment in SoHo,29876160534,unconfirmed,Chris,Manhattan,Nolita,40.72226,-73.99616,United States,US,True,strict,Entire home/apt,2010,"$1,064 ",$213 ,30,3,8/7/2018,0.2,2,1,0,,
18184494,Elegant shabby chic upper east side studio,87400247031,verified,Valerie,Manhattan,Upper East Side,40.77023,-73.95212,United States,US,False,flexible,Entire home/apt,2007,"$1,139 ",$228 ,2,6,4/26/2018,0.39,2,1,0,,
18185046,"Bright Brooklyn home on the park, private backyard",49754775526,verified,Allison,Brooklyn,Bedford-Stuyvesant,40.69017,-73.94825,United States,US,False,moderate,Entire home/apt,2004,$859 ,$172 ,3,5,11/25/2018,0.32,2,1,3,#NAME?,
18185598,Spacious Studio with a Big Balcony,61442842412,unconfirmed,Gregory,Manhattan,Upper East Side,40.76726,-73.96333,United States,US,True,flexible,Entire home/apt,2007,$170 ,$34 ,2,42,5/11/2019,2.81,2,1,81,I expect my guests to treat the space as  if it was their own house. Please keep it clean and organized when you leave the way it was.,
18186151,Cozy 1 bedroom apartment near JFK,73832854214,verified,Alisha,Queens,Jamaica,40.68055,-73.791,United States,US,False,flexible,Entire home/apt,2010,$208 ,$42 ,2,4,5/6/2018,0.26,3,1,0,"Please remember that this is a residential building. The building rules, apartment occupancy restrictions and the year-round tenants must be respected. ",
18186703,Harlem guest room!  Welcome to New York,4652918700,verified,Luke&Quincey,Manhattan,Harlem,40.814679999999996,-73.93735,United States,US,False,flexible,Private room,2010,$863 ,$173 ,2,1,5/29/2018,0.07,3,1,156,,
18187255,Sunny Family Apartment,41213053852,verified,Janelle,Brooklyn,Crown Heights,40.66749,-73.95555999999999,United States,US,True,flexible,Entire home/apt,2013,$820 ,$164 ,45,1,8/4/2018,0.09,4,1,2,,
18187807,Quiet Ground Floor Bedroom in Midtown West,23970746280,unconfirmed,Joe,Manhattan,Hell's Kitchen,40.76956,-73.98804,United States,US,True,flexible,Private room,2010,$800 ,$160 ,2,29,6/22/2019,2.03,4,4,43,,
18188360,Sunny Brooklyn Artist's Apartment,91606411424,verified,Lara,Brooklyn,Williamsburg,40.714259999999996,-73.9369,United States,US,True,flexible,Entire home/apt,2021,$320 ,$64 ,7,18,5/1/2019,1.31,3,1,0,,
18188912,Light Filled Room in Bedstuy!,60423260584,unconfirmed,Sacha,Brooklyn,Bedford-Stuyvesant,40.67941,-73.908,United States,US,True,moderate,Private room,2013,$524 ,$105 ,2,8,12/18/2018,0.67,2,1,0,,
18189464,2019 New York Marathon Weekend,35986328408,verified,Conchita,Manhattan,Midtown,40.76441,-73.98145,United States,US,True,strict,Entire home/apt,2007,$130 ,$26 ,3,1,11/5/2018,0.12,2,1,13,,
18190017,BEAUTIFULLY DESIGNED 2BD Brooklyn Apt +GREAT VIEWS,9677441946,verified,Margaret,Brooklyn,Boerum Hill,40.686690000000006,-73.98498000000001,United States,US,False,strict,Entire home/apt,2007,$548 ,$110 ,5,4,1/3/2019,0.27,3,1,0,,
18190569,Cozy Brooklyn Designer Apartment,32187928689,verified,Eleanor,Brooklyn,Carroll Gardens,40.68123,-73.99424,United States,US,False,moderate,Entire home/apt,2006,$475 ,$95 ,3,7,7/6/2019,0.47,4,1,0,,
18191121,Supersized UES Studio near all hospitals,92784829155,verified,Bernadette,Manhattan,Upper East Side,40.773590000000006,-73.94967,United States,US,False,moderate,Entire home/apt,2018,$391 ,$78 ,181,0,,,4,1,189,,
18191674,Luxury Studio in Hell’s Kitchen - In Unit W/D,1101617960,unconfirmed,Ashley,Manhattan,Hell's Kitchen,40.761790000000005,-73.99989000000001,United States,US,False,flexible,Entire home/apt,2021,$888 ,$178 ,20,4,9/28/2018,0.3,2,1,0,,
18192226,An Art Decor Inspired Urban Oasis,78824601724,verified,Christina Jo,Brooklyn,Prospect Heights,40.68215,-73.97001999999999,United States,US,False,moderate,Entire home/apt,2013,"$1,092 ",$218 ,2,9,6/30/2019,0.64,4,1,85,"Please remember that this is a residential building.  All building rules, hotel occupancy restrictions and year-round tenant must be respected.",
18192778,Cozy Modern Loft with Fireplace in West Village,25388931749,unconfirmed,Zani,Manhattan,West Village,40.73233,-74.00244,United States,US,False,strict,Entire home/apt,2013,$650 ,$130 ,10,17,6/13/2019,1.19,4,2,94,,
18193330,Great View of New York city,84719345841,verified,Jiangyang,Queens,Long Island City,40.75047,-73.9408,United States,US,True,moderate,Entire home/apt,2011,"$1,024 ",$205 ,1,0,,,3,1,0,NO Smoking,
18193883,Brooklyn Penthouse With Manhattan Views,63019629650,unconfirmed,Steve,Brooklyn,Williamsburg,40.711890000000004,-73.95355,United States,US,True,flexible,Entire home/apt,2016,"$1,186 ",$237 ,2,43,6/1/2019,2.8,5,1,102,No Smoking,
18194435,Das Bushwick Haus,72484389722,unconfirmed,John,Brooklyn,Bushwick,40.68261,-73.90714,United States,US,True,flexible,Private room,2022,$835 ,$167 ,6,1,6/16/2018,0.08,2,1,0,,
18194987,Bright Bohemian Treasure in Prospect Heights,92668793047,verified,Patti,Brooklyn,Prospect Heights,40.67942,-73.96469,United States,US,True,flexible,Private room,2021,"$1,191 ",$238 ,2,8,9/6/2018,0.53,5,2,0,"Please remember that this is a residential building. The building rules, apartment occupancy restrictions and the year-round tenants must be respected.",
18195540,Heart of Midtown Manhattan,59216918290,verified,Masa,Manhattan,Midtown,40.75359,-73.97028,United States,US,False,moderate,Entire home/apt,2021,$419 ,$84 ,3,48,6/28/2019,3.35,3,1,203,"No smoking, no pets. No jumping on bed or couch.  Used toilet paper, paper towel , and sanitary napkins need to be disposed in trash can not in toilet. Thank you for  treating my home with respect .",
18196092,Spacious 1st floor apartment.,3051986805,unconfirmed,Fernando,Queens,Jackson Heights,40.75436,-73.85696,United States,US,True,moderate,Entire home/apt,2003,$847 ,$169 ,2,46,6/25/2019,3.08,4,2,141,,
18196644,"LARGE COZY BASEMENT, FLUSHING QUEENS",19279401257,unconfirmed,Kevin,Queens,Flushing,40.757220000000004,-73.80595,United States,US,True,strict,Private room,2018,$102 ,$20 ,1,56,6/19/2019,3.75,5,3,345,,
18197197,Bedstuy Cozy Go Green,55368179092,unconfirmed,Kris,Brooklyn,Bedford-Stuyvesant,40.68374,-73.9456,United States,US,True,moderate,Private room,2011,$99 ,$20 ,1,114,6/23/2019,7.57,4,3,363,The bldg is business people. quiet. courteous. Check out is at Noon.  Check in is at 3pm. It's pretty strict except for leaving baggage. Strict cancellation.,
18197749,Pristine midtown studio for short-term sublet,91925742537,unconfirmed,Allen,Manhattan,Theater District,40.75897,-73.98318,United States,US,False,strict,Entire home/apt,2008,$439 ,$88 ,120,0,,,4,1,173,"Please remember that this is a residential building. The building rules, apartment occupancy restrictions, and the year-round tenants must be respected. There is no smoking allowed in the apartments and significant fees will apply if this rule is broken.",
18198301,One BDRM in Ridgewood,74274650158,verified,Sarah,Queens,Ridgewood,40.705940000000005,-73.91453,United States,US,False,flexible,Private room,2008,"$1,031 ",$206 ,1,6,4/25/2018,0.4,4,1,11,"Please remember that this is a residential building. The building rules, apartment occupancy restrictions and the year-round tenants must be respected.  Parties, pets and smoking are not allowed under any circumstances and incur significant fees.",
18198853,Cozy 1 Bedroom Apt~Midtown-East Manhattan NYC!,40456855837,unconfirmed,Kelley,Manhattan,Midtown,40.75523,-73.97104,United States,US,False,strict,Entire home/apt,2005,$261 ,$52 ,1,8,5/21/2019,1.13,4,1,29,,
18199406,You will LOVE my studio in West Village.,90678913116,verified,Mario,Manhattan,West Village,40.733540000000005,-73.99982,United States,US,False,flexible,Entire home/apt,2016,$958 ,$192 ,4,31,7/2/2019,2.14,3,1,10,,
18199958,NEW!!  Private room in the heart of Brooklyn,64609689981,verified,Tyrone,Brooklyn,Bedford-Stuyvesant,40.68853,-73.95982,United States,US,False,strict,Private room,2008,"$1,064 ",$213 ,2,33,3/6/2019,2.33,5,2,17,"* AGAIN FOR EMPHASIS ***** we aren't supposed to smoke in the building, but I do, and I don't mind if you do, too. ******* Folks with emotional or physical or psychosocial sensitivities or preconceptions surrounding tobacco use may wish to find different accommodations. The floor plan is fairly open and ventilation is good, but I'm sure it smells like smoke to those people who simply cannot stand the smell of smoke, and I don't want to hear it. This is a young neighborhood, and you may encounter some instances of behavior that could be construed as ""party"", I.e loud music, drinking, incoherent girls stumbling barefoot down the sidewalk while their dates retrieve their footwear and attempt to steer them towards home... The street has it's own security people and they don't take kindly to loiterers . They are, however, quite helpful in emergencies (most of the time).",
18200510,Luxury Triplex with Roofdeck,82855371191,unconfirmed,Tim,Brooklyn,Gowanus,40.68159,-73.98075,United States,US,True,strict,Entire home/apt,2016,$878 ,$176 ,2,3,4/3/2019,0.35,3,1,22,,
18201063,Room with a view,7815266113,verified,Farah,Manhattan,Upper West Side,40.77101,-73.98481,United States,US,False,flexible,Entire home/apt,2021,$839 ,$168 ,1,7,4/28/2018,0.46,4,1,0,,
18201615,"Living by the ocean, Brooklyn",17438275132,verified,Mira,Brooklyn,Brighton Beach,40.57721,-73.96076,United States,US,False,strict,Entire home/apt,2010,$588 ,$118 ,7,0,,,5,1,247,"This is a quiet, long-standing residential community.  Guests need to be respectful and gentle. ",
18202167,Private room in Clinton Hill,12928310423,verified,Grainne,Brooklyn,Bedford-Stuyvesant,40.69181,-73.95453,United States,US,False,flexible,Private room,2013,$393 ,$79 ,1,2,5/20/2018,0.14,3,1,0,,
18202720,King-Suite on Greene,47242619631,verified,Nate,Brooklyn,Bedford-Stuyvesant,40.68962,-73.93352,United States,US,False,flexible,Private room,2008,$233 ,$47 ,2,3,10/21/2018,0.29,2,4,54,"Please be respectful of other guests.  Keep the common areas clean and pick up after your self.  No loud music after 10 pm.  No pets. It is a safe neighborhood but please, keep doors locked for safety No smoking in the house (smoking is allowed on the front or back decks).",
18203272,**Budget Private Room w/Private backyard,98678126041,unconfirmed,Elsie,Brooklyn,Bushwick,40.688109999999995,-73.91219,United States,US,True,moderate,Private room,2014,$366 ,$73 ,2,30,5/10/2019,2.06,5,10,322,Absolutely no smoking/drugs Keep the place as clean as you found it Keep the noise down at night,
18203824,Charming mezzanine bedroom near Prospect Park,43405898307,unconfirmed,Marcus,Brooklyn,Sunset Park,40.66179,-73.99061999999999,United States,US,False,strict,Private room,2010,"$1,012 ",$202 ,2,37,5/18/2019,2.61,3,2,308,"No more than 2 guests will be staying in the apartment. We appreciate  clean and responsible guests.  Party is not allowed since this condo is mainly occupied by family home owners. But there are plenty of bars and restaurants to hangout in this neighborhood! Please check out the section for restaurant/bar recommendations. Smoking in the apartment is strictly prohibited, but you can smoke outside the main entrance of the building. Tuxie (a 5-month old black kitten) is the co-owner of this property. Only consider this place if you are a cat lover! You are more than welcome to pet him and play with him.  Although I love animals, but my cat Tuxie is likely to stressed out by other pets in the property. So unfortunately, bringing your pet is not allowed.",
18204376,Bed-Stuy Grove,73081193391,unconfirmed,Kris,Brooklyn,Bedford-Stuyvesant,40.68524,-73.94426999999999,United States,US,True,moderate,Private room,2015,$588 ,$118 ,1,85,6/19/2019,5.6,2,3,317,"This is a smoke-free house. Otherwise, we just ask you to be respectful and considerate of others.",
18204929,**Amazing Private Room 20 min to manhattan,67598452605,verified,Elsie,Brooklyn,Bushwick,40.68994,-73.91371,United States,US,False,strict,Private room,2019,$715 ,$143 ,2,41,6/24/2019,2.78,3,10,359,"No cigarettes, parties or pets. If you're looking to stay longer than a week, please contact me before instant booking. Treat others how you want to be treated. :)",
18205481,**Captivating Private Budget Room,63202698066,verified,Elsie,Brooklyn,Bushwick,40.68951,-73.91405,United States,US,False,flexible,Private room,2015,"$1,149 ",$230 ,2,29,5/11/2019,1.9,4,10,356,,
18206033,One of a Kind Chinatown 2BR Home w/ HUGE patio,27978162768,unconfirmed,Angie,Manhattan,Chinatown,40.7147,-73.99868000000001,United States,US,False,flexible,Entire home/apt,2010,$431 ,$86 ,7,2,10/15/2018,0.2,3,1,178,"- It is just the couch you will be sleeping on, but you will have access to the rest of the house i.e bathroom and kitchen. 3 of us live here and are very friendly! But as you can see from the pictures, our place is spacious. - We are not allowed to make extra copies of keys so you just need to coordinate with one us when you need to be let in. We are flexible and willing to accommodate you. Our place is meant for short visits, a few days tops so you don't have to pay crazy Boston hotel prices. -We provide clean sheets, a pillow, and blankets to make your stay as comfortable as possible -New Rule 7/27: I didn't realize how many bookings I would get, so I ask that you check in and check out before or at 10:00 AM on the days of your reservation. If other accommodations are needed, please contact me! If not, I will plan for a 10:00 AM arrival and a 10:00 AM departure. I'm very flexible and can wake up early or late to let you in, but I just need to know in advance!",
18206586,"Private Room in Bklyn, 1 min to J, Free Breakfast",85482450171,unconfirmed,Leesha,Brooklyn,Cypress Hills,40.68168,-73.87881999999999,United States,US,True,strict,Private room,2009,$804 ,$161 ,2,67,7/1/2019,4.59,2,2,295,"Please be respectful of other guests.  Keep the common areas clean and pick up after your self.  No loud music after 10:00PM.  It is a safe neighborhood but please, keep doors locked for safety No smoking in the house (smoking is allowed on the front or back decks).",
18207138,Family Room in Bed-Stuy,50570636819,unconfirmed,Kris,Brooklyn,Bedford-Stuyvesant,40.6856,-73.94388000000001,United States,US,False,flexible,Private room,2003,"$1,049 ",$210 ,1,75,6/23/2019,4.91,4,3,295,,
18207690,Wyndham Midtown 45 (2 Bedroom Presidential) 1A,28882640060,verified,Michael,Manhattan,Midtown,40.75383,-73.97278,United States,US,False,flexible,Entire home/apt,2007,$359 ,$72 ,3,28,3/17/2019,1.93,2,12,0,,
18208243,Queen Twin & Futon Ridgewood/Bushwick w View & Gym,77215801604,verified,Emilio,Queens,Ridgewood,40.70077,-73.90793000000001,United States,US,True,flexible,Private room,2008,$136 ,$27 ,1,3,4/15/2018,0.2,2,1,0,We have two kids. We will be respectful to Guests and expect you to be the same. Its a 3 floor house and we live in the top floor so you will have quiet time. Kids go to Daycare all day.,
18208795,"Private room in cozy apartment, Fort Greene",28259348563,unconfirmed,Alyssa,Brooklyn,Fort Greene,40.69461,-73.97225,United States,US,True,strict,Private room,2018,$615 ,$123 ,1,24,5/15/2019,2.18,4,2,0,Building rule - respect other rooms quiet and private period after 10pm during weekdays and 11pm for weekend,
18209347,Midtown Manhattan Apartment with Rooftop & Doorman,43771263413,verified,María José,Manhattan,Murray Hill,40.74803,-73.97282,United States,US,False,flexible,Entire home/apt,2020,$547 ,$109 ,3,0,,,3,1,0,"No pets.  No parties. No smoking. No alcohol consumption above 2 beers or the equivalent per night.  No loud music after 10pm, please, the building is full of Graduate students who study late at night.",
18209899,"5 Star Quiet, Spacious Condo. Freedom Tower view",6975816322,verified,Wyatt,Manhattan,Battery Park City,40.71085,-74.0158,United States,US,False,flexible,Entire home/apt,2013,$850 ,$170 ,2,20,6/23/2019,1.34,2,1,2,I ask to be respectful to neighbors.  To leave everything as it was when arrived.  Make yourself at home.,
18210452,Upper East Museum Roads,39095628656,verified,Maryse,Manhattan,Upper East Side,40.77456,-73.94601999999999,United States,US,False,flexible,Entire home/apt,2014,$902 ,$180 ,28,2,11/19/2018,0.23,5,1,278,"Please just keep your area reasonably clean and pick up after yourself.  Nothing special.  All the kitchen appliances that are there are available for your use.  Just wash your dishes and pick up any trash you have.   If anything gets dirty, no need to be embarrassed.  Just let us know so we can take care of it as soon as possible.   Also no smoking and no loud parties.  Come, enjoy yourself and have fun.",
18211004,"Huge, Clean Brooklyn Room with lots of light",5007507615,unconfirmed,Mellissa,Brooklyn,Bedford-Stuyvesant,40.68225,-73.9188,United States,US,False,strict,Private room,2015,$576 ,$115 ,2,47,7/1/2019,3.12,3,1,134,Please treat my home like your own and as you would expect me to treat yours.  Please smoke outside on the porch.  I do not allow pets.,
18211556,Renovated 1 BDR Apt~ Heart of Midtown Manhattan ❤️,68731072944,unconfirmed,Lynn Liz,Manhattan,Midtown,40.75592,-73.96956999999999,United States,US,False,strict,Entire home/apt,2019,$664 ,$133 ,2,54,6/20/2019,3.54,4,1,98,"No disturbance When talking on the phone, please do it in your room with door closed Please walk, don't run the stairs Close all doors gently please Recycling/trash put in separate bags (provided) Guest confirms he/she is a non-smoker No smoking anywhere in or out of the house No perfume/cologne, scented laundry detergent allowed Unscented product available No guests/visitors any time, no shared rooms (one person per room) Guests will be liable for any damages they cause Very light kitchen use Please conserve natural resources Stove cooking is not possible Misrepresentation will result in cancellation at your expense",
18212109,"Large studio in Williamsburg, 2B",83879254045,verified,Krzysztof,Brooklyn,Williamsburg,40.71972,-73.94462,United States,US,False,moderate,Entire home/apt,2018,$955 ,$191 ,30,5,5/17/2019,0.42,2,8,161,,
18212661,Williamsburg loft just 20 mins from manhattan!!!,15291853555,verified,Jimmy,Brooklyn,Greenpoint,40.725629999999995,-73.9556,United States,US,True,moderate,Private room,2008,$464 ,$93 ,1,57,6/29/2019,3.78,3,7,16,,
18213213,Beautiful East Village Room Open For You!,59813760834,unconfirmed,David,Manhattan,East Village,40.73045,-73.98066999999999,United States,US,False,moderate,Private room,2010,$626 ,$125 ,1,37,6/5/2019,2.55,5,1,128,"- We're on the top floor of a multi-family dwelling, we know you'll be respectful and kind to the families downstairs! - We love to read and play board games; we'd love to share our books and games with you, just make sure they go back where you found them. - We invite you to use our kitchen and we're happy to share basics like oil and spices but please provide your own groceries - you'll have your own shelf in the refrigerator. - You're welcome to bring friends back to hang out but we ask that no one that we aren't prepared for spend the night! - Please indulge in our living room's mini theatre system - hook up your computer or phone to the monitor and speaker system with our business speed wifi for a great viewing experience.",
18213766,Washington Heights,70144638309,unconfirmed,Anaiya,Manhattan,Washington Heights,40.83701,-73.94256,United States,US,False,strict,Private room,2022,$535 ,$107 ,1,3,4/29/2018,0.2,3,1,0,,
18214318,2BR 3BD 1.5BA | Rooftop & Balcony | Airport PickUp,68426214621,verified,Brian,Queens,Ridgewood,40.70653,-73.90876999999999,United States,US,False,flexible,Entire home/apt,2014,$229 ,$46 ,2,42,6/23/2019,3.44,4,2,108,Clean up after oneself Be respectful Be courteous of neighbors,
18214870,Bright & Cozy Studio in PRIME Flatiron/Chelsea,27720099915,verified,Christina,Manhattan,Chelsea,40.73836,-73.99566999999999,United States,US,False,strict,Entire home/apt,2004,$492 ,$98 ,2,12,6/6/2019,1.33,2,1,7,"Please just keep your area reasonably clean and pick up after yourself. Nothing special. All the kitchen appliances that are there are available for your use. Just wash your dishes and pick up any trash you have. If something has happened don't feel embarrassed, just let us know and we'll take care of it. Also no smoking and no loud parties. Come, enjoy yourself and have fun.",
18215422,Private  room in Manhattan NYC. Train a min away!,44656953278,unconfirmed,Juan,Manhattan,Harlem,40.82484,-73.93913,United States,US,True,strict,Private room,2009,$135 ,$27 ,1,7,6/22/2019,0.55,2,2,157,Please don't eat the food in the fridge.,
18215975,Entire Newly Renovated Sugar Hill Apt,98105821457,verified,Samantha,Manhattan,Harlem,40.82696,-73.94598,United States,US,False,strict,Entire home/apt,2003,$109 ,$22 ,3,6,1/4/2019,0.44,2,1,8,#NAME?,
18216527,Huge Modern High End 3BR Apt Prime Location,58131457276,unconfirmed,Lidor,Brooklyn,Fort Greene,40.68884,-73.97738000000001,United States,US,False,flexible,Entire home/apt,2003,$564 ,$113 ,1,6,11/23/2018,0.49,3,1,0,"No smocking inside, no party, no loud music after 11PM.",
18217079,Big Sunny Room 1 Block from Central Park,54268898427,unconfirmed,Calvin,Manhattan,East Harlem,40.79635,-73.94815,United States,US,True,moderate,Private room,2006,$505 ,$101 ,3,15,6/1/2019,1.25,5,1,88,No smoking indoors (a big porch with seating available for smokers)  Guests are expected to clean up after themselves in the bathroom and in the kitchen.,
18217632,Private Cozy Room on Manhattan,56779967134,unconfirmed,Lidziya,Manhattan,East Harlem,40.78719,-73.95201,United States,US,False,moderate,Private room,2009,"$1,047 ",$209 ,7,18,6/19/2019,1.25,4,1,45,,
18218184,Sunny Brooklyn Home Away From Home,72661461334,verified,Angela,Brooklyn,Bedford-Stuyvesant,40.67951,-73.94426,United States,US,False,strict,Private room,2016,"$1,105 ",$221 ,4,5,1/18/2019,0.35,3,1,0,Quiet building.,
18218736,Sun-drenched studio with a beautiful view,29880970767,verified,Julia,Manhattan,Harlem,40.82008,-73.95523,United States,US,True,strict,Entire home/apt,2018,$534 ,$107 ,5,1,8/25/2018,0.09,5,1,34,"This is my full-time residence, I appreciate that you treat the home as if it is your own. Please note that I have a dog and pets are allowed so if you have any Pet allergies no need to inquire. Please leave locked drawers and closets alone, all non-locked items as they were, and contact me immediately with any question or concerns. Please no open flames, candles, incense, etc. and no smoking.",
18219289,Spacious 1 bedroom in the clouds with river views,91834545335,unconfirmed,Courtney,Manhattan,Hell's Kitchen,40.77024,-73.99266,United States,US,True,flexible,Entire home/apt,2020,$90 ,$18 ,2,14,6/25/2019,0.95,4,1,87,Welcome to my home. I hope you will treat it as you would your own.,
18219841,Wyndham Midtown 45 (2 Bedroom Presidential) 8A,15780361644,verified,Michael,Manhattan,Midtown,40.753679999999996,-73.97317,United States,US,True,strict,Entire home/apt,2019,$242 ,$48 ,3,30,1/2/2019,2.07,3,12,0,,
18220393,Exquisite Park Slope Brownstone Apartment,4470598700,unconfirmed,Maureen,Brooklyn,Park Slope,40.670629999999996,-73.97825999999999,United States,US,False,flexible,Entire home/apt,2006,$968 ,$194 ,3,1,6/14/2019,1.0,4,1,65,,
18220945,Harlem hideout w/ great amenities!,44133939430,unconfirmed,Justin,Manhattan,Harlem,40.825990000000004,-73.95289,United States,US,False,flexible,Private room,2021,$303 ,$61 ,2,0,,,2,3,188,"We love guests who are respectful, clean up after themselves, and understand that we work from home so although we may be physically present in the home, we might be preoccupied with our work. No smoking or drugs of any kind, even outside. ",
18221498,"NYC room-cozy, basic, clean, cheap & close to all",341968581,unconfirmed,Kevin4,Queens,Elmhurst,40.737390000000005,-73.86991,United States,US,True,moderate,Shared room,2011,"$1,058 ",$212 ,1,21,6/16/2019,1.64,5,2,260,,
18222050,Modern Prospect Park 3 bedroom Jewel,50453459009,unconfirmed,Samantha,Brooklyn,Prospect-Lefferts Gardens,40.6559,-73.95852,United States,US,True,flexible,Entire home/apt,2014,$244 ,$49 ,4,58,6/21/2019,3.8,5,1,78,No Tobacco,
18222602,Two room suite 1min from subway 20min to Manhattan,40348959739,unconfirmed,Reina,Brooklyn,Bedford-Stuyvesant,40.68915,-73.95623,United States,US,False,moderate,Private room,2007,$645 ,$129 ,1,64,6/12/2019,4.33,2,7,278,,
18223155,Gorgeous Upper West Side apt in stellar location!,50927095664,verified,Josh & Carin,Manhattan,Upper West Side,40.77959,-73.97827,United States,US,False,strict,Private room,2009,$515 ,$103 ,2,29,11/20/2018,1.96,4,1,0,"• No parties or events • No smoking This is a smoke-free house but you are welcome o smoke on the balcony, Pleas keep it clean. If you have a pet please let me know and I would be happy to consider. I hope to make your stay as easy and comfortable as possible. Please email me  anytime if you have any questions!",
18223707,Spacious Room in Clinton Hill Duplex,51734167917,verified,Diana,Brooklyn,Bedford-Stuyvesant,40.69079,-73.95934,United States,US,False,flexible,Private room,2017,$782 ,$156 ,2,1,4/10/2018,0.07,2,2,0,"No smoking, no parties, and no pets, please!",
18224259,Spacious Room in Clinton Hill/Bed-Stuy,65569503062,unconfirmed,Diana,Brooklyn,Bedford-Stuyvesant,40.68993,-73.95947,United States,US,True,moderate,Private room,2020,"$1,088 ",$218 ,2,0,,,2,2,0,,
18224812,Private bedroom in Downtown Manhattan,64590899852,verified,Maya,Manhattan,SoHo,40.72741,-74.0088,United States,US,False,moderate,Private room,2021,"$1,125 ",$225 ,1,61,5/31/2019,4.11,2,1,8,"Non-smoker only Perfume/cologne/scented product not allowed Mild scent deodorant OK but no sprays If guest cases damages, the host can claim under the law of MA",
18225364,Large Gorgeous BR in Artist Loft - BEST Location!!,49822917602,verified,Miley,Manhattan,Hell's Kitchen,40.75423,-73.99461,United States,US,True,strict,Private room,2011,$891 ,$178 ,1,75,6/23/2019,4.93,5,1,134,,
18225916,Diamond in the Art of Bushwick 1 block to M Subway,75714929064,verified,Megwyn,Brooklyn,Bushwick,40.70081,-73.92494,United States,US,False,flexible,Private room,2015,$414 ,$83 ,3,55,6/27/2019,3.67,2,2,12,"Please be respectful of other guests.  Keep the common areas clean and pick up after your self.  No loud music after 10:00PM.  It is a safe neighborhood but please, keep doors locked for safety No smoking in the house (smoking is allowed on the front or back decks).",
18226468,AMAZING CITY VIEWS! New Jersey 15 min Times Square,77999253949,unconfirmed,Emily,Manhattan,Hell's Kitchen,40.76127,-74.00235,United States,US,False,moderate,Entire home/apt,2020,"$1,089 ",$218 ,3,36,6/23/2019,2.93,4,2,109,"- Clean up after yourself, be respectful, and there will be no problems!",
18227021,**Enormous Budget Private Room,4046608172,verified,Elsie,Brooklyn,Bushwick,40.68936,-73.91369,United States,US,True,strict,Private room,2003,"$1,086 ",$217 ,2,40,6/4/2019,2.65,4,10,343,,
18227573,Prospect Heights Paradise,81447402427,verified,Patti,Brooklyn,Prospect Heights,40.679990000000004,-73.96462,United States,US,False,flexible,Entire home/apt,2003,"$1,162 ",$232 ,7,17,6/28/2019,1.22,2,2,129,"No drugs, smoking, or guests. Keep the tv volume down when roommates are sleeping. I will only accept offers from guests with previous reviews.",
18228125,Class on Wall Street,50000278348,unconfirmed,Rachel,Manhattan,Financial District,40.703990000000005,-74.00827,United States,US,True,moderate,Private room,2007,$589 ,$118 ,2,1,4/7/2018,0.07,4,1,0,,
18228678,Bright apt w Balcony in the heart of williamsburg,25875866615,unconfirmed,Ayelet,Brooklyn,Williamsburg,40.71417,-73.9591,United States,US,False,strict,Entire home/apt,2007,$390 ,$78 ,5,20,1/1/2019,1.43,5,1,0,"Please keep shoes off while inside. Food should be kept in the kitchen/dining area. Be mindful of our great neighbors and keep noise to a reasonable level. No pets or smoking, please!",
18229230,Traditional Townhouse in Bushwick,53436175592,unconfirmed,Martin,Brooklyn,Bushwick,40.68269,-73.90911,United States,US,True,flexible,Entire home/apt,2009,$909 ,$182 ,5,0,,,5,2,0,"This is two bedroom located in the heart of Brighton. It takes you to downtown by T within 20 minutes. The T is super close. The house rules are kind of very simple so please no smoking inside the house. No additional guest ($20 USD will be charged for per person if you have your guests) +Kitchen: If you cook, please clean up after yourself. I will provided everything like pans, pots, dishes, utensils, etc +Bathroom: I will be providing  towels and shampoo. But no toothpaste and toothbrush.  One more thing, time to check in is 3PM and check out time 12PM. Please shoes off in the house.",
18229782,Newly Remodeled 2 Bedroom Apartment in East Harlem,17871995243,verified,Ty,Manhattan,East Harlem,40.790459999999996,-73.94436,United States,US,True,strict,Entire home/apt,2018,$958 ,$192 ,1,0,,,5,3,0,"Please keep the apartment clean for the next guest. Remove the trash to the dumpster, take the bed linen off the bed and drop into the laundry basket in the restroom. There's a coin operated laundry on the same floor. $1.75 washer and $0.75 drier. You can find the detergent in the small closet by the front door. feel free to use the laundry room if you need to. Thank you and have a nice stay in Boston",
18230335,Private Bedroom w/ Private Entrance-Williamsburg!,10562106466,verified,Jenn,Brooklyn,Williamsburg,40.70949,-73.94892,United States,US,True,moderate,Private room,2005,$932 ,$186 ,4,25,5/13/2019,1.64,4,1,48,,
18230887,Luxury High Floor Studio with stunning view,12342890719,unconfirmed,Mat,Manhattan,Upper West Side,40.79446,-73.96651,United States,US,True,strict,Entire home/apt,2008,$301 ,$60 ,30,3,6/1/2019,0.21,3,10,311,"A few totally painless house rules:  - Please take your shoes off once inside the apartment. My apartment is kept very clean and tidy, so taking shoes off is essential to keeping it the same way for you and for me. - Kitchen is available for ""light use"" and ""vegetarian"" food only. You are free to bring in outside cooked food/meat. Please stack the dishes in the dishwasher to the left of the sink. Keep the kitchen and counters clean immediately after use. Food should be consumed only in the dining area and not in the room. - When leaving the apartment, please always lock the top lock on the door, shut off all the lights before you leave, if you open windows, please close and lock them before you leave the apartment. - Quiet time after 10pm. - NO SMOKING IN THE APARTMENT (You can smoke in the balcony area)!  - SADLY NO PETS!! - ABSOLUTELY NO PARTIES!!!",
18231439,Spectacular 1-Bedroom modern apartment in Flatiron,45358834280,verified,Santiago,Manhattan,Midtown,40.743829999999996,-73.98387,United States,US,True,moderate,Entire home/apt,2020,$740 ,$148 ,7,1,1/2/2019,0.16,4,1,0,Please leave shoes at the front door. Guests should wash dishes after using them and clean the stove after each use.  Please keep common areas clean (especially the bathroom).  Do not leave towels lying around (either hang on the rack in the bathroom or in the closet) Do not make noise after midnight.  No additional guests,
18231991,NYC experience,33038314833,verified,Carlos,Brooklyn,Bushwick,40.69355,-73.91829,United States,US,False,strict,Private room,2005,$124 ,$25 ,7,7,8/22/2018,0.5,5,2,365,#NAME?,
18232544,3 QUEEN size lofts in Williamsburg/grrenpoint!!!,39748387100,unconfirmed,Jimmy,Brooklyn,Greenpoint,40.72552,-73.95647,United States,US,False,flexible,Private room,2019,$527 ,$105 ,1,8,11/11/2018,0.53,4,7,14,"Please be respectful of other guests.  Keep the common areas clean and pick up after your self.  No loud music after 10:00PM.  It is a safe neighborhood but please, keep doors locked for safety No smoking in the house (smoking is allowed on the front or back decks).",
