id,NAME,host id,host_identity_verified,host name,neighbourhood group,neighbourhood,lat,long,country,country code,instant_bookable,cancellation_policy,room type,Construction year,price,service fee,minimum nights,number of reviews,last review,reviews per month,review rate number,calculated host listings count,availability 365,house_rules,license
11274116,Spacious 1 bedroom with Private Deck with Grill,94779350927,unconfirmed,Marcus,Brooklyn,Kensington,40.64535,-73.9738,United States,US,False,moderate,Entire home/apt,2004,$924 ,$185 ,3,2,11/15/2016,0.06,5,1,0,No smoking. No pets allowed in the building. Quiet hours apply.,
11274668,Gorgeous Brooklyn Studio Apartment,44618154270,verified,Abe,Brooklyn,Prospect-Lefferts Gardens,40.66349,-73.94221999999999,United States,US,True,strict,Entire home/apt,2019,$295 ,$59 ,28,9,4/28/2019,0.26,1,1,219,"This is my apartment that I rent out when I'm away; I ask that you treat my things as you would yours and leave it as you found it.  There is no smoking in the apartment as well as no pets. - Please be quiet in the hallway/stairs - I live in a small apartment building (5 apartments) and all of my neighbors are very quiet and polite so please reciprocate. - No overnight guests that are not on the reservation/have not been agreed upon in advance. - No smoking in the apartment, out the window, etc.   -Please be mindful of shutting off lights when not in use/when leaving the apartment. -If you cook please take care of your dishes (you can use the dishwasher). ",
11275221,Amazing Luxury located in the Middle of Manhattan!,74199350848,verified,Gene,Manhattan,Theater District,40.76112,-73.98473,United States,US,False,moderate,Private room,2014,$288 ,$58 ,5,91,7/2/2019,2.63,5,1,143,"Since I actually live here for part of the time, the closet space is off limits. Please no shoes in the house!",
11275773,Cozy Studio in Midtown,781818400,unconfirmed,Shruti,Manhattan,Murray Hill,40.74993,-73.977,United States,US,True,strict,Entire home/apt,2008,$654 ,$131 ,2,32,6/19/2019,0.91,3,1,0,Please be respectful of the space and building!  No loud noises or extra guests beyond 10pm.,
11276325,Friendly and well-located place to get away,87562600107,unconfirmed,Tristan,Brooklyn,Park Slope,40.6681,-73.97726,United States,US,False,moderate,Shared room,2007,$476 ,$95 ,1,46,2/3/2018,1.38,2,2,0,,
11276878,Lovely Bijou!! 5MIN.to MANHATTAN,75744858829,unconfirmed,Nika,Queens,Long Island City,40.74493,-73.94679000000001,United States,US,False,flexible,Private room,2011,"$1,075 ",$215 ,1,86,6/19/2019,2.63,1,2,337,,
11277430,Surfside Studio,16827611920,verified,Melissa,Queens,Rockaway Beach,40.58634,-73.81867,United States,US,False,strict,Entire home/apt,2003,$226 ,$45 ,1,144,7/7/2019,4.13,1,2,134,Absolutely no parties are permitted. The apartment is in a multi-unit building so guests must be respectful of other tenants in the building.,
11277982,1 Person Only 1 Bdrm LES/East Village HugeDeck,70106036500,verified,Raymond,Manhattan,Lower East Side,40.72163,-73.98715,United States,US,True,moderate,Private room,2006,"$1,069 ",$214 ,2,165,6/17/2019,4.77,2,2,2,"No Smoking on the apartment.  No Ilegal Drugs  No Parties on property. No pets PLEASE TRY  TO BE AS QUIET AS POSSIBLE CONSIDER OTHER NEIGHBORS OR TENANTS. THANK YOU IN ADVANCE!. Reiterating what's below>>> No parties!  No loud noises, please! - realize that there are other guests (and especially residents) like you in the building that may in fact want to get sleep on a regular basis (sometime between the hours of 10pm and 7am, probably!)  During the day, jumping jacks are probably ok. If you have any problems or if neighbors complain call me at (phone number hidden) and mediate over the phone or in person.   Hull st. court apartment rules: 0.  Absolutely NO smoking in the apartment or  building.  Anyhow if you need to, please do go out to Hull street and people watch while smoking. The North end has multiple cigar bars, too! 1.  Most important, please, No Parties = be quiet, use ""indoor voices"" like they taught us in grade school!  Also, keep the stereo at a reasonable level, etc.   I",
11278534,"Bright, Modern, Safe, Clean Apartment in Astoria",91936917701,unconfirmed,Savannah,Queens,Astoria,40.76137,-73.91109,United States,US,False,strict,Entire home/apt,2009,$516 ,$103 ,2,0,,,4,2,363,We expect from you just to respect the basic rules: no smoking and being careful with the house furniture and things.,
11279087,A Warm Friendly Host for Everlast,46098685570,unconfirmed,Rahim,Manhattan,Inwood,40.86238,-73.92806,United States,US,True,flexible,Entire home/apt,2021,$672 ,$134 ,3,0,,,5,1,0,"Respect my home, space and belongings.  Absolutely no smoking allowed in the unit.   Please respect my neighbors by keeping the noise levels to a minimum, particularly between the hours of 10pm-7am.  Enjoy your stay in Boston, fall in love with my city and make yourself at home!!",
11279639,"Home Base, Minutes to Manhattan!!!",17630919517,unconfirmed,Angelika,Brooklyn,Bedford-Stuyvesant,40.69532,-73.94407,United States,US,False,strict,Entire home/apt,2018,$632 ,$126 ,2,133,6/24/2019,3.83,4,1,178,"No smoking, no loud music after 11pm.",
11280191,Sunny huge FiDi loft w water views,21685339295,verified,Julia,Manhattan,Financial District,40.70483,-74.01545,United States,US,False,strict,Entire home/apt,2005,$389 ,$78 ,4,17,6/8/2019,0.67,2,1,203,"WHEN BOOKING, PLEASE PROVIDE THE FOLLOWING IN YOUR MESSAGE to me:  - 1. Total number of guests (adults, children, babies)? Are there any elderly or children under 18? If so, what are their ages?  - 2. Arrival Date AND Time of Check In? (Check In between 2 pm and 9 pm with some leniency)  - 3. Departure Date (Check out before 12 pm/noon ideally)  - 4. Please tell me a little about yourselves and the purpose of your trip. - 5. What Other Needs or Special Requests or Extra Options (please read below for additional options and possible related additional fees).  ------  PLEASE NOTE THE FOLLOWING BEFORE REQUESTING A BOOKING:  * I will reply as soon as possible to let you know if my apartment will be available for ALL your needs.  - 1. We are happy to host Friendly, Neat, Low-Maintainence Adults & Well-Behaved Children.  ---- All cookware and utensils in the kitchen are at your disposal, but please ask about food before eating as this is my home and I may be saving something. There will be w",
11280744,Comfortable place for short term stay.,50280101711,unconfirmed,Samuel,Brooklyn,East Flatbush,40.65446,-73.92613,United States,US,False,strict,Shared room,2005,"$1,122 ",$224 ,100,1,10/10/2016,0.03,5,1,0,,
11281296,Williamsburg Dream Loft,52927199776,verified,Itay,Brooklyn,Williamsburg,40.70774,-73.94819,United States,US,False,strict,Private room,2005,$235 ,$47 ,2,157,7/1/2019,4.54,1,1,68,"Please remember that this is a residential building. The building rules, apartment occupancy restrictions, and the year-round tenants must be respected. There is no smoking allowed in the apartments and significant fees will take place if occurs.",
11281848,Upper Manhattan,77923264712,unconfirmed,Orquid,Manhattan,Inwood,40.86438,-73.92787,United States,US,False,flexible,Private room,2013,$178 ,$36 ,1,0,,,1,2,365,No Smoking on the apartment.  No illegal  Drugs  No Parties on property. No pets PLEASE TRY  TO BE AS QUIET AS POSSIBLE CONSIDER OTHER NEIGHBORS OR TENANTS. THANK YOU IN ADVANCE!.,
11282401,Beautiful Apartment in the Heart of Harlem,57149358060,verified,Wendell,Manhattan,Harlem,40.82315,-73.93726,United States,US,True,strict,Private room,2020,$746 ,$149 ,3,86,6/18/2018,2.47,5,2,38,"Please, no smoking, and treat our home like your home.",
11282953,Perfect master bedroom in Brooklyn garden duplex,26500460085,verified,Laurel,Brooklyn,Bushwick,40.69174,-73.91141,United States,US,False,moderate,Private room,2009,$98 ,$20 ,3,3,7/25/2018,0.16,2,2,332,"No smoking or loud parties inside the apartment. As long as you are respectful, and do not cause any damage to the property or make too much noise to disturb me or the neighbors, you will be fine!",
11283505,"Spacious bedroom in Greenpoint, Brooklyn",4280804774,unconfirmed,Ashli,Brooklyn,Greenpoint,40.733740000000004,-73.95617,United States,US,False,strict,Private room,2014,$832 ,$166 ,20,3,8/29/2016,0.09,2,1,0,"I only accept clean people , reliable, no smokers. no alchool or drug tollerated.",
11284057,20-25 minutes to downtown NYC/30-40 to midtown,95319974300,unconfirmed,Alan,Brooklyn,Bedford-Stuyvesant,40.69625,-73.93696,United States,US,False,moderate,Private room,2012,"$1,078 ",$216 ,30,85,5/5/2019,2.45,2,4,232,"-  1.Guest(s) agree to NO PARTIES anywhere on the property. Legal action will be taken for parties that cause damages to the unit, property, reputation, or relationship with building staff or other residents.  2.Smoking of any kind is not permitted in the unit or on the premises. Fee for smoking will be 10 times your total reservation cost. For example, your total reservation cost is $350. Fee for smoking on premises will be $3,500. 3.Guests agree to abide by maximum occupancy of unit, and observe quiet hours between 9pm and 9am  4.Guests are responsible for action of ALL GUESTS occupying their unit at all times.  5.Guests agree to return all keys, remotes. Replacement fees may apply for unreturned items  6.Guests understand that onsite building staff (maintenance and concierge) are not affiliated with AIRBNB. Please contact me directly for any needed items.  7.Guests understand that no pets are to be in the unit.  8.Guests agree to pay replacement cost for any unreturned items, and $6",
11284610,Large room in Bushwick Loft!,50587617363,verified,Anna,Brooklyn,Williamsburg,40.70525,-73.93281,United States,US,True,moderate,Private room,2017,$918 ,$184 ,1,16,3/25/2018,0.51,1,1,0,Guests only have access to the first floor bedroom and bathroom.  The rest of the house is off limits.  Guests who stay a week or more may use the laundry in the basement for free.  Please do not apply hair or beard dye in the bathroom as it was recently renovated.  Please feel free to send me any special requests and I will try to honor them.,
11285162,20-25 minutes to downtown NYC/30-40 to midtown,76263064419,verified,Alan,Brooklyn,Bedford-Stuyvesant,40.69784,-73.93694,United States,US,True,flexible,Private room,2012,$364 ,$73 ,30,84,4/20/2019,2.53,4,4,284,"This apartment is in a 3 families residential building, there is a no smoking and no drug policy, and the occupants should be concerned with common courtesy and no noises after 9.30-10 pm. No parties are allowed.  We will meet you when you arrive at the building with the keys and will explain anything else you might like to know.  We look forward to meeting you.   ",
11285714,Stellar Midtown Apt Extended Stay,85856607847,verified,Corporate Housing,Manhattan,Hell's Kitchen,40.76142,-73.99248,United States,US,False,moderate,Entire home/apt,2004,$893 ,$179 ,30,2,10/31/2018,0.15,3,91,4,,
11286267,Midtown 3 BR Elevator - Best Location,94294557250,unconfirmed,Corporate Housing,Manhattan,Hell's Kitchen,40.760709999999996,-73.99032,United States,US,False,strict,Entire home/apt,2020,$457 ,$91 ,30,4,3/31/2019,0.21,5,91,138,"The usual: no smoking, no parties, no pets (sadly)! Please remove shoes upon entering the apartment, and be mindful of neighbors. It's a quiet building at any hour of the day, so do try to preserve the status quo. Thank you!",
11286819,Brooklyn Duplex in a beautiful brownstone,58166849463,unconfirmed,Shay & Anat,Brooklyn,Bedford-Stuyvesant,40.69173,-73.95885,United States,US,False,moderate,Entire home/apt,2007,$243 ,$49 ,2,33,6/9/2019,1.08,5,1,255,,
11287371,Spacious studio in amazing location,55721410315,verified,Sara,Manhattan,Gramercy,40.737109999999994,-73.98573,United States,US,False,flexible,Entire home/apt,2006,$537 ,$107 ,5,7,7/5/2018,0.2,5,1,0,As if it were your own home!,
11287924,"3-Bedroom Apartment, 10 Minutes from Manhattan",3141257966,verified,Jason,Queens,Astoria,40.755390000000006,-73.91709,United States,US,False,strict,Entire home/apt,2022,$479 ,$96 ,30,7,4/4/2019,0.23,5,8,241,,
11288476,Swimming Pool! 2 Bed 2 bath Amazing Layout!5143,25585072802,verified,Jeremy & Laura,Manhattan,Upper West Side,40.79371,-73.96708000000001,United States,US,True,flexible,Entire home/apt,2009,$462 ,$92 ,30,2,4/1/2018,0.06,1,96,250,#NAME?,
11289028,Massive Brownstone Close to Express Trains,12013852637,verified,Milton,Manhattan,Harlem,40.8305,-73.9437,United States,US,False,flexible,Private room,2013,"$1,120 ",$224 ,2,38,1/1/2019,1.09,4,1,0,#NAME?,
11289580,Clean & Amazing Semi Private NYC Room by #1 Train,43436255914,unconfirmed,Jovanni & Natasha,Bronx,Fieldston,40.89581,-73.89778000000001,United States,US,False,strict,Private room,2022,"$1,153 ",$231 ,2,7,4/17/2017,0.21,1,2,0,No smoking and no parties,
11290133,Inwood Manhattan everything close!!,30947187881,verified,Waldy,Manhattan,Inwood,40.86763,-73.91792,United States,US,False,strict,Private room,2021,$284 ,$57 ,3,83,5/31/2019,2.39,2,1,300,"There are still some older people in this neighborhood and it should go without saying it is important to have respect for the locals.  No smoking, & no parties!",
11290685,Private Ground Floor Studio Apartment Near JFK/LGA,11831199558,unconfirmed,Shanie,Queens,Jamaica,40.69961,-73.81264,United States,US,False,strict,Entire home/apt,2018,"$1,076 ",$215 ,1,79,7/1/2019,3.01,5,2,63,"Absolutely, No Smoking, No parties.",
11291237,Central Park Slope Garden Apartment,18197255634,unconfirmed,Declan,Brooklyn,Park Slope,40.66894,-73.98516,United States,US,True,flexible,Entire home/apt,2017,$352 ,$70 ,4,33,11/19/2018,0.96,5,1,159,No pets and no smoking. Please place all of your dishes in the dishwasher.,
11291790,Cozy & Affordable Room for 2,86631254386,verified,Via,Brooklyn,Sheepshead Bay,40.58615,-73.94784,United States,US,False,strict,Private room,2013,$926 ,$185 ,1,13,7/30/2018,0.38,1,1,332,,
11292342,Breathtaking City Views 3 Bed Apt. in Lincoln Sq!,55756832215,unconfirmed,Henry,Manhattan,Upper West Side,40.7791,-73.98182,United States,US,True,flexible,Entire home/apt,2010,"$1,033 ",$207 ,30,8,12/10/2016,0.24,2,11,365,No pets  No smoking  No loud partying in the space,
11292894,20-25 minutes to downtown NYC/30-40 to midtown,43947434188,verified,Alan,Brooklyn,Bedford-Stuyvesant,40.695679999999996,-73.93384,United States,US,True,flexible,Private room,2020,$122 ,$24 ,30,97,5/4/2019,2.79,5,4,312,"PLEASE  NOTE: • 6.25% MA State Sales Tax is already incorporated into the room rate and extra guest fees. • The total listed as the cleaning fee is comprised of a $119 cleaning fee and a $39 damage protection plan which provides $3,000 worth of coverage for accidental damage to the property during the stay. There is no smoking allowed in the boat. Use of illegal substances will be cause for immediate termination of the rental and reported to the police. All pets must be on a leash when outside the boat.  Quiet hours are between 9:30pm and 8am.  Noise must be kept to a minimum during this time period.",
11293447,Large bedroom in Luxury bldg West Harlem,32508597678,verified,Laura,Manhattan,Harlem,40.82483,-73.95394,United States,US,True,moderate,Private room,2011,$880 ,$176 ,14,25,6/5/2019,0.75,4,1,6,,
11293999,Modern furnished 2-Bedroom NYC Apartment!,58629775922,unconfirmed,Kara,Manhattan,Hell's Kitchen,40.76025,-73.99811,United States,US,True,strict,Entire home/apt,2020,$647 ,$129 ,30,3,11/15/2018,0.1,1,121,185,"Please Note: This unit was just renovated in August 2015 and it comfortably accommodates one to three guests, but up to 4 guests are permitted if you so desire (two guests in the bedroom, 1 guest on the available twin air mattress and 1 guest on the couch). Please request an air mattress (if needed) when making a reservation. No smoking, no pets, no parties, and must be 25 years old to book.   For check-out, please ensure: -  All plates and cups are left in the sink or dishwasher -  All trash is left in the kitchen trash can or bagged and left next to the trash can (additional bags are under the sink) -  All windows are closed and locked -  If used, the air mattresses are deflated and put away (please leave used linens for the air mattresses on the floor) -  If furniture was moved during your stay, please return to its original location Please be mindful to our neighbors in the building; quiet hours after 10pm. Please be considerate of our next guests who will be staying after you, if ",
11294551,Modern Studio Apartment in perfect location!,22502562360,unconfirmed,Haley,Brooklyn,Prospect-Lefferts Gardens,40.65549,-73.96183,United States,US,False,flexible,Entire home/apt,2015,$510 ,$102 ,3,1,10/7/2016,0.03,2,1,83,"Although we understand the wear and tear that little ones make, we expect that all messes will be cleaned up as they happen and you will be respectful of the neighbors.",
11295103,Cozy Private Bedroom and Bathroom in Brooklyn,42906015596,verified,Sarah,Brooklyn,Bedford-Stuyvesant,40.68179,-73.95251999999999,United States,US,False,strict,Private room,2016,"$1,001 ",$200 ,3,67,6/22/2019,1.95,2,1,70,"I own a dog, but she will not be present for your stay.",
11295656,Bensonhurst Gem,47375183393,unconfirmed,Tuan-Phi,Brooklyn,Bensonhurst,40.607490000000006,-73.99225,United States,US,True,moderate,Entire home/apt,2020,$977 ,$195 ,1,1,8/28/2016,0.03,5,1,0,"This is our home, so please treat it kindly and respect our personal property.",
11296208,An Apartment for Families near by Tom's Restaurant,64124678664,unconfirmed,Mustafa,Manhattan,Morningside Heights,40.80429,-73.96499,United States,US,False,flexible,Entire home/apt,2017,$305 ,$61 ,2,2,9/10/2016,0.06,5,1,0,,
11296760,Artist Loft w/ AMAZING views of Manhattan,78918222575,unconfirmed,Tracie,Brooklyn,Greenpoint,40.7272,-73.94374,United States,US,True,flexible,Private room,2009,$546 ,$109 ,14,4,8/15/2018,0.12,2,1,17,"No smoking, no pets, no parties please. Respect property and neighbors.",
11297313,Hamilton Heights Sunny Bedroom,94697488809,verified,Laura,Manhattan,Harlem,40.82475,-73.9507,United States,US,True,flexible,Private room,2022,$586 ,$117 ,1,4,8/20/2017,0.16,3,1,0,"Please Note: This unit was just renovated in 2015 and it comfortably accommodates four guests, but up to 6 guests are permitted if you so desire (two guests in each bedroom and 2 guests on the two available twin size air mattresses). Please request an air mattress(es) (if needed) when making a reservation. No smoking, no pets, no parties, and must be 25 years old to book.   For check-out, please ensure: -  All plates and cups are left in the sink or dishwasher -  All trash is left in the kitchen trash can or bagged and left next to the trash can (additional bags are under the sink) -  All windows are closed and locked -  If used, the air mattresses are deflated and put away (please leave used linens for the air mattresses on the floor) -  If furniture was moved during your stay, please return to its original location Please be mindful to our neighbors in the building, quiet hours after 10pm is not a must, but a nice gesture. Please be considerate of our next guests who will be staying ",
11297865,"sunny airy bohemian rm, private bath! hip 'shwick",63184081136,verified,Theodora,Brooklyn,Bushwick,40.7014,-73.91798,United States,US,False,strict,Private room,2013,$592 ,$118 ,2,4,4/30/2018,0.12,4,1,0,"No smoking and no pets, no parties.",
11298417,Beautifu large studio in the heart  of Manhattan,43409270934,unconfirmed,Roberto,Manhattan,Midtown,40.75797,-73.97004,United States,US,False,moderate,Entire home/apt,2015,$536 ,$107 ,7,29,6/22/2019,0.86,1,1,31,No smoking.,
11298970,"COZY KING SIZE BED, NEAR AIRPORTS",18471619985,verified,Zhur,Queens,Richmond Hill,40.69621,-73.84532,United States,US,False,moderate,Private room,2016,$498 ,$100 ,2,8,12/23/2018,0.23,5,2,337,,
11299522,"HUGE ROOM,PRIVATE BATH FORT GREENE/CLINTON HILL",78988009120,verified,Jason,Brooklyn,Clinton Hill,40.68548,-73.96625,United States,US,False,moderate,Private room,2011,$599 ,$120 ,4,2,11/7/2016,0.06,1,1,0,Please leave the studio in the condition as in arrival. Please turn off lights and heat/air when exiting. Please lock both top and bottom locks. Please feel free to call or text me with questions or concerns.,
11300074,PRIME WILLIAMSBURG ROOM. ONE STOP FROM MANHATTAN,39838243628,unconfirmed,Valentina,Brooklyn,Williamsburg,40.71906,-73.95725999999999,United States,US,False,moderate,Private room,2005,"$1,106 ",$221 ,1,35,6/23/2019,1.01,3,1,247,,
11300626,"Large private room in Astoria, 20 mins to mid-town",51235785694,unconfirmed,Summer,Queens,Ditmars Steinway,40.773920000000004,-73.91678,United States,US,False,moderate,Private room,2018,$492 ,$98 ,2,10,8/8/2018,0.46,3,1,0,"Please no smoking or pets. You are welcome to use our cookware, dishes and utensils. We just ask that you are respectful of the things in the apartment. ",
11301179,Beautiful loft apt. on quiet Bed-Stuy block,14792655018,verified,Valentina,Brooklyn,Bedford-Stuyvesant,40.68112,-73.9302,United States,US,False,moderate,Entire home/apt,2015,$401 ,$80 ,3,59,6/22/2019,1.73,5,1,57,,
11301731,Bushwick Suite,40860716384,unconfirmed,Dee,Brooklyn,Bushwick,40.68891,-73.92084,United States,US,False,strict,Private room,2013,$851 ,$170 ,1,6,11/28/2018,0.17,2,2,0,"I expect my guests to be respectful of me, my space and my belongings. I am pretty laid back, but a few things to note: - No pets - No smoking or drugs - Please don't eat my food without my permission (but you can store stuff if you want!) - Feel free to text me if you need to get ahold of me for any reason. - If you leave something behind, I don't have a problem trying to get it back to you, but it will be on your dime. - No more than two guests, please! - Please keep loud noise to a minimum. - Please respect my privacy if I go into my room.",
11302283,Sunny room in PRIME Brooklyn!,85973100342,verified,Jessica,Brooklyn,Bushwick,40.70497,-73.9233,United States,US,True,flexible,Private room,2016,$139 ,$28 ,4,3,9/23/2018,0.09,1,1,0,"Please don't be loud or disrespectful, this is a fun neighborhood, but also a family neighborhood.  If you use any food/Beverage/Alcohol, please replace.",
11302836,Big bedroom in the heart of Greenpoint,62584599575,unconfirmed,Nathaniel,Brooklyn,Greenpoint,40.73271,-73.95536,United States,US,True,strict,Private room,2003,"$1,141 ",$228 ,4,1,9/14/2016,0.03,5,1,0,"Being clean and respectful of our apartment, the building and it's tenants is our number 1 ""rule"". Other than that, no pets or smoking allowed. We also ask you be mindful of our furniture, and use the coasters given. There will be a $25 fee if we find watermarks and extensive scratches. We will have before photos for guests to sign off on, insuring that we will not place blame on guests for marks previously on furniture.  ",
11303388,Cozy studio In Bed Stuy Brooklyn,25055817964,verified,Rodney,Brooklyn,Bedford-Stuyvesant,40.68253,-73.9501,United States,US,False,flexible,Entire home/apt,2017,$555 ,$111 ,1,31,9/20/2018,0.89,3,1,345,,
11303940,Cozy room in convenient Midtown West location,89965621199,verified,Lin,Manhattan,Hell's Kitchen,40.76144,-73.98849,United States,US,True,strict,Private room,2003,$975 ,$195 ,2,16,5/16/2019,0.47,5,1,6,Apartment is located in quiet neighborhood so noise is ok as long as it's not excessive.  We have a strict no-pet and no-smoking policy. This is our building policy and also a strongly enforced household policy.,
11304493,Sunny and Spacious Bedroom in the East Village,94382075662,verified,Fayth,Manhattan,East Village,40.730290000000004,-73.98725,United States,US,True,flexible,Private room,2008,"$1,090 ",$218 ,4,9,3/16/2018,0.26,3,2,0,No smoking.   We do allow pets.,
11305045,"Madison Ave Palace  - Washer Dryer, Outdoor Deck",6749908564,verified,Corporate Housing,Manhattan,Upper East Side,40.78321,-73.95645999999999,United States,US,True,moderate,Entire home/apt,2004,$473 ,$95 ,30,4,4/30/2019,0.21,5,91,311,"WHEN BOOKING, PLEASE PROVIDE THE FOLLOWING IN YOUR MESSAGE to me:  - 1. Total number of guests (adults, children, babies)? Are there any elderly or children under 18? If so, what are their ages?  - 2. Arrival Date AND Time of Check In? (Check In between 2 pm and 9 pm with some leniency)  - 3. Departure Date (Check out before 11 am/noon ideally)  - 4. Please tell me a little about yourselves and the purpose of your trip.  - 5. What Other Needs or Special Requests or Extra Options (please read below for additional options and possible related additional fees).  ------  PLEASE NOTE THE FOLLOWING BEFORE REQUESTING A BOOKING:  * I will reply as soon as possible to let you know if my apartment will be available for ALL your needs.  - 1. We are happy to host Friendly, Neat, Low-Maintainence Adults & Well-Behaved Children.  ---- All cookware and utensils in the kitchen are at your disposal. There will be water (brita) and basic condiments provided for you. We ask that you rinse whatever dishes",
11305597,2br Apartment w/ Balcony & Free Airport Pickup!,79713750786,verified,Jared,Queens,Sunnyside,40.746340000000004,-73.9179,United States,US,True,moderate,Entire home/apt,2006,$548 ,$110 ,1,6,5/26/2019,0.18,4,4,365,,
11306149,Spacious Room in HUGE Manhattan flat!,79368130957,verified,Marie,Manhattan,Harlem,40.80676,-73.94658000000001,United States,US,False,strict,Private room,2003,$409 ,$82 ,4,9,9/1/2017,0.26,4,2,0,,
11306702,Upper Westside  Room w/ Private Bath & View,15962507178,verified,Christina,Manhattan,Harlem,40.82489,-73.95336999999999,United States,US,True,flexible,Private room,2013,$285 ,$57 ,2,93,6/27/2019,2.69,2,1,215,No smoking.   We do allow pets.,
11307254,Location! Location! Location! ... in a cute studio,81098896541,unconfirmed,Brigid,Brooklyn,Williamsburg,40.71588,-73.94296999999999,United States,US,False,flexible,Entire home/apt,2007,$718 ,$144 ,14,4,9/10/2017,0.12,1,1,0,,
11307806,Private Large Studio-size Room,43846936785,unconfirmed,Angelo,Brooklyn,Bedford-Stuyvesant,40.68683,-73.95004,United States,US,True,strict,Private room,2020,$396 ,$79 ,1,25,6/29/2019,2.08,2,1,28,,
11308359,"Quaint, sunny, and quiet room overlooking garden.",11478896331,unconfirmed,Amey,Queens,Sunnyside,40.739670000000004,-73.92367,United States,US,True,strict,Private room,2014,"$1,065 ",$213 ,2,7,11/13/2016,0.21,2,1,0,"Please no smoking, pets or candles in the apartment. Thank you.",
11308911,Large 1 Bedroom near Prospect Park,63353441171,unconfirmed,Sogol,Brooklyn,Prospect-Lefferts Gardens,40.66028,-73.961,United States,US,True,strict,Entire home/apt,2004,$200 ,$40 ,2,1,9/5/2016,0.03,3,1,0,No smoking.   We do allow pets.,
11309463,Cozy minimalist room close to train (1),10587611447,unconfirmed,Silvia,Brooklyn,East New York,40.67539,-73.89039,United States,US,False,strict,Private room,2010,$593 ,$119 ,3,101,6/16/2019,2.92,3,8,323,NO SMOKING AND NO PETS ALLOWED!!,
11310016,Pr1vate Room(Queensizebed)$100,27490168540,verified,Shirley,Brooklyn,Crown Heights,40.67181,-73.925,United States,US,True,flexible,Private room,2010,$780 ,$156 ,1,16,1/1/2019,0.46,3,2,365,,
11310568,Lovely bedroom in the heart of Brooklyn,63508156169,unconfirmed,Pau,Brooklyn,Midwood,40.61679,-73.96016,United States,US,False,flexible,Private room,2022,$89 ,$18 ,5,0,,,5,1,0,"- Please be quiet in the hallway/stairs late at night - I live in a small apartment building (5 apartments), my neighbors are young professionals (no college students) and are very quiet and polite  so please reciprocate - No overnight guests that are not on the reservation/have not been agreed upon in advance. - No smoking in the apartment, out the window, etc.   -Please be mindful of shutting off lights, air conditioners, etc when not in use/when leaving the apartment. -If you cook please take care of your dishes (you can use the dishwasher).",
11311120,1 bedroom w/PRIVATE full bathroom (BUSHWICK),61494489546,unconfirmed,Adhat,Brooklyn,Bushwick,40.705420000000004,-73.92025,United States,US,False,strict,Private room,2006,$826 ,$165 ,15,0,,,4,1,0,Please observe quiet after 11pm. Please tidy up if you use any dishes. Please no smoking.,
11311672,Amazing Space in the Heart of Williamsburg,45206555454,unconfirmed,James,Brooklyn,Williamsburg,40.71417,-73.94463,United States,US,True,moderate,Entire home/apt,2016,"$1,093 ",$219 ,10,1,9/26/2017,0.05,2,1,0,"Please be respectful of our neighbors. No loud parties and music, but have fun!",
11312225,2A Lovely one bedroom apartment in Williamsburg,6017774167,verified,Krzysztof,Brooklyn,Williamsburg,40.719429999999996,-73.94255,United States,US,False,flexible,Entire home/apt,2006,"$1,191 ",$238 ,30,11,5/31/2019,0.34,2,8,144,,
11312777,South-By-Southwest Room,89087719318,verified,Max,Manhattan,Upper West Side,40.80093,-73.9601,United States,US,False,moderate,Private room,2018,$177 ,$35 ,3,96,7/6/2019,2.8,3,1,134,,
11313329,Big Apartment with Balcony by Central Park,10897893772,verified,Aziz,Manhattan,East Harlem,40.79834,-73.94761,United States,US,True,strict,Entire home/apt,2005,$468 ,$94 ,1,8,2/22/2017,0.23,2,1,0,,
11313882,Home 4 Medical Professionals- Stuyvesant Heights 1,40159758834,unconfirmed,Stat,Brooklyn,Bedford-Stuyvesant,40.68793,-73.95246,United States,US,False,moderate,Private room,2016,$88 ,$18 ,30,1,2/18/2017,0.03,4,43,365,,
11314434,Immaculate Private Apt Under $10 Uber to JFK*,46340786591,unconfirmed,Deborah,Queens,Jamaica,40.68358,-73.7967,United States,US,True,flexible,Entire home/apt,2020,$640 ,$128 ,1,94,7/4/2019,2.71,5,2,180,"Please Note: This unit was just renovated in February 2016 and it comfortably accommodates one to three guests, but up to 4 guests are permitted if you so desire (two guests in the bedroom, 1 guest on the available twin air mattress and 1 guest on the sofa). Please request an air mattress (if needed) when making a reservation. No smoking, no pets, no parties, and must be 25 years old to book.   For check-out, please ensure: -  All plates and cups are left in the sink or dishwasher -  All trash is left in the kitchen trash can or bagged and left next to the trash can (additional bags are under the sink) -  All windows are closed and locked -  If used, the air mattress is deflated and put away (please leave used linens for the air mattresses on the floor) -  If furniture was moved during your stay, please return to its original location Please be mindful to our neighbors in the building; quiet hours after 10pm. Please be considerate of our next guests who will be staying after you, if so",
11314986,"Modern and Safe Place,Free Wifi",9333376423,unconfirmed,Elliot,Queens,St. Albans,40.700520000000004,-73.75184,United States,US,False,moderate,Private room,2012,$214 ,$43 ,4,0,,,1,1,365,"We are in a neighborhood where families and people live, so we expect respect to all our rules that imply not disturbing the neighbors around us. We don't allow smoking ( any kind of smoking including cigars, or anything else) in the unit or outside ( meaning at the door). If there is smell of cigarette or any other type of smell in the apartment  such as in bedding, furniture, etc. we will discount the complete security deposit, no exceptions.    Excessive cleaning from misuse of the place will have extra cleaning charges. We don't allow loud music or noise that will bother our neighbors.  We are happy to host people who will treat this unit as an apartment not as a hotel room.  **We are in the city so some noise from the streets, traffic, people, and other noise out of control might be heard but can't have any liability over the noise that might occur.",
11315539,"3 BD,2 BTH, Doorman,15 mins to Midtown",8091296568,verified,Roy & Rita,Manhattan,Harlem,40.8222,-73.94323,United States,US,True,strict,Entire home/apt,2018,"$1,174 ",$235 ,2,15,7/7/2019,0.58,1,1,54,,
11316091,Quiet room with loft bed,39789403501,verified,Ari,Brooklyn,Williamsburg,40.716,-73.955,United States,US,True,moderate,Private room,2009,$99 ,$20 ,5,57,6/25/2019,1.65,3,3,104,"Please treat this like you would your own home, and be respectful of the space. This is our home too and not just a hotel to make extra money. If you smoke, please do so outside. Having guests over is fine, but be courteous of our neighbours. Please do clean the dishes and leave them inside the dish washer to dry. Don't hesitate to reach out to us if you have any issues!",
11316643,Huge Sunny Private Bedroom in heart of Brooklyn,2310882641,unconfirmed,Daniel,Brooklyn,Bushwick,40.69951,-73.92848000000001,United States,US,True,flexible,Private room,2016,$969 ,$194 ,30,6,3/22/2019,0.18,5,1,0,"Please feel free to use anything in the kitchen as needed, but please clean up after yourself. Please don't use metal utensils on the pots/pans as it can scratch the non-stick surface.",
11317195,Lovely & bright apartment in center of Park Slope,53491943227,verified,Talia,Brooklyn,Park Slope,40.66961,-73.97991,United States,US,False,flexible,Entire home/apt,2017,"$1,013 ",$203 ,30,17,6/9/2019,0.5,4,1,0,Please treat the home like it was your own.  No smoking or pets allowed.,
11317748,Bright Room in Bushwick,74663246307,unconfirmed,Jacob,Brooklyn,Bushwick,40.68815,-73.91344000000001,United States,US,False,flexible,Private room,2003,$891 ,$178 ,3,7,3/31/2018,0.22,1,1,0,,
11318300,Midtown East Pied-à-Terre,22369129701,verified,Cranston,Manhattan,Midtown,40.75586,-73.96185,United States,US,True,flexible,Entire home/apt,2016,$217 ,$43 ,6,23,7/1/2019,2.23,5,1,89,,
11318852,Sunny Master Bedroom / Harlem,53570582712,verified,Kenny,Manhattan,Harlem,40.81285,-73.95439,United States,US,False,strict,Private room,2017,$839 ,$168 ,2,3,11/12/2016,0.09,4,1,0,,
11319405,Beautiful Designer 1 bedroom Apt Midtown Manhattan,94157531117,verified,Jerald,Manhattan,Hell's Kitchen,40.76688,-73.99401999999999,United States,US,True,flexible,Entire home/apt,2008,"$1,112 ",$222 ,3,31,7/3/2019,0.94,2,1,51,,
11319957,Ditmas Park Beautiful Spacious Apartment,40441089397,verified,Tiffany,Brooklyn,Flatbush,40.63825,-73.95654,United States,US,False,moderate,Entire home/apt,2006,$425 ,$85 ,2,18,4/22/2019,0.52,4,1,0,"House Rules 1. Check-in is 4 pm local time. If the unit is ready earlier, we’ll let you know. Check-out is normally 11 am local time, but we’d be happy to extend it as long as we don’t have a cleaning scheduled. Just let us know.  2. All bookings require a security deposit of at least $300, which will be refunded within 7 days of your check-out. 3. For security measures we require all guests to provide proof of identification through ID verification on our own website. In order to check in we'll need a photo of your ID.  4. Our cancellation policy is as shown on our ad and defined by the site you are booking through.  5. Don’t let $300 go up in smoke. There's no smoking allowed in any Flatbook and a $300 fine for breaking this rule.  6. Unfortunately we don’t allow pets in any of our apartments. 7. Unless you’re staying in one of our specialty apartments, we don’t allow parties or excessive noise. 8. If we find the place very messy, we have to charge an extra $40 for every extra hour o",
11320509,Harlem River,67697699905,verified,Ermanno,Manhattan,East Harlem,40.81344,-73.93454,United States,US,False,flexible,Private room,2019,$729 ,$146 ,2,7,9/4/2017,0.21,3,1,32,Smoke deck out back.,
11321062,Large private bedroom&bath 2 min. away from subway,1067577911,verified,Barbara,Brooklyn,Williamsburg,40.711529999999996,-73.94215,United States,US,False,strict,Private room,2007,$721 ,$144 ,2,124,7/3/2019,3.65,4,1,58,Smoking and drugs are not permitted on the property. Please remove outdoor shoes at the front door.,
11321614,"Homey, accessible private bedroom",57860686748,unconfirmed,Cal,Manhattan,Washington Heights,40.83315,-73.94108,United States,US,True,flexible,Private room,2003,$480 ,$96 ,1,1,9/21/2016,0.03,1,2,0,"We're laid back and don't have too many rules! There is a porch outside if you need to smoke. We like to keep our home neat and hope you help us keep it how you find it!  We do ask that you do not bring guests back. This is a way for us to control who is in our home, and it means a lot to us.  As for noise, just be reasonable. If it's getting late, you know the drill :)",
11322166,"1 Bedroom Apartment, Carroll Gardens",46789032682,verified,Valeska,Brooklyn,Carroll Gardens,40.68182,-73.99208,United States,US,False,strict,Entire home/apt,2011,$955 ,$191 ,10,0,,,3,1,0,,
11322718,1 Beautiful Private Bedroom In Prime Williamsburg,78980176972,unconfirmed,Nicolette,Brooklyn,Williamsburg,40.7121,-73.9623,United States,US,True,flexible,Private room,2003,$638 ,$128 ,3,2,5/12/2019,0.23,4,1,149,No shoes on in the house. My home is 420 friendly yet no cigarettes. You will not have access to a key but you will be able to come and go freely.,
11323271,Chris' Cozy Cave!,15934772295,unconfirmed,Chris,Queens,Ditmars Steinway,40.78031,-73.91003,United States,US,False,moderate,Entire home/apt,2015,$357 ,$71 ,3,89,6/18/2019,2.6,3,1,259,- Weekly and monthly prices are much lower - Please verify all prices with Angel before booking. - The price is based on double occupancy. $50. per person per night. - Single rooms $64. per night per person,
11323823,"Spacious 1BR amazing view, Beach 5 min, airport 20",70618978478,verified,Aziz,Brooklyn,Manhattan Beach,40.58249,-73.95347,United States,US,False,moderate,Entire home/apt,2011,$567 ,$113 ,30,2,9/20/2016,0.06,1,1,0,No Smoking in the Building.,
11324375,Large and inviting 3BR apartment,10864671943,verified,Allen,Brooklyn,Gravesend,40.59544,-73.97086999999999,United States,US,False,strict,Entire home/apt,2012,$109 ,$22 ,2,145,7/1/2019,4.24,4,2,35,"Please, No pets No smoking in the building.  Thank-you.",
11324928,Studio Apartment Prospect Heights,40554939961,verified,Tanya,Brooklyn,Crown Heights,40.6758,-73.96251,United States,US,False,moderate,Entire home/apt,2016,$660 ,$132 ,3,10,5/19/2019,0.3,3,1,188,No smoking. No pets No visitors Cleaning of rooms & toilets will be down by guest after use and at check out. A surcharge of $50 will be imposed if guests smoke within the property. Sanitary pads are not allowed in the WC. Kitchen utensils are to be cleaned after use always. If you lose the keys $20 surcharge will be imposed for replacement. ,
11325480,21St&6Th Ave Prime Doorman 1bed !GYM 5204,21535451765,verified,Jeremy & Laura,Manhattan,Chelsea,40.742459999999994,-73.9954,United States,US,True,flexible,Entire home/apt,2013,$610 ,$122 ,30,1,1/7/2017,0.03,3,96,319,No Pets. Not smoking please :) ,
11326032,Cool Brooklyn spot,15227615245,verified,Scott,Brooklyn,Bedford-Stuyvesant,40.69576,-73.96137,United States,US,False,moderate,Private room,2018,$983 ,$197 ,2,1,8/30/2016,0.03,5,1,0,"1. No additional guests without the expressed written permission of the owner.  This rental offer is for one person. 2.  Never any smoking indoors.   3.  No pets, not even visiting pets are allowed. 4.  Be considerate with television loudness and other noise after 10 pm. 5.  Keep kitchen and common areas clean after use. 6.  Enjoy your stay in our home as our roommate!!",
11326585,Sunny Room with Queen Bed in Artsy Bushwick,73003756990,unconfirmed,Bradley,Brooklyn,Bushwick,40.704679999999996,-73.92568,United States,US,False,flexible,Private room,2003,$684 ,$137 ,5,4,9/26/2017,0.12,3,1,88,"We live and let live - hoping that you'd be respectful, will care for the property, and enjoy your time! 1. The building is not pet friendly. Hence, no pets please. 2. Smoking outside/porch area only. 3. You are free to use our kitchen, but we expect you to clean up after yourself. 4. Please clean up any mess you make in the room. 5. Please treat the common amenities with respect. 6. Please ensure the bathrooms are clean post use.",
11327137,Spacious Bedroom in Gorgeous Renovated Apartment,1405417777,verified,Carlos,Brooklyn,Bedford-Stuyvesant,40.69063,-73.93947,United States,US,False,flexible,Private room,2008,$693 ,$139 ,2,87,6/30/2019,2.51,5,1,60,,
11327689,Beautiful Home Away From Home,27597750205,unconfirmed,Kat,Brooklyn,Crown Heights,40.67532,-73.93986,United States,US,False,moderate,Private room,2021,$937 ,$187 ,1,7,6/21/2019,0.2,2,2,189,Absolutely no smoking or pets.,
11328241,"Park Slope Bklyn, Large 2 BD/2 BTH",66355260552,unconfirmed,Chris & Jayma,Brooklyn,Park Slope,40.67861,-73.98066,United States,US,True,strict,Entire home/apt,2019,$649 ,$130 ,30,2,2/12/2017,0.06,2,1,250,"There's no cleaning fee, so we'd appreciate relative tidiness.",
11328794,Cozy living in midtown close to EVERYTHING,95682912536,verified,Russell,Manhattan,Upper West Side,40.76938,-73.98689,United States,US,False,strict,Entire home/apt,2008,$770 ,$154 ,3,4,7/29/2018,0.28,1,1,2,No Smoking facility,
11329346,"Cozy 4 beds, Free Ferry to Manhattan.",15348705248,unconfirmed,Eddie & Lois,Staten Island,West Brighton,40.63333,-74.11310999999999,United States,US,True,moderate,Entire home/apt,2007,$136 ,$27 ,2,96,7/1/2019,2.82,2,5,362,"- The price is based on double occupancy. $50. per person per night. - Check prices with host before booking - The price is based on double occupancy $300 per person per week. And $1000 monthly per person. - Single room $64 per night. Weekly, $350. Monthly $1205",
11329898,Spacious room on the East River!,49083085275,unconfirmed,Dario,Manhattan,East Harlem,40.78608,-73.94305,United States,US,True,moderate,Private room,2017,$255 ,$51 ,3,14,6/3/2018,0.41,2,4,0,,
11330451,"Cozy NY Apt, Central to transport-LIVE as a LOCAL-",13997802355,verified,Nelly,Brooklyn,Canarsie,40.63949,-73.90585,United States,US,False,flexible,Entire home/apt,2013,"$1,113 ",$223 ,2,83,3/11/2018,2.42,1,1,0,,
11331003,Renovated brownstone apt w/ private outdoor patio,12742482564,unconfirmed,Eric,Brooklyn,Bedford-Stuyvesant,40.68612,-73.95926999999999,United States,US,False,flexible,Entire home/apt,2008,$919 ,$184 ,4,112,6/30/2019,3.23,4,1,136,,
11331555,Duplex with Private Bathroom by Times Square,6692490673,unconfirmed,Michael,Manhattan,Hell's Kitchen,40.7658,-73.98795,United States,US,False,strict,Private room,2010,"$1,048 ",$210 ,1,319,7/1/2019,9.24,4,1,57,"It is VERY important to me that you respect my belongings. I have lots of art, antiques, knick-knacks, books, fragile items, etc. Feel free to borrow a book as long as you return it in the same condition that you found it! Otherwise, please do not pick up or play with my things, go through my drawers, etc. My things are very loved by me, and most cannot be replaced. There will be ZERO tolerance for disrespect or cruelty towards my cats.",
11332108,Spacious 2 bedroom penthouse in Williamsburg,31113849709,unconfirmed,Krzysztof,Brooklyn,Greenpoint,40.721070000000005,-73.943,United States,US,False,strict,Entire home/apt,2011,$468 ,$94 ,30,6,8/10/2018,0.2,3,8,176,"PARKING Overnight and weekends, you can park on the street right in front of the house (please DO NOT use the neighbor's driveway).  During weekday commuting hours, you can park on Linwood Street.  Street cleaning alternates from one side to the other on Tuesday mornings, so please park on the appropriate side if you're going to leave your car - the signage is good. KITCHEN The occasional coffee mug and pot is fine to leave behind in the sink on your dash to the airport, but we expect that you'll restore dishes and cookware to their originally clean state after use. WIFI The password is basket4210baked NO SMOKING INSIDE Feel free to light up outside, but please dispose of butts properly. QUIET PLEASE The apartment is one of three in the building - the other two are occupied by professional folks who are respectful of their neighbors and the tranquility of the neighborhood.  We expect they'll be treated in kind. HEATING/COOLING Please turn a/c off when not in the apartment. The heat run",
11332660,Sunny Bloomingdale,9021599996,unconfirmed,Maurice,Manhattan,Upper West Side,40.799859999999995,-73.96415,United States,US,True,flexible,Private room,2018,$932 ,$186 ,1,86,7/5/2019,2.5,5,1,34,"This is a self-service room.  The common areas are professionally cleaned but please be considerate and clean up after yourselves in common areas - especially after cooking and eating or using the bathroom.  Smoking is allowed outside. No street shoes allowed in the apartment so be sure to bring house slippers. We recycle and have provided the necessary information so that you can too. Reusable containers for storing food and shopping bags for shopping are provided.  Please consider the environment and do not bring plastic bags or plastic wrap into this house. When in doubt, ask me!",
11333212,"Large studio in Williamsburg, 3B",26239166296,unconfirmed,Krzysztof,Brooklyn,Williamsburg,40.719840000000005,-73.94303000000001,United States,US,True,strict,Entire home/apt,2013,$806 ,$161 ,30,11,5/31/2019,0.35,2,8,136,"This is a self-service room.  The common areas are professionally cleaned but please be considerate and clean up after yourself in common areas - especially after cooking and eating or using the bathroom.  No street shoes in the house, por favor, bring slippers. Smoking is allowed outside. We recycle and have provided the necessary information so that you can too. Reusable containers for storing food and shopping bags for shopping are provided.  Please consider the environment and do not bring plastic bags or plastic wrap into this house. When in doubt, ask me!",
11333764,"private cosy , clean 2  bedroom apt",78199213699,verified,Juan,Queens,Woodside,40.74185,-73.90684,United States,US,True,flexible,Private room,2007,"$1,038 ",$208 ,2,9,8/14/2017,0.26,1,2,0,,
11334317,"Bedroom & living area Upper East Side, 86th Subway",75958393135,verified,Daniel,Manhattan,Upper East Side,40.77544,-73.95577,United States,US,True,moderate,Entire home/apt,2007,$419 ,$84 ,2,102,6/15/2019,3.21,5,1,35,Expect respect for the family and the space--treat it as you would your own home--or better :).,
11334869,Comfortable Twin Size Bed Near Airport,39444898185,verified,Zhur,Queens,Richmond Hill,40.69416,-73.84698,United States,US,True,moderate,Private room,2021,$298 ,$60 ,2,25,6/10/2019,1.13,5,2,152,No pets of any kind.  No loud noise after 11 PM.  ,
11335421,A Small Room With Futon Bed In A House In Brooklyn,28368514344,unconfirmed,Oates,Brooklyn,Prospect-Lefferts Gardens,40.65934,-73.95936999999999,United States,US,True,flexible,Private room,2004,$562 ,$112 ,1,19,4/4/2017,0.55,5,2,0,"Absolutely no smoking inside the house, please! There is ample space to do so outside, but please keep our neighbors happy and dispose of butts properly. Also, please keep energy efficiency in mind and turn climate controls off/down when out as well as lights.",
11335974,Soho/Nolita Apartment w/Rooftop Terrace,80680729043,verified,Chris,Manhattan,Nolita,40.72191,-73.99472,United States,US,False,moderate,Entire home/apt,2010,$162 ,$32 ,19,5,3/25/2018,0.17,1,2,0,,
11336526,"Bright, quiet, super comfy chic in Upper East Side",9861250328,verified,Mj,Manhattan,Upper East Side,40.772729999999996,-73.96344,United States,US,True,moderate,Entire home/apt,2006,$638 ,$128 ,2,90,6/26/2019,2.59,1,1,134,"In order to provide a calm atmosphere for guests, as well as a comfortable and safe environment, the following are the rules of my house. Please be aware of and follow all of them throughout your stay at my home. Most of what follows is common sense or common courtesy. The rules serve to protect you as a guest by helping ensure that the environment you find here is the one that I intended to create.  Please keep in mind:  You will be sharing common areas with me, and the cleanliness of the common areas is more dependent upon all guests cleaning up after themselves than it is upon my cleaning. Most guests do very well in keeping common areas clean!  House rules: Kindly remove shoes upon entering my apartment. I ask this because my hardwood floors are very old, and shoes increase the noise to my elderly downstairs neighbor (who is wonderful, so I do what I can to make life easy for her).  Please try not to drag luggage up the stairs, as it disturbs the other building occupants. Please le",
11337078,Private room in astoria for a month!,9300643930,unconfirmed,Yudum,Queens,Astoria,40.77013,-73.92092,United States,US,False,flexible,Private room,2009,$981 ,$196 ,2,2,6/10/2019,1.22,2,2,34,,
11337631,Spacious Room in the heart of Greenwich Village!,17899727360,unconfirmed,Colleen,Manhattan,Greenwich Village,40.72807,-73.99925,United States,US,True,strict,Private room,2020,$987 ,$197 ,2,5,8/20/2017,0.15,4,1,0,Respect our place please.,
11338183,Spacious 3BR Duplex Apt + Loft in Gramercy NYC,87218990548,unconfirmed,Justin,Manhattan,Gramercy,40.73815,-73.98443,United States,US,True,moderate,Entire home/apt,2021,$262 ,$52 ,3,11,5/27/2019,0.32,2,1,0,,
11338735,"Charming 2BR  Prime Carroll Gardens/ F,G Train",5856488701,verified,Sol,Brooklyn,Carroll Gardens,40.67718,-73.99493000000001,United States,US,True,strict,Entire home/apt,2013,$466 ,$93 ,1,62,6/28/2019,1.79,2,5,178,"Quiet Respectful Friendly Clean No smoking of any substance on the property No pets  Leave things as they were found, clean after yourself when checking out",
11339287,Bright 1 Bedroom in the heart of the East Village,8955008873,verified,Elizabeth,Manhattan,East Village,40.72931,-73.97925,United States,US,True,flexible,Entire home/apt,2014,$176 ,$35 ,4,18,4/22/2018,0.52,3,1,0,Keep it clean,
11339840,Beautiful Furnished 1 BR Apt near Times Square,97553072597,verified,Kara,Manhattan,Chelsea,40.744609999999994,-73.992,United States,US,False,flexible,Entire home/apt,2021,$358 ,$72 ,30,0,,,3,121,349,,
11340392,"LowerLevel House NYC,Traveler ShortStay BedRoom",73687452559,verified,Luffy,Queens,Corona,40.74864,-73.85436,United States,US,False,strict,Shared room,2016,$51 ,$10 ,2,16,6/7/2019,0.48,3,2,365,Please treat my house as you would treat your own. Be courteous and aware that this is our full time home. Clean basic messes and respect our property,
11340944,"Relaxing, spacious, private room Riverside Drive",80808184817,unconfirmed,Chip,Manhattan,Harlem,40.82966,-73.95021,United States,US,False,strict,Private room,2012,$392 ,$78 ,30,7,4/30/2019,0.21,4,2,225,,
11341497,peaceful tree view room in sweet neighborhood,50007389436,verified,Leslie,Queens,Ridgewood,40.7058,-73.91041,United States,US,False,moderate,Private room,2013,$616 ,$123 ,3,6,6/13/2019,0.18,3,2,52,We offer 5 star accommodations and expect guest to treat it in that manner.,
11342049,Amazing Private Bedroom on UES of New York City,80413699714,unconfirmed,Tianna,Manhattan,East Harlem,40.78962,-73.94837,United States,US,False,flexible,Private room,2004,"$1,116 ",$223 ,4,1,1/3/2017,0.03,4,1,0,"This is a quiet and professional building. Best for quiet, mature, responsible people. There is a no-pet, no-smoking policy.",
11342601,"Located in heart of SOHO, super convenient!",8598833877,unconfirmed,Amy,Manhattan,SoHo,40.722809999999996,-73.9987,United States,US,False,moderate,Private room,2021,$187 ,$37 ,1,9,10/28/2018,0.35,5,4,89,"Please keep it clean, thats all we really ask from our guest.",
11343154,NYC Photographers Loft,13854078520,unconfirmed,Zi Ying,Manhattan,Chinatown,40.71775,-73.99509,United States,US,True,moderate,Entire home/apt,2003,$444 ,$89 ,3,19,6/22/2019,0.56,3,2,11,,
11343706,Cozy quiet room in Morningside brownstone,66433713758,verified,Ruth,Manhattan,Morningside Heights,40.80576,-73.95832,United States,US,True,moderate,Private room,2006,$492 ,$98 ,3,49,6/14/2019,1.46,4,1,2,"No street shoes in the house, please, but especially not in the bedrooms. Kitchen privileges vary and can be negotiated with length of stay but for shorter stays the kitchen can be used for food storage, occasional light meal prep, eating, and tea and snacks. Check-in and check-out times are flexible all days except Sunday where check-out is by 11 a.m.   Smokers are welcome to smoke outside.",
11344258,Beautiful two bedroom apartment with backyard,80143710640,verified,Sunshine,Brooklyn,East New York,40.6735,-73.89635,United States,US,False,moderate,Entire home/apt,2007,$115 ,$23 ,30,108,6/20/2019,3.12,4,2,206,"This is a self-service room.  The common areas are professionally cleaned but please be considerate and clean up after yourselves in common areas - especially after cooking and eating or using the bathroom.  No street shoes inside, please, so be sure to bring house slippers. Smoking is allowed outside. We recycle and have provided the necessary information so that you can too. Reusable containers for storing food and shopping bags for shopping are provided.  Please consider the environment and do not bring plastic bags or plastic wrap into this house. When in doubt, ask me!",
11344810,Oceanview pull out bed in a SAFE area. No BS fees!,36539933203,verified,Gino,Brooklyn,Brighton Beach,40.577009999999994,-73.96616,United States,US,False,strict,Shared room,2014,$837 ,$167 ,1,1,10/9/2016,0.03,4,1,0,"no smoking allowed, leave it how you found it.",
11345363,Sid's Victorian Oasis,71902505618,verified,Sidney,Brooklyn,Flatbush,40.640879999999996,-73.96306,United States,US,True,strict,Private room,2017,"$1,171 ",$234 ,1,87,6/12/2019,2.53,3,3,313,#NAME?,
11345915,Modern Williamsburg Loft,34679942348,unconfirmed,Maria,Brooklyn,Williamsburg,40.711220000000004,-73.95922,United States,US,False,flexible,Entire home/apt,2008,$381 ,$76 ,3,2,7/31/2017,0.06,3,1,0,,
11346467,private room in SOHO,71906902981,unconfirmed,Amy,Manhattan,SoHo,40.721940000000004,-73.9983,United States,US,True,moderate,Private room,2008,$359 ,$72 ,1,25,7/1/2019,0.75,4,4,89,10 star treatment is given and expected.,
11347020,private room in central SOHO,79426554620,verified,Amy,Manhattan,SoHo,40.72293,-73.99951999999999,United States,US,False,strict,Private room,2022,"$1,196 ",$239 ,1,24,5/19/2019,0.71,3,4,89,"Please read the house manual along with the directions... You have plenty of liberty to do as you wish within the space. I will most likely exchange keys in person when arriving. If I'm not around, I'll be confirming the steps to exchange the keys. *As a visitor, if requested by the front desk... you might have to check-in at the lobby counter.",
11347572,comfy bed in SOHO,71303698192,verified,Amy,Manhattan,SoHo,40.72364,-73.99923000000001,United States,US,True,strict,Shared room,2014,$185 ,$37 ,1,51,7/1/2019,1.48,1,4,82,"It is VERY important to me that you respect my belongings. I have lots of art, antiques, knick-knacks, books, fragile items, etc. Feel free to borrow a book as long as you return it in the same condition that you found it! Otherwise, please do not pick up or play with my things, go through my drawers, etc. My things are very loved by me, and most cannot be replaced. There will be ZERO tolerance for disrespect or cruelty towards my daughter or my cats.",
11348124,NEW Bright Modern Apt in the heart of DOWNTOWN NYC,83338625797,verified,Hanyuan (Yssi),Manhattan,East Village,40.729890000000005,-73.9888,United States,US,False,strict,Entire home/apt,2011,"$1,089 ",$218 ,2,0,,,3,1,0,"No smoking  Smoking and the use of marijuana, tobacco or nicotine in any form is not permitted anywhere on the property (inside or out).  Including, but not limited to; Cigarettes, Pipes, E-cigarettes, Cigars, Hookahs, Bidis, Kreteks, Chewing tobacco, Snuff, Snus, Pellets and other candy-like forms of tobacco.  No parties  There should be no more than 4 people sleeping in the apartment unless other arrangements have been made at the time of booking. Please note that the back yard is not intended for use by Airbnb guests. Please remember that we live in the house too.  You will hear us from time to time as we move around and we will hear you as well and that is to be expected (the sound proofing in the house is not great), but please try to keep things quite after 11pm. We have a tan dog named Marco and a black cat named Pana.  They are both very friendly with people, but they don't share well with other animals, so please no pets in the house.",
11348677,Cosy Brooklyn Bedroom in Duplex Apt,8431006062,verified,Mathieu,Brooklyn,Clinton Hill,40.68439,-73.96336,United States,US,False,flexible,Private room,2021,$817 ,$163 ,1,2,9/11/2016,0.06,3,1,0,Guests are allowed 1 other to accompany must checkin if staying the night an additional 20$/ per night charge will be assessed Check out time is 10am  Late checkout is at 12 noon,
11349229,"East 63rd street, Studio Serviced Apartment*",48469079751,verified,Ken,Manhattan,Upper East Side,40.76356,-73.96082,United States,US,False,moderate,Entire home/apt,2008,"$1,050 ",$210 ,30,0,,,1,87,365,"No Smoking,  Respect for other guests and neighbors.  Well behaved children only.  Limit noise after 10pm.  Please do dishes/run dishwasher prior to departure.   Parking is available on Linwood and Gardner streets 24 hours.    No parking is permitted on Centre Place.",
11349781,"Stoner Abode in Bushwick
ADULTS ONLY!",77114776379,verified,Dee,Brooklyn,Bushwick,40.69018,-73.92166,United States,US,False,strict,Private room,2017,$757 ,$151 ,1,96,6/23/2019,3.13,2,2,365,"We try to keep the atmosphere conducive to studying and resting and a couple of house-rules are in place to this end.  1. Towels and linens (sheets, blankets, and pillows) are NOT provided. The bed is twin size. 2. No smoking on the premises.  3. No loud music or TV etc.  4. Only for one person (no couples, no visitors). We seldom have visitors, let alone overnight guests. We know this will be a major turn-off to many people, but we believe we can find a like-minded roommate who can have fun outside the house.  5. If you are not sure about your check-out date, you can reserve the minimum days and extend your stay at a discounted rate.  6. Check-in time has to be coordinated at least 48 hours ahead. On arrival, a short registration process with a picture ID is needed in exchange for keys and wifi access.  7. Inside the apartment, we take off our outside shoes. So if you bring your own flip-flops, slippers or some kind of indoor shoes, that will be useful.",
11350333,West Village Apartment near Washington Square Park,27104288913,unconfirmed,Robert,Manhattan,Greenwich Village,40.732929999999996,-73.99846,United States,US,False,moderate,Entire home/apt,2011,$220 ,$44 ,1,4,12/30/2017,0.12,2,1,0,,
11350886,"Bright, conveniently located room in Bushwick",32751580093,verified,Elena,Brooklyn,Bushwick,40.703520000000005,-73.92971,United States,US,True,flexible,Private room,2017,$535 ,$107 ,2,11,12/30/2017,0.32,4,1,0,,
11351438,Classic Bed-Stuy Brownstone Garden Apartment,78784190532,unconfirmed,Richard,Brooklyn,Bedford-Stuyvesant,40.69042,-73.942,United States,US,False,moderate,Entire home/apt,2019,$595 ,$119 ,2,27,5/5/2018,0.79,5,1,0,,
11351990,Fantastical Artist's loft in Tribeca,23883167771,unconfirmed,Meghan,Manhattan,Tribeca,40.7155,-74.00754,United States,US,False,strict,Entire home/apt,2015,$379 ,$76 ,13,2,7/16/2018,0.14,2,1,173,"No aloud music , no outside guests stay over night without owner's permission. No late night party or assembly in this residential unit. No activities forbidden by law of any kinds. No over night stay guest without permission and payment.",
11352543,Small Bedroom in Heart of SoHo,18832879640,unconfirmed,Sandra,Manhattan,SoHo,40.721790000000006,-73.99795,United States,US,True,moderate,Private room,2009,$123 ,$25 ,3,1,9/15/2016,0.03,1,1,0,Respect the neighbors and stay quiet.  No smoking. No party. This is very important for us !!!!,
11353095,Bedroom in Beautiful Fort Greene Home,27788371073,verified,Mallary,Brooklyn,Fort Greene,40.69218,-73.97138000000001,United States,US,True,flexible,Private room,2017,$107 ,$21 ,4,48,5/22/2019,1.38,1,3,0,,
11353647,Private Bed/Bath in SOHO Townhouse +Office/Deck!!!,84024361940,verified,Scott,Manhattan,SoHo,40.72198,-74.00296,United States,US,False,flexible,Private room,2013,$530 ,$106 ,2,26,5/22/2019,0.76,4,2,89,,
11354200,Modern Private Room-L Train in front of building!,96265546376,verified,Kaitlyn,Brooklyn,Williamsburg,40.70812,-73.94003000000001,United States,US,True,strict,Private room,2006,$76 ,$15 ,3,27,6/19/2019,0.78,4,1,37,,
11354752,Modern Spacious Private One bedroom Free Parking.,80014969065,unconfirmed,Harvey,Queens,Flushing,40.72363,-73.80285,United States,US,False,flexible,Entire home/apt,2014,"$1,078 ",$216 ,1,197,6/24/2019,5.81,3,1,342,"Family friendly, no smoking please. Please bring trash outside, clean dishes before departure. Please be courteous to our neighbors no parties or pets are allowed.",
11355304,3 BR & Bath Sunny Quiet Entire Floor Brown,29474420149,unconfirmed,Michael,Brooklyn,Park Slope,40.67171,-73.97606999999999,United States,US,False,moderate,Entire home/apt,2009,$965 ,$193 ,3,29,5/6/2019,0.85,1,1,282,,
11355856,Artist's Townhouse,2064564704,unconfirmed,Lenissima,Brooklyn,Bedford-Stuyvesant,40.68785,-73.92412,United States,US,True,strict,Entire home/apt,2007,"$1,094 ",$219 ,4,6,12/31/2018,0.19,3,1,179,No smoking. No pets No visitors Cleaning of rooms & toilets will be down by guest after use and at check out.  A surcharge of $50 will be imposed if guests smoke within the property.  Sanitary pads are not allowed in the WC.   Kitchen utensils are to be washed after use always.  If you lose the keys $20 surcharge will be imposed for replacement. Turn off all lights and electronics  in your room if not in use or not home.,
11356409,Loft in the heart of Bushwick (jefferson L),88304329910,unconfirmed,Jefferson,Brooklyn,Bushwick,40.704609999999995,-73.92296999999999,United States,US,False,moderate,Entire home/apt,2015,"$1,197 ",$239 ,2,6,10/31/2016,0.17,1,1,0,"Our house is an eco-friendly, vegan, minimalistic one and we ask that guests adhere to the following guidelines: 1. No animal products such as eggs, dairy, meat, or by products are to be prepared in the kitchen.  These products may be wrapped and stored in the refrigerator in such a way that does not contaminate other foods. 2. Compost (red ceramic container next to the sink) all food waste and recycle (all paper, plastic and glass either in black bin in your room or white bin in the kitchen) before throwing something out.  We have a bin for donations if there is something you no longer need but does not easily recycle.  And please ask if you have any questions. 3. Shoes are not required to be removed but we do ask that any wet/muddy shoes and coats be removed at the door and hung up. 4. For long-term guests we will wash sheets once a week, please let us know if we should strip the bed or if you will leave these in the hamper. 5. Our check in time is any time after 5 PM, departure must",
11356961,"East midtown, Steps from the UN +GC",93502309204,verified,Leah,Manhattan,Midtown,40.75015,-73.97081999999999,United States,US,True,strict,Private room,2005,$630 ,$126 ,5,41,7/1/2019,1.2,4,1,333,#NAME?,
11357513,"Cozy Quiet/NYC, Brooklyn apt next to subway!!",79714257218,unconfirmed,Valerie,Brooklyn,Bedford-Stuyvesant,40.68234,-73.94943,United States,US,False,moderate,Entire home/apt,2018,$867 ,$173 ,3,132,6/24/2019,4.13,1,2,321,,
11358066,Jackson Heights 2 bedrooms housing,78517658803,unconfirmed,Nicholas,Queens,Jackson Heights,40.75495,-73.87774,United States,US,True,moderate,Entire home/apt,2009,$747 ,$149 ,2,115,6/24/2019,3.34,3,1,298,No smoking allowed in the house.  No pets.  No loud music or partying allowed at night.  Please respect the property as you would your own house.,
11358618,Unique Creative Artist Space in Brooklyn,63973094212,unconfirmed,Wilson,Brooklyn,Sunset Park,40.65348,-74.00255,United States,US,False,moderate,Entire home/apt,2022,$311 ,$62 ,1,1,8/13/2017,0.04,3,1,364,,
11359170,Sunny Upper East Side Escape,21992860265,verified,Caroline,Manhattan,Upper East Side,40.76749,-73.95470999999999,United States,US,False,strict,Private room,2009,$170 ,$34 ,4,101,6/26/2019,2.94,3,1,49,"No smoking inside the house.  Please respect the space, as this is our home.",
11359723,"Large studio in Williamsburg, 4B",57360658999,unconfirmed,Krzysztof,Brooklyn,Greenpoint,40.72043,-73.94253,United States,US,False,flexible,Entire home/apt,2008,$247 ,$49 ,30,8,6/8/2019,0.26,1,8,152,,
11360275,Beautiful Alcove Studio in West Midtown,27219259674,verified,Eyal,Manhattan,Chelsea,40.75122,-73.99658000000001,United States,US,True,moderate,Entire home/apt,2011,$660 ,$132 ,3,88,7/1/2019,2.59,4,1,200,"Guests are to clean after themselves after bathroom, kitchen, dinning, bed rooms and living room use. No smoking is allowed in the apartment. No pets are allowed Keys are to be returned where designated post reservation stay. Any damages to the property or its contents must be reported immediately",
11360827,"Sunny, Beautiful 2BR in Park Slope South",52143002251,unconfirmed,Remy,Brooklyn,Sunset Park,40.66148,-73.98942,United States,US,True,strict,Entire home/apt,2019,$726 ,$145 ,2,83,6/30/2019,2.4,3,2,7,"As the apartment is currently occupied by students, I ask that guest don't host parties here!",
11361379,Clean bright comfy 1BR east Harlem,96517954859,verified,John,Manhattan,East Harlem,40.79853,-73.93772,United States,US,False,flexible,Entire home/apt,2009,$107 ,$21 ,29,9,4/2/2018,0.26,2,1,35,"COMMON SENSE  -----------------  Common sense is the greatest rule :-) We all have it, so lets try to utilize it. FOOD AND DRINK  ---------------------- Kitchen is user friendly. Please clean up after yourself. Please eat and drink in the kitchen. No food is permitted in the guest rooms because of the potential for unwanted pests. Only bring water into the room. Feel free to use all the kitchen tools you may find useful but please when you are done, wash it. The host of the house is happy to show you how to use it. TOWELS, SHEETS AND PILLOWS  ---------------------  Upon your arrival you are given a couple of towels. Laundry service is not offered, there is a laundromat located close by within walking distance. Sheets/Towels are cleaned and changed every week. BATHROOMS  -------------------- Please limit your shower to 15 mins (This rule is in effect because previous guest have taken 45 - 60 min showers (to soothe their stress) Not only are you depriving your fellow guest of hot water, ",
11361932,Gorgeous Sunlit One Bedroom - Uptown Manhattan,14532122169,verified,Nichole,Manhattan,East Harlem,40.815059999999995,-73.93567,United States,US,False,moderate,Entire home/apt,2015,$520 ,$104 ,2,9,1/15/2017,0.26,5,1,0,"Please have a great time but ask me before you have guests, discuss parking, no animals, no loud music, no smoking or drugs, no prostitution or smuggling and please be very respectful of owners, tenant's  and neighbors. Boston is a very exciting city, we ask that you enjoy it but when you enter the premises, we also ask that you leave the party at the party. Please leave the unit as you received it and enjoy a relaxing stay!",
11362484,Eclectic Prime Williamsburg Space,6514002488,verified,Elana,Brooklyn,Williamsburg,40.712540000000004,-73.96410999999999,United States,US,False,flexible,Private room,2006,$582 ,$116 ,3,2,5/22/2017,0.06,3,2,0,- Quiet time after 16,
11363036,Charming 1BR with sun-nook in Brooklyn,68241406939,unconfirmed,Macushla,Brooklyn,Navy Yard,40.698029999999996,-73.97205,United States,US,False,moderate,Entire home/apt,2018,$256 ,$51 ,3,5,1/6/2018,0.14,4,1,0,I expect my guests to act as though they were in their own home. Make yourself comfortable. Enjoy the city. Put the toilet seat down. :) ,
11363589,Master bedroom with king size bed and private bath,62798411411,verified,Vicky,Queens,Sunnyside,40.73825,-73.92919,United States,US,True,moderate,Private room,2014,"$1,126 ",$225 ,3,9,6/16/2019,0.97,4,1,112,,
11364141,"1 Bedroom apartment in Woodside, NY",79150423292,verified,Eliana,Queens,Sunnyside,40.74473,-73.91334,United States,US,True,flexible,Entire home/apt,2017,$977 ,$195 ,2,51,6/9/2019,1.48,5,1,329,,
11364693,Apartment in Center of East Village,95786260344,unconfirmed,Jackie,Manhattan,East Village,40.73001,-73.98464,United States,US,True,moderate,Entire home/apt,2018,$957 ,$191 ,2,48,6/5/2019,1.41,4,1,344,"In order to provide a healthy, comfortable and safe environment, the following are the rules of my house. It is your responsibility to not only read these rules once, but to be aware of and follow all of them throughout your stay at my home. Most of what follows is common sense or common courtesy. The rules serve to protect you as a guest by helping ensure that the environment you find here is the one that I intended to create. Please keep in mind:  You will be sharing common areas with other guests or residents, and thus the cleanliness of the common areas is far more dependent upon all guests cleaning up after themselves, than it is upon my once a week cleaning. Most guests do very well in keeping common areas clean! House rules: Please do not drag luggage up the front stairs. Please leave things as they are in your room: do not remove pictures from walls, don't move furniture around, and do not remove mattress protector from the mattress. Also, it should not be necessary to say, but",
11365246,Small room in great neighborhood,55188646517,unconfirmed,David,Manhattan,Upper East Side,40.77819,-73.94596999999999,United States,US,True,moderate,Private room,2004,"$1,078 ",$216 ,25,5,6/1/2019,0.15,1,10,284,No Smoking in the Building.  ,
11365798,Luxury New York City Westside Suite,65037680419,unconfirmed,Rhondella,Manhattan,Midtown,40.76419,-73.98053,United States,US,True,flexible,Entire home/apt,2007,$347 ,$69 ,1,5,9/26/2018,0.15,3,1,361,"We live on a quiet street with many friendly homeowners, please be courteous of neighbors.  Our welcome binder includes helpful information.",
11366350,Penthouse Private Room w/Amazing Views,69761316591,unconfirmed,Zach,Brooklyn,Bushwick,40.69924,-73.91261,United States,US,True,moderate,Private room,2022,$852 ,$170 ,10,1,9/5/2016,0.03,3,2,0,,
11366902,纽约之家(SunnyHome3),63472286200,verified,Amy,Queens,Flushing,40.7459,-73.83298,United States,US,True,moderate,Private room,2016,$269 ,$54 ,1,54,4/15/2019,1.56,2,8,78,,
11367455,Brand New Luxury Apartment with Breathtaking Views,61646994529,verified,Floor,Manhattan,East Village,40.72088,-73.97825,United States,US,False,strict,Entire home/apt,2004,$405 ,$81 ,4,2,3/9/2018,0.09,3,1,0,"House Rules 1. All bookings made at least a week before check in are fully refundable if cancelled within 24 hours of booking. After this, you will receive a 50% refund if you cancel at least 7 days before the start of your trip. 2. Check-in time is any time after 4 pm local time. If the unit is ready earlier, we’ll let you know. Check-out is normally 11 am local time, but we’d be happy to extend it as long as we don’t have a cleaning scheduled. Just let us know.  3. All bookings require a security deposit of at least $300. 4. For security measures we require all guests to provide proof of identification through ID verification on our own website. In order to check in, we'll need a photo of your ID.  5. Don’t let $300 go up in smoke. There's no smoking allowed in any Flatbook and a $300 fine for breaking this rule.  6. Unfortunately we don’t allow pets in most of our apartments. 7. Unless you’re staying in one of our specialty apartments, we don’t allow parties or excessive noise. 8. I",
11368007,Cozy nook in the Brook(lyn),31230525398,unconfirmed,Christopher,Brooklyn,Bedford-Stuyvesant,40.69328,-73.95447,United States,US,True,strict,Private room,2003,$235 ,$47 ,1,3,9/19/2016,0.09,1,1,0,"Unlike most other Airbnb listings, what we do here is long-term rentals by the year, or by the semester.  We try to keep the atmosphere conducive to studying and resting and a couple of house-rules are in place to this end.  1. Towels and linens (sheets, blankets, and pillows) are NOT provided. The bed is full size. 2. No smoking on the premises.  3. No loud music or TV etc.  4. Only for one person (no couples, no visitors). We seldom have visitors, let alone overnight guests. We know this will be a major turn-off to many people, but we believe we can find a like-minded roommate who can have fun outside the house.  5. If you are not sure about your check-out date, you can reserve the minimum days and extend your stay at a discounted rate.  6. Check-in time has to be coordinated at least 48 hours ahead. On arrival, a short registration process with a picture ID is needed in exchange for keys and wifi access.  7. Inside the apartment, we take off our outside shoes. So if you bring your o",
11368559,BEST AREA IN CHELSEA. MODERN. COMPACT. HIGH LINE!!,65404071952,verified,Gina,Manhattan,Chelsea,40.75005,-73.99898,United States,US,True,moderate,Entire home/apt,2022,"$1,128 ",$226 ,1,80,6/22/2019,2.32,4,1,73,"Shoes off apartment (slippers available to guests) No smoking of any substance on the property Respectful Friendly Quiet Leave things as they were found, clean after yourself  No dishes left in the sink  Please use blue cups, bowls, utensils and plates and  Store dry foods in 3rd tall pantry cabinet for your personal food storage and store food in the fridge on the 1st top row Guests may not have additional guests without clearing them with me first",
11369112,West Harlem Cosy and Spacious Room,10403266187,verified,Irie,Manhattan,Harlem,40.81172,-73.94456,United States,US,True,flexible,Private room,2014,$256 ,$51 ,5,6,9/20/2017,0.18,4,2,305,No smoking allowed in the house.  No pets.  No loud music or partying allowed at night.  Please respect the property as you would your own house.,
11369664,"Ultramodern Luxury 1 BR w/ Terrace, Crown Heights",89521029040,unconfirmed,Alex,Brooklyn,Crown Heights,40.671620000000004,-73.95009,United States,US,False,moderate,Entire home/apt,2006,$279 ,$56 ,7,19,6/18/2019,0.56,5,5,333,,
11370216,Shared 1br in Flushing for cheap,84460705585,unconfirmed,Zack,Queens,Flushing,40.75338,-73.82342,United States,US,True,strict,Private room,2007,"$1,067 ",$213 ,1,6,9/13/2016,0.17,5,2,0,"There are real beds for eight. Linens, sheets, towels,  basic kitchen and basic toiletries are provided. Please leave the house in the condition that you found it. This unit is a townhouse with two neighbors attached side by side to the building. Please be respectful and keep noise to a minimum after 11pm and before 7am.  ""NO SMOKING"" ""NO PARTIES Thank you!",
11370769,Cozy Bed Stuy Two Room Studio,65849664435,verified,Jason,Brooklyn,Bedford-Stuyvesant,40.69154,-73.93094,United States,US,False,strict,Entire home/apt,2008,$573 ,$115 ,2,4,12/6/2016,0.12,4,1,0,"No Smoking in the house,  Respect and take care of apartment.  Any dishes you use should be clean/dishwasher loaded and run..  ",
11371321,Private Bedroom with Amazing Skyline View,63431751836,verified,Trey,Brooklyn,Bushwick,40.69945,-73.92771,United States,US,True,strict,Private room,2012,$82 ,$16 ,1,9,8/5/2017,0.26,4,2,0,Please remove your shoes at the door and use coasters for drinks on any furniture.,
11371873,NYC Studio Apt right by Central Park!!,750461323,unconfirmed,Kara,Manhattan,Midtown,40.76556,-73.98196999999999,United States,US,True,moderate,Entire home/apt,2019,$169 ,$34 ,30,1,10/25/2017,0.05,3,121,189,"House Rules 1. Check-in is 4 pm local time. If the unit is ready earlier, we’ll let you know. Check-out is normally 11 am local time, but we’d be happy to extend it as long as we don’t have a cleaning scheduled. Just let us know.  2. All bookings require a security deposit of at least $300, which will be refunded within 7 days of your check-out. 3. For security measures we require all guests to provide proof of identification through ID verification on our own website. In order to check in we'll need a photo of your ID.  4. Our cancellation policy is as shown on our ad and defined by the site you are booking through.  5. Don’t let $300 go up in smoke. There's no smoking allowed in any Flatbook and a $300 fine for breaking this rule.  6. Unfortunately we don’t allow pets in any of our apartments. 7. Unless you’re staying in one of our specialty apartments, we don’t allow parties or excessive noise. 8. If we find the place very messy, we have to charge an extra $40 for every extra hour o",
11372425,Cozy Bed Stuy Getaway,90927501686,verified,Stephanie,Brooklyn,Bedford-Stuyvesant,40.68327,-73.92598000000001,United States,US,False,flexible,Entire home/apt,2004,$871 ,$174 ,2,7,6/26/2019,2.84,5,1,255,"No Smoking in building,  Respect for other guests and neighbors.  Quiet after 10 pm. Parking is available on Linwood and Gardner streets 24 hours.  No parking is permitted on Centre Place.",
11372978,Entire studio in Williamsburg,58873597919,verified,Krzysztof,Brooklyn,Williamsburg,40.71906,-73.94394,United States,US,False,strict,Entire home/apt,2008,$722 ,$144 ,30,10,4/21/2019,0.32,2,8,97,"We're laid back and don't have too many rules! There is a porch outside if you need to smoke. We like to keep our home neat and hope you help us keep it how you find it!  We do ask that you do not bring guests back. This is a way for us to control who is in our home, and it means a lot to us.  As for noise, just be reasonable. If it's getting late, you know the drill :)",
11373530,Modern Apartment on the UES,56010034266,unconfirmed,Hillary,Manhattan,Upper East Side,40.781940000000006,-73.94791,United States,US,True,flexible,Private room,2004,$702 ,$140 ,1,1,6/11/2017,0.04,2,1,0,"House Rules 1. All bookings made at least a week before check in are fully refundable if cancelled within 24 hours of booking. After this, you will receive a 50% refund if you cancel at least 7 days before the start of your trip. 2. Check-in time is any time after 4 pm local time. If the unit is ready earlier, we’ll let you know. Check-out is normally 11 am local time, but we’d be happy to extend it as long as we don’t have a cleaning scheduled. Just let us know.  3. All bookings require a security deposit of at least $300. 4. For security measures we require all guests to provide proof of identification through ID verification on our own website. In order to check in, we'll need a photo of your ID.  5. Don’t let $300 go up in smoke. There's no smoking allowed in any Flatbook and a $300 fine for breaking this rule.  6. Unfortunately we don’t allow pets in most of our apartments. 7. Unless you’re staying in one of our specialty apartments, we don’t allow parties or excessive noise. 8. I",
11374082,"1 bdrm in Park Slope , Bklyn.",18549554391,unconfirmed,Phyllis,Brooklyn,Park Slope,40.67915,-73.98156999999999,United States,US,False,moderate,Entire home/apt,2014,$812 ,$162 ,1,4,8/20/2018,0.15,3,1,20,"There are real beds for eight, one pull out couch, and one single mattress available. Linens, sheets, towels, kitchen staples, breakfast foods, and basic toiletries provided. Games, toys and books are here for your use, make themselves at home. Please leave the house in the condition that you found it. This unit is on the second and third floors of a two-family I own, and I have tenants below. Please be respectful of them, and my neighbors, and keep noise to a minimum after 11pm and before 7am. Thank you!",
11374635,Crown Heights 1 BR w/ Style,96785193063,unconfirmed,Landon,Brooklyn,Crown Heights,40.67541,-73.95221,United States,US,True,strict,Entire home/apt,2013,$885 ,$177 ,2,16,9/30/2018,0.49,4,1,0,,
11375187,Private Room in the Heart of SoHo,87539115398,unconfirmed,Harriet,Manhattan,Nolita,40.72204,-73.99705,United States,US,True,flexible,Private room,2018,$577 ,$115 ,2,10,3/19/2017,0.29,3,1,0,"House Rules 1. Check-in is 4 pm local time. If the unit is ready earlier, we’ll let you know. Check-out is normally 11 am local time, but we’d be happy to extend it as long as we don’t have a cleaning scheduled. Just let us know.  2. All bookings require a security deposit of at least $300, which will be refunded within 7 days of your check-out. 3. For security measures we require all guests to provide proof of identification through ID verification on our own website. In order to check in we'll need a photo of your ID.  4. Our cancellation policy is as shown on our ad and defined by the site you are booking through.  5. Don’t let $300 go up in smoke. There's no smoking allowed in any Flatbook and a $300 fine for breaking this rule.  6. Unfortunately we don’t allow pets in any of our apartments. 7. Unless you’re staying in one of our specialty apartments, we don’t allow parties or excessive noise. 8. If we find the place very messy, we have to charge an extra $40 for every extra hour o",
11375739,Spacious Artist's Apartment,10540911553,unconfirmed,Annika,Brooklyn,Bushwick,40.69983,-73.92981,United States,US,False,moderate,Private room,2013,$951 ,$190 ,2,5,8/13/2017,0.15,3,1,0,No parties. No overnight guests. Please use your time in the city to get out and explore and use the apartment as an experience to stay in a neighborhood where you'll never find a hotel! You are so close to everything!,
11376292,An Urban Oasis in the Heart of Downtown Brooklyn,31730484107,unconfirmed,Alicia,Brooklyn,Boerum Hill,40.68475,-73.97986,United States,US,True,moderate,Entire home/apt,2005,"$1,200 ",$240 ,2,10,4/28/2019,0.29,5,1,11,No smoking except smoke deck.,
11376844,Light Filled Chinatown Apartment,69345613446,verified,Erin,Manhattan,Chinatown,40.715340000000005,-73.99918000000001,United States,US,True,moderate,Entire home/apt,2016,$788 ,$158 ,1,23,7/1/2019,1.42,3,1,14,"No pets, and no smoking indoors.",
11377396,"Cute, central East Village apt",21331652928,unconfirmed,Tamar,Manhattan,East Village,40.72891,-73.98868,United States,US,False,moderate,Entire home/apt,2010,$464 ,$93 ,2,22,5/26/2019,0.64,5,1,8,"A list of house details, rules and local information will be provided upon arrival.",
11377948,Lovely 1 BR in Prime Location on E 26 & 3 - NYC,33822191178,verified,Mor,Manhattan,Midtown,40.76505,-73.97856999999999,United States,US,True,flexible,Entire home/apt,2012,$706 ,$141 ,30,3,5/4/2019,0.09,4,9,0,"Shoes off apartment (slippers available to guests) No smoking of any substance on the property Respectful Friendly Quiet Leave things as they were found, clean after yourself  No dishes left in the sink  Please use green cups, bowls, utensils and plates and  Store dry foods in 2nd tall pantry cabinet for your personal food storage and store food in the fridge on the 2nd row Guests may not have additional guests without clearing them with me first",
11378501,Nice bedroom by Riverside & Columbia University,31074487454,verified,Ali,Manhattan,Morningside Heights,40.81231,-73.95858,United States,US,False,flexible,Private room,2019,$900 ,$180 ,2,20,8/13/2017,0.59,4,1,0,,
11379053,Harlem Comfort and Style,50062405754,verified,Heidi,Manhattan,Harlem,40.80697,-73.945,United States,US,False,flexible,Entire home/apt,2013,$69 ,$14 ,3,25,6/21/2019,0.73,5,1,89,"Shoes off apartment (slippers available to guests) No smoking of any substance on the property Respectful Friendly Quiet Leave things as they were found, clean after yourself  No dishes left in the sink  Please use white cups, bowls, utensils and plates and  Store dry foods in pantry cabinet below the microwave for your personal food storage and store food in the fridge on the left half of the 3rd row Guests may not have additional guests without clearing them with me first",
11379605,"Large, beautiful room near Bushwick",56156441697,unconfirmed,Chris,Queens,Ridgewood,40.70925,-73.91124,United States,US,False,strict,Private room,2012,$978 ,$196 ,5,2,9/21/2016,0.06,1,1,280,"No street shoes in the house, please, but especially not in the bedrooms. We recycle - make sure you do too while you're here. It's single stream so very easy -ask if you're not sure how it works. Check-in and check-out times are flexible all days except Sunday where check-out is by 11 a.m.",
11380158,Country Manhattan Private Bedroom Suite,49605112688,unconfirmed,Gladys,Manhattan,Inwood,40.86541,-73.92106,United States,US,True,strict,Private room,2015,$427 ,$85 ,5,0,,,1,1,0,- Guests can smoke outside the building in my backyard if they smoke. - Please arrive at or after 6:30pm as I work during the day and before 11:30pm.,
11380710,Sid's Victorian Peaceful Haven,57433032557,verified,Sidney,Brooklyn,Flatbush,40.64028,-73.96095,United States,US,False,moderate,Private room,2018,$123 ,$25 ,1,134,6/19/2019,3.95,3,3,307,Shoes-off home Respectful Friendly Quiet No smoking of any substance on the property No pets Leave things as they were found Clean up after yourself Reminder: Rest of apartment (kitchen or living room) not available to guests  Guests may not have additional guests without clearing them with Celia or Jonathan.,
11381262,Cozy and close to Manhattan,24140273557,verified,Vytaute,Queens,Ridgewood,40.699009999999994,-73.90168,United States,US,True,flexible,Entire home/apt,2012,"$1,013 ",$203 ,3,111,6/26/2019,3.21,2,1,65,#NAME?,
11381815,FAIRY COTTAGE,9497811724,verified,Natasha,Queens,Long Island City,40.75253,-73.9315,United States,US,True,strict,Entire home/apt,2020,$893 ,$179 ,2,0,,,2,1,0,"Pets are cool (just clean up after them!), smoking outside is allowed, and alcohol/coming home drunk is totally ok. If you drink our alcohol then please help replace it or chip in! Otherwise, we're pretty simple college guys who enjoy being social.",
11382367,Huge Brownstone! Private Room! Clean! City in 15!,83339992609,verified,Josh,Brooklyn,Bedford-Stuyvesant,40.69385,-73.94413,United States,US,True,moderate,Private room,2010,$456 ,$91 ,3,86,6/26/2019,2.57,4,4,0,"Starting mid-November, I am looking for a longer-term guest (2+ months); someone who is responsible and employed outside of the home. A sublease agreement will need to be signed for any stay longer than one month.",
11382919,"Midtown East Studio Apt ~ Private, Cozy & Bright",32045721972,verified,Meg,Manhattan,Midtown,40.75735,-73.96438,United States,US,False,flexible,Entire home/apt,2013,$231 ,$46 ,2,22,6/30/2019,0.64,5,1,8,"Just be clean, be tidy, be yourself and enjoy your stay.",
11383471,Upscale Furnished Studio near Union Square!!,12697071197,verified,Kara,Manhattan,Chelsea,40.74615,-73.99181999999999,United States,US,False,moderate,Entire home/apt,2019,$405 ,$81 ,30,0,,,2,121,184,,
11384024,"BEACH BLOCK IN ♡ OF ROCKAWAY, NYC",20172003816,unconfirmed,Nancy,Queens,Rockaway Beach,40.58664,-73.81295,United States,US,False,flexible,Entire home/apt,2003,$635 ,$127 ,3,24,6/8/2019,0.71,2,1,131,#NAME?,
11384576,Brooklyn Vibe,61810730135,verified,Kathleen,Brooklyn,East New York,40.67257,-73.89081999999999,United States,US,True,flexible,Private room,2014,"$1,016 ",$203 ,5,27,6/8/2019,0.81,1,2,42,Will send it as soon as reservation is confirmed.,
11385128,Cozy Space w/ Separate Entrance,96163419897,verified,Tanya,Staten Island,South Beach,40.59385,-74.08825,United States,US,True,strict,Private room,2003,$155 ,$31 ,1,38,5/5/2019,1.1,5,1,308,,
11385681,"Doorman, modern apart. on Broadway (Central Park)",84383572624,verified,S.,Manhattan,Upper West Side,40.79501,-73.97131999999999,United States,US,True,strict,Entire home/apt,2010,$357 ,$71 ,3,2,10/17/2017,0.06,1,1,0,"Unlike most other Airbnb listings, what we do here is long-term rentals by the year, or by the semester and we can welcome compatible short-term guests. We try to keep the atmosphere conducive to studying and resting and a couple of house-rules are in place to this end.  1. Non-smoker preferred.  2. No loud music or TV etc.  3. Only for one person (no couples, no visitors). We seldom have visitors, let alone overnight guests. We know this will be a major turn-off to many people, but we believe we can find a like-minded roommate who can have fun outside the house.  4. If you re not sure about your check-out date, you can reserve the minimum days and extend your stay at a discounted rate.  5. Check-in time is flexible, but it has to be coordinated at least 24 hours ahead. On arrival, a short registration process with a picture ID is needed in exchange for keys and wifi access.  6. Inside the apartment, we take off our outside shoes. So if you bring your own flip-flops, slippers or some k",
11386233,2 bed/2 bath floor - unique West Village townhouse,58859862747,verified,Barbara,Manhattan,West Village,40.73537,-74.00209,United States,US,True,flexible,Entire home/apt,2009,$718 ,$144 ,2,57,7/1/2019,1.68,4,2,22,Please note that there is no smoking or any type of drugs in the apartment and please be respectful of other apartment mates. You are welcome to use the kitchen appliances as long as you clean up after yourself!,
11386785,1 Bedroom in Upper East Side,49134386556,verified,Sanket,Manhattan,Upper East Side,40.779720000000005,-73.94543,United States,US,True,moderate,Private room,2013,$58 ,$12 ,100,0,,,5,1,0,Shoes off apartment (slippers available to guests)  No smoking of any substance on the property  No parties Respectful  Friendly  Quiet  Leave things as they were found upon check-out,
11387338,Modern luxury apartment in downtown Manhattan,27187863997,unconfirmed,Th,Manhattan,Financial District,40.70402,-74.00776,United States,US,False,flexible,Entire home/apt,2004,$661 ,$132 ,3,3,10/23/2016,0.09,4,1,0,,
11387890,"Beautiful basement apt in Forest Hills, Queens",42368037007,verified,Julia,Queens,Forest Hills,40.72,-73.85410999999999,United States,US,False,moderate,Private room,2014,$899 ,$180 ,1,26,6/10/2019,0.93,1,1,284,Shoes-off home [tray provided] Respectful Friendly Quiet No smoking of any substance(s) on the property No pets Leave things as they were found Clean up after yourself Reminder: Rest of unit (main kitchen & living room not available to guests) Guests may not have additional guests without clearing them with Celia [or Jonathan].,
11388442,Modern 1BR Apt in the Heart Of NYC,1041354516,verified,Val,Manhattan,Hell's Kitchen,40.75611,-73.99387,United States,US,False,flexible,Entire home/apt,2007,$418 ,$84 ,7,17,6/30/2019,0.53,5,1,5,"No smoking within the apartment, though may do so on the back pouch. No pet allowed for other's safety reason. Keys must be left behind at the end of stay to avoid monetary penalty. Clean after self after use of  common areas for others comfort and convenience.",
11388994,Beautiful Park Slope apartment in great location!,42172188973,unconfirmed,Stephen,Brooklyn,Park Slope,40.668209999999995,-73.98253000000001,United States,US,True,strict,Entire home/apt,2004,$67 ,$13 ,31,8,3/4/2019,0.23,5,1,179,Shoes-off home Respectful Friendly Quiet No smoking on the property Of course no drugs No pets Leave things as they were found Clean up after yourself,
11389547,Spacious Living in Ditmas Park,562217785,unconfirmed,Lio & Kim And Yotam,Brooklyn,Flatbush,40.641890000000004,-73.96066,United States,US,False,strict,Entire home/apt,2012,$885 ,$177 ,3,4,3/22/2019,0.12,2,1,69,,
11390099,"1BR on own floor, by park & subway",64716359180,unconfirmed,Matthew,Brooklyn,Crown Heights,40.67154,-73.96221,United States,US,True,moderate,Private room,2008,$406 ,$81 ,1,8,10/23/2016,0.23,2,1,0,No smoking on premises. no unnecessary noise.,
11390651,Serene & Clean Cuartito with Garden View,61018176817,unconfirmed,Manny & Gemma,Brooklyn,Greenpoint,40.72948,-73.94918,United States,US,True,strict,Private room,2015,$685 ,$137 ,1,154,6/15/2019,4.49,2,2,44,,
11391204,Brooklyn Gem: Stylish & Family Friendly,55449258294,verified,Evan,Brooklyn,Bedford-Stuyvesant,40.678540000000005,-73.92321,United States,US,False,moderate,Entire home/apt,2010,$518 ,$104 ,2,6,6/30/2019,0.66,2,1,9,"Unlike most other Airbnb listings, what we do here is long-term rentals by the year, or by the semester.  We try to keep the atmosphere conducive to studying and resting and a couple of house-rules are in place to this end.  1. Towels and linens (sheets, blankets, and pillows) are NOT provided. The bed is twin size.  2. No smoking on the premises.  3. No loud music or TV etc.  4. Only for one person (no couples, no visitors). We seldom have visitors, let alone overnight guests. We know this will be a major turn-off to many people, but we believe we can find a like-minded roommate who can have fun outside the house.  5. If you are not sure about your check-out date, you can reserve the minimum days and extend your stay at a discounted rate.  6. Check-in time has to be coordinated at least 48 hours ahead. On arrival, a short registration process with a picture ID is needed in exchange for keys and wifi access.  7. Inside the apartment, we take off our outside shoes. So if you bring your ",
11391756,Crown Heights and Cozy Self-Catering,12994687628,unconfirmed,Loretta,Brooklyn,Crown Heights,40.67564,-73.95496999999999,United States,US,False,moderate,Entire home/apt,2022,$111 ,$22 ,3,48,5/25/2019,1.42,1,1,3,,
11392308,"Spacious Private Bedroom, 10 min to Central Park",85816501754,verified,Rachel,Manhattan,Washington Heights,40.835029999999996,-73.94166,United States,US,True,moderate,Private room,2003,$464 ,$93 ,2,73,6/18/2019,2.13,3,2,136,,
11392861,Duplex apartment in the heart of Brooklyn,18820646584,verified,Andres&Ine,Brooklyn,Bedford-Stuyvesant,40.68381,-73.94346,United States,US,False,strict,Entire home/apt,2020,$827 ,$165 ,3,41,6/29/2019,1.2,1,1,30,,
11393413,Studio In Williamsburg w/ Amazing View Waterfront,73132947067,verified,Jason,Brooklyn,Williamsburg,40.7122,-73.96619,United States,US,True,moderate,Entire home/apt,2016,"$1,128 ",$226 ,2,51,4/21/2019,1.51,4,1,0,We ask that guests leave the apartment in the condition that they found it.,
11393965,Spacious 3 Bedroom Apartment Near Prospect Park,27417199614,verified,Nichole,Brooklyn,Prospect-Lefferts Gardens,40.65651,-73.95322,United States,US,False,strict,Entire home/apt,2009,$460 ,$92 ,14,2,10/30/2016,0.06,4,4,90,,
11394517,Bright Cozy Apartment next to Prospect Park,8949126938,unconfirmed,Gracelyn,Brooklyn,Windsor Terrace,40.65828,-73.98451,United States,US,False,flexible,Entire home/apt,2009,$975 ,$195 ,2,5,7/21/2017,0.15,4,2,0,No Smoking and please clean dishes before departure.,
11395070,Voted “Best of Williamsburg” / 1000 sqft Loft,11024737203,verified,Logan,Brooklyn,Williamsburg,40.71865,-73.96392,United States,US,True,strict,Entire home/apt,2016,$880 ,$176 ,2,43,6/23/2019,1.27,1,1,38,,
11395622,"RENOVATED 2-Bedroom, Near subway, comfy & cosy!",18188997443,unconfirmed,Caroline,Brooklyn,Bushwick,40.68312,-73.9086,United States,US,True,strict,Entire home/apt,2005,$572 ,$114 ,30,42,2/28/2019,1.24,5,1,355,Can have friends but not parties. Ideal for students,
11396174,"Kingsbridge Heights, The Bronx, NY.",21258714008,verified,Eduardo,Bronx,Kingsbridge,40.86932,-73.90057,United States,US,True,moderate,Private room,2006,$896 ,$179 ,2,56,6/12/2019,1.68,3,1,38,"Shoes off apartment (slippers available to guests) No smoking of any substance on the property Respectful Friendly Quiet Leave things as they were found, clean after yourself  No dishes left in the sink  Please use black cups, bowls, utensils and plates and  Store dry foods in 1st tall pantry cabinet for your personal food storage and store food in the fridge on the right half of the 3rd row Guests may not have additional guests without clearing them with me first Reminder: The bedroom is lofted, open over the staircase located on the top penthouse level of the apartment & building (5th floor) all to yourself. There's no door.",
11396727,Beautiful Sunny Small Room,8329230905,unconfirmed,Sharon,Brooklyn,Bedford-Stuyvesant,40.686240000000005,-73.95528,United States,US,True,flexible,Private room,2006,$467 ,$93 ,1,204,7/4/2019,5.92,4,1,163,No smoking.,
11397279,Sid's Victorian Quiet Hideaway,68812258604,unconfirmed,Sidney,Brooklyn,Flatbush,40.64018,-73.96152,United States,US,True,flexible,Private room,2003,$456 ,$91 ,1,97,6/17/2019,2.9,4,3,286,,
11397831,Cozy Room Right Next to Central Park,67160904179,verified,Lisa,Manhattan,Hell's Kitchen,40.76793,-73.98561,United States,US,True,flexible,Private room,2004,$257 ,$51 ,1,133,7/5/2019,3.95,2,1,61,,
11398384,DUMBO couch with A/C near the Brooklyn Bridge,31428907381,unconfirmed,Phillip,Brooklyn,Vinegar Hill,40.70156,-73.98199,United States,US,False,moderate,Shared room,2005,$764 ,$153 ,2,37,6/6/2019,1.09,1,1,83,,
11398936,Beautiful room with all Amenities and gym,5915978071,unconfirmed,David,Manhattan,Harlem,40.8153,-73.93741,United States,US,True,flexible,Private room,2018,$978 ,$196 ,2,26,10/24/2018,0.76,5,4,280,,
11399488,Big Room in Manhattan Apt,64172425448,verified,Richard,Manhattan,Washington Heights,40.846059999999994,-73.93325,United States,US,False,strict,Private room,2022,$388 ,$78 ,5,0,,,1,1,365,,
11400040,1 BR in Williamsburg by Bedford Ave Station,9884577728,verified,Sasha,Brooklyn,Williamsburg,40.714490000000005,-73.96311,United States,US,False,flexible,Private room,2005,$826 ,$165 ,2,8,6/29/2017,0.23,4,5,0,No smoking in building per MGL. ,
11400593,Luxury Studio Apt Overlooking the Hudson River,17785965883,unconfirmed,Kara,Manhattan,Hell's Kitchen,40.76021,-73.99969,United States,US,True,moderate,Entire home/apt,2015,"$1,183 ",$237 ,30,2,5/10/2019,0.08,1,121,365,"One week minimum stay please. No smoking, no pets. Antique furnishings so just be careful with glasses, coffee cups, etc..",
11401145,Sunny 1 Bedroom in Harlem,7275609752,verified,Esi,Manhattan,Harlem,40.81949,-73.94621,United States,US,True,flexible,Entire home/apt,2007,$172 ,$34 ,3,67,7/1/2019,1.96,5,1,0,,
11401697,Cozy walk-up in The Upper East Side,51658892733,verified,Toby,Manhattan,Upper East Side,40.773340000000005,-73.94848,United States,US,True,strict,Private room,2019,$818 ,$164 ,1,3,9/19/2016,0.09,5,1,0,No Smoking.  No Pets.,
11402250,Quaint Studio. 20 mins to City,82735875025,unconfirmed,Odi,Queens,Sunnyside,40.74211,-73.91646,United States,US,False,moderate,Entire home/apt,2007,$624 ,$125 ,2,48,6/16/2019,1.42,5,1,13,No Smoking.  No Pets.,
11402802,Comfortable Bedroom near train.,7592952643,verified,Lucia,Bronx,Parkchester,40.83112,-73.87319000000001,United States,US,True,flexible,Private room,2022,$197 ,$39 ,3,25,6/15/2018,0.73,2,2,0,"1.  Check-in time is after 3 p.m. and check-out time is before 11 a.m.    2.  DO NOT TAKE KEYS WITH YOU! On the Departure Date, the keys shall be left on the kitchen counter.  The door to the Property MUST BE LOCKED BEHIND YOU using the key from the lockbox located inside the drawer to the foyer table.  The front door to the building can simply be closed behind you. 3. This is a NON SMOKING property. The smell of smoke in the property, including the common areas of the building, will result in loss of security deposit. 4. A Security Deposit of $250 is required for stays of less than one month.  For monthly stays a Security Deposit of $750 is required. The Security Deposit is fully refundable within 48 hours of departure, provided the following provisions are met:  a.    No damage is done to home or its contents, beyond normal wear and tear.  b.    No charges are incurred due to contraband, pets of Guest, or collection of rents or services rendered during the stay or any other act or om",
11403354,Apt with Modern Lights Available,5062017245,unconfirmed,Abdul Fattah,Brooklyn,Bedford-Stuyvesant,40.68789,-73.9575,United States,US,True,flexible,Private room,2012,$400 ,$80 ,3,3,9/24/2017,0.1,2,1,0,NO Smoking,
11403907,Entire 1bdr Manhattan NY,33104693793,unconfirmed,KaLisa & Christian,Manhattan,Inwood,40.8604,-73.92716,United States,US,False,strict,Entire home/apt,2020,$775 ,$155 ,3,4,7/13/2018,0.18,3,1,0,,
11404459,"Sunny Art Loft in Bushwick, Brooklyn + 1 Cute Cat",65285728270,unconfirmed,Julia,Brooklyn,Bushwick,40.70708,-73.92343000000001,United States,US,False,moderate,Entire home/apt,2012,$733 ,$147 ,1,44,6/26/2019,1.3,4,1,38,,
11405011,Bronx Retreat in Contemporary Apt,48866620568,verified,Tara,Bronx,Fieldston,40.88985,-73.90746999999999,United States,US,False,moderate,Private room,2012,$660 ,$132 ,2,16,9/1/2017,0.47,4,1,0,"No smoking in apartment, foyer,  or outside building.  No parties. No pets. Quiet and respectful of our neighbors.  ",
