id,NAME,host id,host_identity_verified,host name,neighbourhood group,neighbourhood,lat,long,country,country code,instant_bookable,cancellation_policy,room type,Construction year,price,service fee,minimum nights,number of reviews,last review,reviews per month,review rate number,calculated host listings count,availability 365,house_rules,license
19061546,Bedroom - in the heart of the East Village,46678401091,verified,Livia,Manhattan,East Village,40.7293,-73.98325,United States,US,False,moderate,Private room,2005,$274 ,$55 ,2,4,3/24/2019,0.31,4,2,0,,
19062098,Luxurious New Building in the Heart of Bushwick,34957461036,verified,Alexandre,Brooklyn,Bushwick,40.69905,-73.92466,United States,US,True,strict,Entire home/apt,2015,"$1,010 ",$202 ,4,0,,,5,1,0,"My roommates and I take a lot of pride in keeping the house clean and tidy, particularly the common areas. If you plan on staying for more than a couple weeks, all the cleaning supplies under the kitchen sink and a vacuum are at your disposal :) No pets and no smoking please.",
19062651,Duplex with private terrace in Williamsburg,34739161580,verified,Wei,Brooklyn,Williamsburg,40.7128,-73.96244,United States,US,True,strict,Entire home/apt,2012,$667 ,$133 ,60,0,,,4,1,263,#NAME?,
19063203,Historic New York Home,4588747494,verified,Cristina,Manhattan,NoHo,40.72842,-73.99289,United States,US,True,flexible,Private room,2003,$459 ,$92 ,7,10,6/9/2019,0.93,4,1,317,,
19063755,Private room + bathroom in 2 bed apartment,27426368546,verified,Alper,Brooklyn,Bedford-Stuyvesant,40.681740000000005,-73.94436999999999,United States,US,False,strict,Private room,2015,$291 ,$58 ,3,2,5/11/2019,0.16,3,1,176,,
19064308,New York City home away from home :),21963780848,unconfirmed,Ania,Staten Island,St. George,40.64497,-74.08267,United States,US,False,strict,Entire home/apt,2020,$805 ,$161 ,4,19,6/20/2019,1.54,4,1,131,"Please be mindful that I live in the same building. If you break these rules, I will probably know about it. I have had the rare guests that caused problems, so I do take the rules quite seriously.   All guests must be OVER 21 years old to stay.  No parties and/or visitors. Do not bring your own guests or visitors over. Do not show up with your friends/family that are in the area. The only people allowed in the listing are the guests (2 adults max, including yourself) that are included in your reservation. You can not bring anyone else over, even if it's just for a few minutes. No exceptions, so please don't ask. I'm picky about this rule because I have had college kids try to book this place for parties and gatherings.  Please turn off the AC and lights when you go outside. Please be respectful of the neighbors and the listing. This isn't a place to be rowdy. No smoking anywhere. Please no e-cig/vaping either. No candles, incense or other open flames Please do not move or rearrange th",
19064860,Sonder | 180 Water | Charming Studio + Rooftop,60683143709,verified,Sonder,Manhattan,Financial District,40.70626,-74.00565,United States,US,True,strict,Entire home/apt,2009,$229 ,$46 ,29,0,,,5,96,322,,
19065412,Spacious and convenient Harlem Guest Room.,53375888570,unconfirmed,Crystal,Manhattan,Harlem,40.82823,-73.93925,United States,US,True,moderate,Private room,2014,$610 ,$122 ,5,17,6/30/2019,1.36,2,1,119,,
19065964,Brooklyn Care & Comfort,42293763614,verified,Nikki,Brooklyn,Flatbush,40.643240000000006,-73.96332,United States,US,True,moderate,Private room,2013,$145 ,$29 ,2,26,7/1/2019,2.02,3,4,2,"- I work at home and prefer to rent to folks who are visiting Boston for business and professional reasons.  Most of my guests are here to work in the Longwood Medical Area.  I often rent to fourth-year medical students doing rotations at HMS, and to physicians and post-docs affiliated with other institutions in the LMA. - I have a dog and two cats, so please take care and don't leave the front door standing open. -Please, no guests.  There are lots of pubs in the neighborhood if you want to meet friends.",
19066517,"Rustic room in beautiful, naturesque Fort Greene",5327714943,unconfirmed,Brendan,Brooklyn,Clinton Hill,40.6943,-73.96916999999999,United States,US,False,moderate,Shared room,2003,$569 ,$114 ,2,4,8/13/2018,0.31,4,1,0,,
19067069,Beautiful Room in Fort Greene,92568631879,unconfirmed,Abeyu,Brooklyn,Fort Greene,40.68464,-73.97094,United States,US,True,strict,Private room,2008,"$1,190 ",$238 ,3,9,7/3/2019,0.75,2,1,7,,
19067621,Sanctuary on Court Street (Carroll Gardens),50172616988,unconfirmed,Catherine,Brooklyn,Carroll Gardens,40.6755,-73.99806,United States,US,True,moderate,Private room,2021,$461 ,$92 ,2,35,6/9/2019,2.75,5,1,0,"This place is about enjoying good times and the views, great place to take it all in. This is not a good set-up for children ages 1-13.",
19068174,"Cozy & Chic 1 Bedroom, Upper East Side, Manhattan",41928599228,unconfirmed,Roseanne,Manhattan,Upper East Side,40.7752,-73.95572,United States,US,True,flexible,Entire home/apt,2014,"$1,177 ",$235 ,5,18,7/3/2019,1.4,5,1,21,Shoes off Clean After yourself Turn Lights and your room AC off when leaving the apartment Clean the stove with the specific cleaner when used (Ask the host about it),
19068726,Private room for two in Harlem apartment!,5298235336,unconfirmed,Alexandra,Manhattan,Harlem,40.80018,-73.95379,United States,US,False,strict,Private room,2014,$621 ,$124 ,6,2,6/30/2019,0.32,3,1,0,#NAME?,
19069278,Private Room in the heart of NYC. Room 3 of 3,53778613197,verified,Allison,Manhattan,Murray Hill,40.74907,-73.97818000000001,United States,US,False,moderate,Private room,2021,"$1,197 ",$239 ,1,52,7/4/2019,4.26,4,3,40,"* Check out: 10am * We made an effort to keep things organized. Please help us to maintain the house as beautiful and clean as possible.  * Please ask before bringing visitors, and sorry I can only allow the number of guest on the reservation to stay overnight.  * I also ask that shoes not be worn in the house to keep the wood floors clean, and that you only eat in the dining room area.",
19069831,Sonder | 116 John | Charming Studio + Gym,96908040047,unconfirmed,Sonder,Manhattan,Financial District,40.707240000000006,-74.0051,United States,US,True,moderate,Entire home/apt,2016,$836 ,$167 ,29,0,,,2,96,326,"Each of us is working and/or going to school at the moment, so weekday guests are expected to respect a quiet period from 12am to 8am. On weekends, we almost always go out and encourage you to do the same! You're welcome to make noise in your room at a reasonable level, but we prefer that you wrap it up no later than 3am at the absolute latest on weekends.",
19070383,4 Bedroom Townhouse near Prospect Park w/Garden,90770273739,verified,Amy,Brooklyn,Windsor Terrace,40.649190000000004,-73.9731,United States,US,True,flexible,Entire home/apt,2014,"$1,004 ",$201 ,7,1,7/21/2018,0.08,4,1,8,"Please remember that this is a residential building.  All building rules, Hotel occupancy restrictions, and year-round tenants must be respected.",
19070935,BROOKLYN Quiet Den,62257977487,verified,Alex,Brooklyn,Canarsie,40.64795,-73.89336999999999,United States,US,False,flexible,Private room,2014,$554 ,$111 ,2,36,6/16/2019,2.76,5,1,144,,
19071487,Quiet 2BD Brooklyn Cheap Stay,40141112340,unconfirmed,Reggie,Brooklyn,Bedford-Stuyvesant,40.68202,-73.92151,United States,US,False,strict,Entire home/apt,2020,"$1,014 ",$203 ,1,42,6/21/2019,3.16,2,1,133,"Please remember that this is a residential building.  All building rules, hotel occupancy restrictions, and year-round tenants must be respected.",
19072040,Lovely Room in the Heart of Manhattan,21846836894,unconfirmed,Kazuya,Manhattan,Harlem,40.81118,-73.94230999999999,United States,US,False,strict,Private room,2010,$790 ,$158 ,30,4,4/6/2019,0.37,4,103,244,,
19072592,Simple & Convenient Manhattan Room,38364680732,unconfirmed,Kazuya,Manhattan,Harlem,40.81207,-73.94359,United States,US,False,strict,Private room,2017,$401 ,$80 ,30,2,1/31/2019,0.18,5,103,184,,
19073144,Cozy 2 Bedroom in Murray Hill!,5415765203,unconfirmed,Christian,Manhattan,Kips Bay,40.74493,-73.97743,United States,US,False,moderate,Entire home/apt,2020,$540 ,$108 ,3,1,8/9/2018,0.09,4,1,0,,
19073697,Large one-bedroom in heart of West Village,20461522309,verified,Blair,Manhattan,West Village,40.73492,-74.00418,United States,US,False,strict,Entire home/apt,2006,$764 ,$153 ,2,5,6/24/2019,0.57,2,1,48,"My home is your home. Please enjoy this space as much as I do. But also, please respect it. Don't rough house or party excessively, there are plenty of other places to do that. Please smoke cigarettes outside. No pets, sorry, I'm allergic!",
19074249,Big private room in Sunnyside NYC 7 min Subway,97797683521,unconfirmed,Martin,Queens,Sunnyside,40.73575,-73.9206,United States,US,False,strict,Private room,2019,$374 ,$75 ,1,12,6/16/2019,0.93,5,8,282,No smoking please.,
19074801,Great private room in NYC 20 min to Manhattan,26913867902,unconfirmed,Martin,Queens,Sunnyside,40.73692,-73.91967,United States,US,False,strict,Private room,2008,$61 ,$12 ,1,18,6/14/2019,1.38,3,8,297,Please no loud music or smoking in the courtyard. You can smoke in the house by the window if you need to. Pets are allowed if you have references in your profile.,
19075354,Spacious Private Room Near A C train in Brooklyn,48513831332,verified,Patnaree,Brooklyn,Bedford-Stuyvesant,40.68096,-73.93706999999999,United States,US,False,strict,Private room,2011,$922 ,$184 ,1,42,7/1/2019,3.37,4,1,221,,
19075906,1 Bdrm in Beautiful Brownstone filled with light,39963514165,unconfirmed,Lucia,Brooklyn,Bedford-Stuyvesant,40.68332,-73.93627,United States,US,True,strict,Private room,2007,$347 ,$69 ,3,7,12/16/2018,0.54,4,1,0,"Please remember that this is a residential building. All building rules, hotel occupancy restrictions, and year-round tenants must be respected.",
19076458,In the heart of the East Village,73565701404,verified,Livia,Manhattan,East Village,40.727270000000004,-73.98272,United States,US,False,moderate,Entire home/apt,2007,$484 ,$97 ,2,6,1/2/2019,0.51,3,2,0,"Generally, we prefer that guests treat our home as a friends house, rather than a hotel. - Quiet hours are 11pm to 7am - Feel free to partake in our electric tea kettle, K-Cup machine and espresso machine -Food left on the kitchen island is for guests to enjoy! - Feel free to use the kitchen, but kindly wash your dishes  - No pets - There is usually somebody home if you have a question or something that needs addressing, just give us a knock!   - Please let us know if there's anything we can do to improve your stay with us :)",
19077010,"4 min walk to Times Square, close to everything!",94903479731,unconfirmed,Rob,Manhattan,Hell's Kitchen,40.76148,-73.99279,United States,US,False,moderate,Private room,2014,$563 ,$113 ,7,1,7/9/2018,0.08,5,1,0,,
19077563,Spacious room in Williamsburg (10min to Manhattan),20890415980,unconfirmed,Rachel,Brooklyn,Williamsburg,40.71264,-73.94889,United States,US,False,strict,Private room,2022,"$1,132 ",$226 ,1,71,6/21/2019,5.37,3,2,51,,
19078115,Explorer's Apartment,34063599397,verified,Micheal,Manhattan,Midtown,40.75565,-73.96722,United States,US,False,strict,Entire home/apt,2016,$416 ,$83 ,3,45,7/6/2019,3.8,4,1,219,,
19078667,Manhanton high rising apartment next to the subway,92392878357,unconfirmed,Jill,Manhattan,Harlem,40.8129,-73.94084000000001,United States,US,False,flexible,Entire home/apt,2004,$972 ,$194 ,5,7,3/9/2019,0.63,2,1,0,,
19079220,Country Touches Private Bedroom In Upper West Side,27946451709,verified,Eddie,Manhattan,Upper West Side,40.802459999999996,-73.96631,United States,US,True,moderate,Private room,2020,"$1,053 ",$211 ,1,51,6/1/2019,3.88,4,4,39,,
19079772,Private room in Brooklyn!,59360480279,unconfirmed,Shahed,Brooklyn,Bedford-Stuyvesant,40.69433,-73.9559,United States,US,False,strict,Private room,2007,$767 ,$153 ,1,3,4/21/2019,0.26,3,2,86,"Please remember that this is a residential building. The building rules, apartment occupancy restrictions and the year-round tenants must be respected.",
19080324,Common Single Room # 1,40489766820,unconfirmed,Martita,Brooklyn,Bedford-Stuyvesant,40.6861,-73.92859,United States,US,False,strict,Private room,2019,"$1,182 ",$236 ,1,125,6/30/2019,9.47,3,6,325,,
19080877,Large 2 bedroom downtown Loft Apartment,17281745267,verified,Zinnia,Manhattan,NoHo,40.72555,-73.99283,United States,US,True,strict,Entire home/apt,2012,$615 ,$123 ,1,5,11/3/2018,0.4,3,1,75,,
19081429,Living Art Gallery Room in New Bushwick Building,10398100005,verified,Yelle,Brooklyn,Bushwick,40.70117,-73.92545,United States,US,False,flexible,Private room,2005,$277 ,$55 ,2,32,6/21/2019,2.78,5,3,114,,
19081981,ARTIST SPACE,26760824486,unconfirmed,Fallon,Brooklyn,Bushwick,40.69133,-73.90538000000001,United States,US,False,flexible,Private room,2008,"$1,037 ",$207 ,4,6,9/22/2018,0.47,3,1,0,,
19082533,Private Room in Open Brick loft in Williamsburg,29487907185,verified,Chiara,Brooklyn,Williamsburg,40.7137,-73.96674,United States,US,True,strict,Private room,2020,$920 ,$184 ,2,15,5/27/2019,1.16,4,1,3,"- Check-in time is 1PM - 12PM. - Earlier than 1pm check-in may be an option, will accommodate when possible.  -When you move in, I will clean the room for you.  - Quiet after 11pm - Please treat the home as you would your own, and treat your hosts as you would like to be treated! - Please let me know If you have any question, I will try my best to help you. - Please try to keep quiet It is okay that you have a child who is more than 7 years to live in, but the price should be discussed.",
19083086,Penthouse Private room w Private Rooftop + ensuite,68533136322,verified,Leo,Manhattan,East Village,40.72331,-73.98424,United States,US,True,strict,Private room,2009,$441 ,$88 ,1,14,6/11/2019,1.08,2,2,264,"Generally, we prefer that guests treat our home as a friends house, rather than a hotel. - Food/snacks left on the island are free to eat - Feel free to cook your own food, but kindly wash and put away your dishes after - Feel free to use the Keurig - No pets - Be respectful of the items in the apartment, and leave the space reasonably clean.",
19083638,Modern 2 bedroom apartment,12665464105,unconfirmed,Lilia And Mateo,Brooklyn,Midwood,40.61722,-73.96696,United States,US,True,flexible,Entire home/apt,2021,$763 ,$153 ,3,14,2/28/2019,1.06,2,1,0,,
19084190,Beautiful South Park Slope Brooklyn Apartment,60715108648,verified,Zipi,Brooklyn,Sunset Park,40.66132,-73.99192,United States,US,True,strict,Entire home/apt,2004,$582 ,$116 ,3,2,4/28/2019,0.79,5,1,0,,
19084743,Bright Big Beautiful Apt border Bushwick/Ridgewood,10254146565,verified,Andrea,Brooklyn,Bushwick,40.704,-73.91492,United States,US,True,flexible,Private room,2011,$334 ,$67 ,2,19,6/3/2019,1.47,3,1,198,,
19085295,"Sunnyside -  Huge Private Bedroom, right by 7train",56245242282,verified,S,Queens,Sunnyside,40.74625,-73.91388,United States,US,False,strict,Private room,2015,$880 ,$176 ,2,10,7/5/2019,0.78,3,1,44,,
19085847,Cozy Artist Apartment,79110267519,unconfirmed,Stephanie,Brooklyn,Borough Park,40.64512,-73.99839,United States,US,False,moderate,Entire home/apt,2007,$501 ,$100 ,14,8,6/28/2019,0.63,3,1,69,"You're our guest, so please make yourself at home. Be clean! Rachel and I keep a tight ship around the apartment and we'd like our guests to be as clean as us. =) Speak up! Let us know if you need anything.  Party down (if you let us know).  We aren't huge partiers, but if you like to listen to music or watch loud TV, let us know ahead of time.  This is important.",
19086400,"Upper Manhattan, Beautiful Sunlit Space",8769924215,unconfirmed,Zahra,Manhattan,Harlem,40.81279,-73.95208000000001,United States,US,False,moderate,Private room,2010,$342 ,$68 ,3,1,6/20/2018,0.08,2,1,0,,
19086952,Queen Private Room Feet from Subway,20228286144,unconfirmed,Raphael,Manhattan,Harlem,40.80364,-73.95025,United States,US,False,flexible,Private room,2022,$641 ,$128 ,2,21,6/26/2019,1.66,4,4,136,,
19087504,Meteorine Bedroom,53405016527,unconfirmed,Melissa,Brooklyn,Bedford-Stuyvesant,40.6944,-73.95506,United States,US,True,strict,Private room,2019,$245 ,$49 ,2,18,6/17/2019,1.63,5,34,0,"• Check-in time is 3PM. This is a non-smoking apartment  No pets No loud music No Party 21+ guests only, unless accompanied by an adult who is 21+",
19088056,One Bedroom Bed-Stuy Walk-Up,22918529772,verified,Mackenzie,Brooklyn,Bedford-Stuyvesant,40.69382,-73.95071999999999,United States,US,False,strict,Entire home/apt,2019,$868 ,$174 ,2,5,8/25/2018,0.43,2,1,0,Treat our apartment as if it were your own =). 1. No pets please.  2. Smoking outside or on the deck only.  3. Please treat the common amenities with respect.  4. We expect you to clean up after yourself.,
19088609,Private room by Prospect Park in Brooklyn,33785513794,unconfirmed,Gilford,Brooklyn,Flatbush,40.65374,-73.96104,United States,US,True,flexible,Private room,2010,"$1,154 ",$231 ,60,0,,,2,1,0,"Please remember that this is a residential building. The building rules, apartment occupancy restrictions and the year-round tenants must be respected.  Parties, pets and smoking are not allowed under any circumstances and incur significant fees.",
19089161,NEW Charming & Modern 2 Bed- Private Backyard!,78679968366,verified,Breanna,Brooklyn,Crown Heights,40.67747,-73.95085999999999,United States,US,False,flexible,Entire home/apt,2007,$726 ,$145 ,2,20,12/30/2018,1.58,3,1,0,No Smoking.,
19089713,Tropical Room in Brooklyn Heights,25593164581,unconfirmed,Paris,Brooklyn,Brooklyn Heights,40.69872,-73.99338,United States,US,False,strict,Private room,2022,$738 ,$148 ,2,53,6/18/2019,4.12,2,1,0,"Please remember that this is a residential building. The building rules, apartment occupancy restrictions and the year-round tenants must be respected.  Parties, pets and smoking are not allowed under any circumstances and incur significant fees. ",
19090266,"Clean, peaceful, and bright apartment in Brooklyn",42933749484,unconfirmed,Ricardo,Brooklyn,Bushwick,40.699659999999994,-73.93883000000001,United States,US,False,moderate,Entire home/apt,2003,$136 ,$27 ,1,8,3/23/2019,0.73,3,1,0,,
19090818,Awesome clean & cozy space in Sunset Park!,64626329801,verified,J,Brooklyn,Borough Park,40.6467,-73.99679,United States,US,True,moderate,Private room,2015,$297 ,$59 ,2,77,7/1/2019,5.83,3,1,0,Please be honest and respectful. That's it!,
19091370,A Contemporary Homelike Stay in the Best of BK,76353583014,verified,Mckinley,Brooklyn,East Flatbush,40.63961,-73.93281,United States,US,True,strict,Entire home/apt,2012,$228 ,$46 ,2,56,7/2/2019,4.22,2,2,332,"We expect our guests to be honest, to treat our property with respect, and to leave the apartment as clean (relatively) as when they arrived.",
19091923,Private room by Prospect Park - 25min to Manhattan,36571373948,verified,Herick,Brooklyn,Flatbush,40.64924,-73.95291999999999,United States,US,False,moderate,Private room,2014,"$1,132 ",$226 ,4,2,6/21/2019,0.27,5,1,27,1. No parties. 2. Respect the neighbors.  Noise level needs to stay low. 3. Keep feet on the porch when outside. 4. Clean any dishes you use. Not a good set up for children (0 - 13).,
19092475,"Upper EastSide Apartment, Quick Access to Downtown",16986679900,verified,Tunde,Manhattan,East Harlem,40.79059,-73.94332,United States,US,True,strict,Private room,2004,$827 ,$165 ,14,1,6/11/2018,0.08,4,1,0,"1. Guests should be considerate of the other roommates in the apartment. The other roommates are all great/friendly/easy-going people, so there shouldn't be an issue! 2. I expect guests to clean up after themselves, especially in the kitchen and bathroom since those are communal areas.  3. I would prefer if guests did not invite their own guests or throw any events without the consent of the other roommates 4. Obviously, I would like the guest to be respectful of the furniture and make sure they do not damage/break any property that is not theirs 5. The guest cannot be a smoker or expect to do any illicit drugs while staying the apartment",
19093027,Cute Brooklyn One Bedroom Apartment,37035855430,verified,Kirstie,Brooklyn,Prospect-Lefferts Gardens,40.65548,-73.95707,United States,US,False,flexible,Entire home/apt,2020,$604 ,$121 ,7,5,8/6/2018,0.39,5,1,1,,
19093579,A classy room in Harlem,66622453722,verified,Devon,Manhattan,Harlem,40.82375,-73.94426,United States,US,False,moderate,Private room,2012,$366 ,$73 ,30,1,5/18/2019,0.58,2,8,310,"Please remember that this is a residential building. The building rules, apartment occupancy restrictions and the year-round tenants must be respected.  Parties, pets and smoking are not allowed under any circumstances and incur significant fees.",
19094132,Light & Spacious Artist Loft with Vintage Charm,27113244585,unconfirmed,Mariah,Brooklyn,Red Hook,40.67304,-74.01231,United States,US,False,moderate,Entire home/apt,2022,$53 ,$11 ,2,10,5/23/2019,0.87,2,1,345,"HELP US AVOID MAKE-UP STAINS:  Dear Guest, For make-up removal, if needed, kindly use the small face towels, and not our large white towels. Thanks for being considerate!",
19094684,Private room w/ pvt entrance near Times Sq. 22B,79724557612,verified,John,Manhattan,Hell's Kitchen,40.75393,-73.99558,United States,US,True,flexible,Private room,2006,$696 ,$139 ,7,12,6/23/2019,1.09,3,47,354,"Overall please treat the apartment as you would you own home, Keeping it as clean and tidy as you found it.  Please clean up before checking out. Any major clean-up service required may be deducted from the deposit.  No Loud / Large Parties .  Please include the number of people who will be staying before you reserve this apartment. No extra guests other than the maximum 3 allowed who booked  All smoking should be done outside, as this is a smoke free enviroment.",
19095236,Sunny room with a great view near Times Sq. 51E3,86428980754,verified,John,Manhattan,Hell's Kitchen,40.75554,-73.99701999999999,United States,US,True,moderate,Private room,2007,$945 ,$189 ,7,6,6/9/2019,0.58,2,47,359,No Drugs Respect the Neighbourhood No excess Noise Smoking allowed Drinking allowed Pets allowed Keep the house clean Respect your roommates Wash your own utensils if used,
19095789,1 bed in the heart of Financial District of NYC,15414777739,unconfirmed,Chelsea,Manhattan,Financial District,40.709340000000005,-74.01001,United States,US,True,flexible,Private room,2022,$450 ,$90 ,3,34,6/22/2019,2.58,2,1,83,"HELP US AVOID MAKE-UP STAINS: Dear Guest, For make-up removal, if needed, kindly use the small face towels, and not our large white towels. Thanks for being considerate!",
19096341,Queen Bed in Full Floor East Village Apartment,28657935509,unconfirmed,Adonis,Manhattan,East Village,40.726259999999996,-73.98824,United States,US,False,moderate,Private room,2007,$704 ,$141 ,1,7,5/19/2019,0.73,4,7,1,BUILDING IS RESIDENTIAL. DOCTORS AND NURSES WHO WORK LONG HOURS ARE THE PRIMARY TENANTS OF THIS BUILDING SO RESPECTFUL NOISE LEVELS DURING 10PM-7AM ARE A MUST.,
19096893,A Perfect Match! The NYC All-Rounder Apartment,27016109091,unconfirmed,Suzanne,Manhattan,Hell's Kitchen,40.75652,-73.99069,United States,US,True,strict,Entire home/apt,2009,$104 ,$21 ,3,44,6/7/2019,3.53,2,1,48,"71 Melrose House Rules *Be sure to contact us for key instructions* We request that you please be respectful of all furniture, appliances, and all other belongings within the apartment. Please make sure to turn off all lights and appliances, including A/C and Heat when you leave the apartment and follow the trash rules ~ every bit of saving helps us provide affordable and comfortable living space to everyone.  Trash can be put outside in front of the building on the curb  Sunday and Thursday nights at 5 PM  or later it will be picked up early the following mornings. All insurance and liability including accidents - inside or outside the apartment - health, short-term cancellations and / or guest's belongings is the guest's responsibility. The entire building is non - smoking so please no smoking on the property or in any of the units.    62 Melrose General Information We offer digital cable TV, DVD and high speed Internet. We will send internet information in a separate email.   For yo",
19097446,Beautiful Prewar New York City Apartment!,70497837324,unconfirmed,TaRi,Queens,Astoria,40.76356,-73.92102,United States,US,True,flexible,Entire home/apt,2018,$971 ,$194 ,4,5,9/3/2018,0.44,2,1,1,,
19097998,*Luxurious* Sparkling Clean Two Bedroom Apartment,53467549545,verified,Alisa,Manhattan,Hell's Kitchen,40.76578,-73.98383000000001,United States,US,True,moderate,Entire home/apt,2022,$227 ,$45 ,3,26,6/20/2019,2.5,5,1,0,#NAME?,
19098550,Airy Brownstone 20 minutes to Manhattan/Groups,27885838860,verified,Kelly,Brooklyn,Bedford-Stuyvesant,40.682790000000004,-73.91946999999999,United States,US,False,flexible,Entire home/apt,2017,$541 ,$108 ,2,42,6/30/2019,3.19,2,1,26,#NAME?,
19099102,Sunny 2 bdrm / 2 bath top floor brownstone,37238004780,unconfirmed,Brooke,Brooklyn,Bedford-Stuyvesant,40.68905,-73.95241999999999,United States,US,False,moderate,Entire home/apt,2016,$211 ,$42 ,2,5,6/23/2019,0.45,2,1,0,,
19099655,Fabulous Room Near Central Park,13988053118,verified,Forest,Manhattan,Upper East Side,40.78175,-73.94797,United States,US,True,flexible,Private room,2019,$951 ,$190 ,1,10,6/8/2019,0.76,4,2,62,"Just treat the place like it is your own, not damaging anything, keeping it clean & organized, and not being loud.  NO PARTIES! as this is a private residence.  Other than that, enjoy everything in the house. NO SMOKING inside or outside the building!",
19100207,Spacious and minimal apt in the heart of NYC,79423849394,verified,Ricardo & Ashlie,Manhattan,Chinatown,40.71676,-73.99348,United States,US,False,strict,Entire home/apt,2013,$399 ,$80 ,2,5,6/16/2019,0.48,5,2,46,"71 Melrose House Rules *Be sure to contact us for key instructions* We request that you please be respectful of all furniture, appliances, and all other belongings within the apartment. Please make sure to turn off all lights and appliances, including A/C and Heat when you leave the apartment and follow the trash rules ~ every bit of saving helps us provide affordable and comfortable living space to everyone.  Trash can be put outside in front of the building on the curb  Sunday and Thursday nights at 5 PM  or later it will be picked up early the following mornings. All insurance and liability including accidents - inside or outside the apartment - health, short-term cancellations and / or guest's belongings is the guest's responsibility. The entire building is non - smoking so please no smoking on the property or in any of the units.    62 Melrose General Information We offer digital cable TV, DVD and high speed Internet. We will send internet information in a separate email.   For yo",
19100759,Enjoy this private room at the heart of NYC 23B1,48695952198,verified,John,Manhattan,Hell's Kitchen,40.75437,-73.9964,United States,US,False,flexible,Private room,2005,$961 ,$192 ,7,8,5/19/2019,0.77,2,47,354,No parties or gatherings of more than 8 people. This is a family neighborhood.  Families with kids next to and behind the home go to sleep early - please behave accordingly.,
19101312,"Charming Neighborhood, Charming Studio to Share",8881171415,verified,Lillian,Manhattan,Upper West Side,40.78099,-73.97933,United States,US,True,flexible,Shared room,2018,$557 ,$111 ,1,13,7/4/2019,1.06,5,1,331,No smoking or partying in the apartment.,
19101864,Private room in a Bohemian Bushwick Loft! b,34038477530,unconfirmed,Yury,Brooklyn,Williamsburg,40.70412,-73.93426,United States,US,False,flexible,Private room,2014,$369 ,$74 ,3,19,6/30/2019,1.79,4,3,53,"No Smoking, no pets, no late night parties, five people in home only",
19102416,"Elegant private room with ROOFTOP, close to train",64326971514,unconfirmed,Viviane,Brooklyn,Prospect-Lefferts Gardens,40.66302,-73.9457,United States,US,True,strict,Private room,2019,$892 ,$178 ,1,90,6/28/2019,6.94,4,3,352,"71 Melrose House Rules *Be sure to contact us for key instructions* We request that you please be respectful of all furniture, appliances, and all other belongings within the apartment. Please make sure to turn off all lights and appliances, including A/C and Heat when you leave the apartment and follow the trash rules ~ every bit of saving helps us provide affordable and comfortable living space to everyone.  Trash can be put outside in front of the building on the curb  Sunday and Thursday nights at 5 PM  or later it will be picked up early the following mornings. All insurance and liability including accidents - inside or outside the apartment - health, short-term cancellations and / or guest's belongings is the guest's responsibility. The entire building is non - smoking so please no smoking on the property or in any of the units.    62 Melrose General Information We offer digital cable TV, DVD and high speed Internet. We will send internet information in a separate email.   For yo",
19102969,Serene Loft in Williamsburg - Master Bd,49282713380,verified,Bryan,Brooklyn,Williamsburg,40.715309999999995,-73.96548,United States,US,False,strict,Private room,2010,$405 ,$81 ,5,6,5/15/2019,0.66,4,1,156,"Simply put, just be a good neighbor & guest! No parties or boisterous noise at late hours & please leave the apartment as you found it.",
19103521,"bright, cheery and real nyc",38558943852,unconfirmed,Laura,Manhattan,Lower East Side,40.71826,-73.99079,United States,US,False,flexible,Entire home/apt,2017,$304 ,$61 ,5,6,1/1/2019,0.47,3,1,0,"Please take of your shoes just after entering. Please strip the beds and place towel and sheets in the hamper before you go. You will see additional rules and info once you enter the residence. Parking is permitted and for residents only unfortunately. The best place is the Boston Commons Garage or Revere Hotel. A bedroom is located below our kitchen in our neighbors apartment, please walk softly and be sure to take off shoes. Thank you!",
19104073,Fanta Sea Home 2,40531869011,verified,Jewell,Brooklyn,Brownsville,40.665279999999996,-73.91829,United States,US,False,flexible,Private room,2004,$959 ,$192 ,4,6,6/30/2019,0.62,2,3,330,#NAME?,
19104625,Simple and Chic Studio Union Square/ East Village,46832316065,verified,Katrina,Manhattan,East Village,40.7326,-73.98680999999999,United States,US,True,moderate,Entire home/apt,2014,$623 ,$125 ,3,3,6/23/2019,3.0,5,1,10,"- No smoking.  - Maximum of 2 people  - Sorry, no children. (I love kids, but this is a very quiet building. It's all young professionals.  - Please be quiet and respectful of others in the building (no loud music/tv,  - Please dispose of baby wipes and/or tampons in the waste basket, not in the toilet. (the pipes are old and clog easily – last time baby wipes had to be removed from the pipes, the plumbing bill was $350!). IF YOU HAVE PROBLEMS GOING UP AND DOWM STAIRS THEN IT IS NOT A PLACE FOR YOU",
19105178,Cosy soulful studio in the Upper West Side,88623607228,verified,Yul,Manhattan,Upper West Side,40.791,-73.97545,United States,US,True,flexible,Entire home/apt,2007,$489 ,$98 ,2,49,6/28/2019,3.79,4,1,2,"1.The security deposit will be returned to the lessee, without interest, after lessee has vacated the premises and left the premises in clean and reasonable condition.  The security deposit is non-refundable in case of noise violation and damage.   2.Premises may not be sublet. 3.Lessee agrees to leave the unit clean with doors and windows locked.  4.Premises shall be delivered to lessee in good and clean condition with all furnishings.   5.Lessee shall not smoke in the unit nor permit others to do so; no additional guests or pets are allowed.  6.Lessor is not liable for any tenant injury within the building or apartment unit. 7.The lessor can cancel the agreement should the unit be deemed unrentable without financial penalty.",
19105730,Large private sunny room near Times Sq. 21B3,79559375926,unconfirmed,John,Manhattan,Hell's Kitchen,40.75396,-73.99684,United States,US,False,moderate,Private room,2003,$960 ,$192 ,7,5,4/27/2019,0.49,5,47,326,Please behave no parties or drug use,
19106282,Cozy Room Great Price in Bushwick Bklyn! (Suite 4),9147031140,verified,Oscar,Brooklyn,Bushwick,40.68853,-73.90613,United States,US,False,strict,Private room,2017,$237 ,$47 ,3,53,7/1/2019,4.14,4,4,8,"Please remember that this is a residential building. The building rules, apartment occupancy restrictions and the year-round tenants must be respected.",
19106835,Bronx 1 bedroom studio apartment,13021939156,unconfirmed,Bettina,Bronx,Van Nest,40.84787,-73.86176999999999,United States,US,False,flexible,Entire home/apt,2005,$994 ,$199 ,1,47,6/23/2019,3.63,3,3,8,,
19107387,Sunny private room 10 mins from Times Sq 23B3,74542519113,unconfirmed,John,Manhattan,Hell's Kitchen,40.7557,-73.99563,United States,US,True,flexible,Private room,2007,$311 ,$62 ,7,10,5/4/2019,0.87,3,47,358,-Leave the apartment as you found it.  -Quiet time starts at 9pm. -No shoes allowed in the apartment.  -Please respect us and our neighbors by not having any additional guests.  -No parties. -Smoking is strictly prohibited both inside and within 50ft of the outside.  -No pets. -No packages may be sent to the house without host approval.,
19107939,West Village Sanctuary,70759222684,verified,Colin And Bryn,Manhattan,West Village,40.73612,-74.00591,United States,US,True,moderate,Entire home/apt,2020,$560 ,$112 ,5,7,6/3/2019,0.57,5,1,6,,
19108492,Bronx 2 Bedroom with View of Manhattan Skyline,16908839149,unconfirmed,Bettina,Bronx,Van Nest,40.84778,-73.86146,United States,US,False,flexible,Entire home/apt,2020,$236 ,$47 ,1,29,6/3/2019,2.23,3,3,24,,
19109044,Mamas 2 twins purple #4 boro pk 2nd flr D train,49485876155,verified,Ms. Edith,Brooklyn,Borough Park,40.632940000000005,-73.99316999999999,United States,US,True,moderate,Private room,2019,$529 ,$106 ,3,3,6/10/2019,0.29,3,4,179,Be respectful of neighbors and the property.,
19109596,"Brand new space ! ... safe, peaceful and relaxing.",70803398465,unconfirmed,Norjia,Manhattan,Washington Heights,40.84782,-73.93954000000001,United States,US,True,flexible,Private room,2021,$109 ,$22 ,1,9,1/1/2019,0.79,5,1,80,"- No smoking.  - Maximum of 2 people  - Sorry, no children. (I love kids, but this is a very quiet building. It's all young professionals.  - Please be quiet and respectful of others in the building (no loud music/tv,  - Please dispose of baby wipes and/or tampons in the waste basket, not in the toilet. (the pipes are old and clog easily – last time baby wipes had to be removed from the pipes, the plumbing bill was $350!).",
19110148,Modern Apartment☆5 Mins to Subway☆40 Mins to NYC☆,83652093385,verified,Mohammed,Brooklyn,East Flatbush,40.6464,-73.95106,United States,US,False,moderate,Entire home/apt,2012,$146 ,$29 ,2,44,7/3/2019,3.4,5,2,288,"Apologies if some of this seems obvious. Keep the property and all furnishings in good order No smoking No pets or animals Prefer if you take shoes off when entering No moving furniture Close and lock front door at all times  Please do not sleep on top of leather couch. If you need an extra bed, the leather couch converts into a queen size bed. Let me know if you plan on hosting parties Only use appliances for their intended uses Close windows if raining and when leaving Leave keys where you found them Homeowner is not responsible or liable for any accidents, injuries, or illness that occurs while on the premises or its facilities. The homeowner is not responsible for the loss of personal belongings or valuables of the guests. By completing this booking, it is agreed that all guests are expressly assuming the risk of any harm or liability arising from their use of the premises or others whom they invite to use the premise.",
19110701,"Adorable UES Studio w/ Balcony, Gym + Doorman by Blueground",29579786043,verified,Blueground,Manhattan,Upper East Side,40.77669,-73.95673000000001,United States,US,True,strict,Entire home/apt,2016,$221 ,$44 ,30,1,2/28/2019,0.23,4,232,201,"Apologies if some of this seems obvious. Keep the property and all furnishings in good order No smoking No pets or animals Prefer if you take shoes off when entering No moving furniture Close and lock front door at all times  Please do not sleep on top of leather couch. If you need an extra bed, the leather couch converts into a queen size bed. No hosting parties Only use appliances for their intended uses Close windows if raining and when leaving Leave keys where you found them Homeowner is not responsible or liable for any accidents, injuries, or illness that occurs while on the premises or its facilities. The homeowner is not responsible for the loss of personal belongings or valuables of the guests. By completing this booking, it is agreed that all guests are expressly assuming the risk of any harm or liability arising from their use of the premises or others whom they invite to use the premise.",
19111253,Stay 10 minutes away from Times Square 63F2,33743582309,verified,John,Manhattan,Hell's Kitchen,40.75396,-73.99571,United States,US,True,flexible,Private room,2012,$719 ,$144 ,7,2,4/3/2019,0.29,3,47,238,Please be gentle with the furniture and appliances. Absolutely no smoking allowed please.,
19111805,Morningside Heights Gem,56376205351,unconfirmed,Claudia,Manhattan,Morningside Heights,40.80551,-73.96618000000001,United States,US,True,moderate,Entire home/apt,2019,$682 ,$136 ,3,1,1/13/2019,0.17,5,1,0,Please be gentle with the furniture and appliances. Absolutely no smoking allowed. No parties please.,
19112358,The Sound of Brooklyn,16134032716,verified,Andre,Brooklyn,Flatbush,40.65248,-73.95278,United States,US,True,strict,Private room,2021,$555 ,$111 ,3,42,6/24/2019,4.24,5,1,81,"Please respect the place as if it was your own. No parties or crazy business.  Pets are not allowed.  Our apartment is also a non-smoking environment.  Our community is very quiet and we have a close relationship with our neighbors. We ask that you respect our neighbor’s privacy and monitor noise levels during the night time. If you need to smoke, please smoke outside the building and dispose of your cigarettes afterward.  We also ask that you keep the place relatively clean when you leave.",
19112910,***WELCOME TO MI CASA TU CASA NEAR JFK/LGA AIRPORT,9215397414,verified,Jhon,Queens,Rego Park,40.72691,-73.85478,United States,US,False,strict,Private room,2013,$178 ,$36 ,2,43,4/28/2019,3.32,5,1,0,--No Smoking.   --Pets allowed with a $500 NON-Refundable Pet Fee (breed and weight restrictions may apply).  ,
19113462,"Centrally located from LGA, Manhattan & more",70051592338,unconfirmed,Helen,Queens,Sunnyside,40.74432,-73.91741,United States,US,False,flexible,Private room,2019,$312 ,$62 ,2,0,,,4,1,66,,
19114015,Spacious room to rest in NYC,69544072274,verified,Mike,Manhattan,Harlem,40.80549,-73.95129,United States,US,True,strict,Private room,2012,$980 ,$196 ,1,3,9/25/2018,0.28,5,2,0,Pets Allowed ( With Fee ) NO Smoking,
19114567,summer downtown W/ TERRACE,40723179436,verified,Jenny,Manhattan,Chinatown,40.71463,-73.99216,United States,US,False,strict,Private room,2013,$797 ,$159 ,2,1,6/17/2018,0.08,4,1,0,,
19115119,Penthouse Triplex Jewel - 3000sf,85705164274,verified,Stephan,Manhattan,Tribeca,40.72273,-74.01049,United States,US,True,strict,Entire home/apt,2012,$992 ,$198 ,7,0,,,5,1,178,"Please plan to check in after 4 PM and check out before 11 AM.  No Smoking, No pets Please No parties and quiet hours after 9 pm Clean dishes   We are not responsible for your belongings. Thank You!",
19115671,Huge private & cozy room in the Bronx!,67294027199,unconfirmed,Digna,Bronx,Claremont Village,40.84346,-73.91150999999999,United States,US,True,moderate,Private room,2013,$846 ,$169 ,1,49,1/23/2019,3.84,5,1,168,"House Rules 1. Check-in is 4 pm local time. If the unit is ready earlier, we’ll let you know. Check-out is normally 11 am local time, but we’d be happy to extend it as long as we don’t have a cleaning scheduled. Just let us know.  2. All bookings require a security deposit of at least $300, which will be refunded within 7 days of your check-out. 3. For security measures we require all guests to provide proof of identification through ID verification on our own website. In order to check in we'll need a photo of your ID.  4. Our cancellation policy is as shown on our ad and defined by the site you are booking through.  5. Don’t let $300 go up in smoke. There's no smoking allowed in any Flatbook and a $300 fine for breaking this rule.  6. Unfortunately we don’t allow pets in any of our apartments. 7. Unless you’re staying in one of our specialty apartments, we don’t allow parties or excessive noise. 8. If we find the place very messy, we have to charge an extra $40 for every extra hour o",
19116224,Family and Friends Peaceful Home,82694223813,unconfirmed,Marie,Brooklyn,Flatlands,40.62635,-73.93565,United States,US,False,moderate,Private room,2022,$479 ,$96 ,3,0,,,2,1,90,"Please plan to check in after 4 PM and check out before 11AM.  No Smoking, No pets Please No parties and quiet hours after 9 pm Clean dishes   We are not responsible for your belongings. Thank You!",
19116776,Great cozy room,66497885259,unconfirmed,Juan,Queens,Maspeth,40.72605,-73.90711,United States,US,True,strict,Private room,2006,$863 ,$173 ,3,2,4/30/2019,0.16,4,1,118,"House Rules 1. Check-in is 4 pm local time. If the unit is ready earlier, we’ll let you know. Check-out is normally 11 am local time, but we’d be happy to extend it as long as we don’t have a cleaning scheduled. Just let us know.  2. All bookings require a security deposit of at least $300, which will be refunded within 7 days of your check-out. 3. For security measures we require all guests to provide proof of identification through ID verification on our own website. In order to check in we'll need a photo of your ID.  4. Our cancellation policy is as shown on our ad and defined by the site you are booking through.  5. Don’t let $300 go up in smoke. There's no smoking allowed in any Flatbook and a $300 fine for breaking this rule.  6. Unfortunately we don’t allow pets in any of our apartments. 7. Unless you’re staying in one of our specialty apartments, we don’t allow parties or excessive noise. 8. If we find the place very messy, we have to charge an extra $40 for every extra hour o",
19117328,PRIVATE STUDIO APT!! 10 Min walk Times Square 11A,43713472198,verified,John,Manhattan,Hell's Kitchen,40.75571,-73.99647,United States,US,False,moderate,Private room,2015,$527 ,$105 ,2,19,6/3/2019,1.8,4,47,331,"Overall please treat the apartment as you would you own home, Keeping it as clean and tidy as you found it.  Please clean up before checking out. Any major clean-up service required may be deducted from the deposit.  No Loud / Large Parties .  Please include the number of people who will be staying before you reserve this apartment. No extra guests other than the maximum 4 allowed who booked  All smoking should be done outside, as this is a smoke free environment.",
19117881,1 bdrm apt / Prime Wburg / steps 2 Bedford L,4564611398,verified,Katie,Brooklyn,Williamsburg,40.71767,-73.95902,United States,US,True,strict,Entire home/apt,2014,$535 ,$107 ,2,12,6/23/2019,0.93,2,2,308,"Please plan to check in after 4 PM and check out before 11AM.  No Smoking, No pets Please No parties and quiet hours after 9 pm Clean dishes   We are not responsible for your belongings. Thank You!",
19118433,Cozy large room at the heart of NYC 41D4,78225165227,verified,John,Manhattan,Hell's Kitchen,40.75545,-73.99556,United States,US,False,moderate,Private room,2006,$593 ,$119 ,7,8,5/22/2019,0.77,3,47,355,"Please remember that this is a residential building. The building rules, apartment occupancy restrictions and the year-round tenants must be respected.  Parties, pets and smoking are not allowed under any circumstances and incur significant fees.",
19118985,Suite nearJFK with private bathroom and kitchen,42317984574,verified,Minying,Queens,Ozone Park,40.67651,-73.84815,United States,US,False,flexible,Entire home/apt,2011,$418 ,$84 ,1,32,6/4/2019,2.64,5,4,155,,
19119538,ASTORIA in QUEENS,38663286546,verified,Miryung,Queens,Astoria,40.772040000000004,-73.9223,United States,US,False,moderate,Private room,2021,$630 ,$126 ,1,23,6/4/2019,1.78,5,1,3,"Check in     4 PM  Check out  11 AM No Smoking, No pets Please No parties and quiet hours after 9 pm Clean dishes or leave them in the dishwasher!  We are not responsible for your belongings. Thank You!",
19120090,Dreamy room in Avenida Siempre Verde - Bushwick,78911913896,verified,Maira,Brooklyn,Bushwick,40.68566,-73.90909,United States,US,True,strict,Private room,2006,$394 ,$79 ,5,25,5/25/2019,1.96,5,1,64,"- 1.Guest(s) agree to NO PARTIES anywhere on the property. Legal action will be taken for parties that cause damages to the unit, property, reputation, or relationship with building staff or other residents.  2.Smoking of any kind is not permitted in the unit or on the premises. Fee for smoking will be 10 times your total reservation cost. For example, your total reservation cost is $350. Fee for smoking on premises will be $3,500. 3.Guests agree to abide by maximum occupancy of unit, and observe quiet hours between 9pm and 9am  4.Guests are responsible for action of ALL GUESTS occupying their unit at all times.  5.Guests agree to return all keys, remotes. Replacement fees may apply for unreturned items  6.Guests understand that onsite building staff (maintenance and concierge) are not affiliated with AIRBNB. Please contact me directly for any needed items.  7.Guests understand that no pets are to be in the unit.  8.Guests agree to pay replacement cost for any unreturned items, and $21",
19120642,Charming Hamilton Heights Apartment!,3990845396,unconfirmed,Ramble,Manhattan,Harlem,40.82952,-73.94764,United States,US,False,strict,Entire home/apt,2006,$485 ,$97 ,2,33,6/23/2019,2.91,3,1,45,"Please remember that this is a residential building. The building rules, apartment occupancy restrictions and the year-round tenants must be respected. ",
19121194,Beautiful room(s) near JFK airport,68126552917,unconfirmed,Minying,Queens,Woodhaven,40.68853,-73.85474,United States,US,False,moderate,Private room,2012,$530 ,$106 ,1,14,6/15/2019,1.13,3,4,335,No smoking. No parties.  No drugs.  No pets.  Please consider our neighbors and be respectful of them. Limit the noise level - especially at night. Thank you in advance!,
19121747,"Private bedroom with Bath Chinatown, NYC, #3",362458689,verified,Amiee,Manhattan,Chinatown,40.71471,-73.99514,United States,US,True,moderate,Private room,2011,$784 ,$157 ,1,51,6/23/2019,3.86,3,3,92,"- Please bring your own daily essentials, I provide nothing as of now. - Please don't bring any friends over unless they are confirmed guests. - Please keep quiet after midnight. - When booking for a weekend, please book on a Friday and for at least 3 nights, as I will not be around on Saturdays and Sundays to accept bookings. - If neighbors asks, just tell them you're here to visit a friend. Don't tell then your guests from AirBNB. - Please let me know exactly what time you will get to my house, or at least an hour ahead. I am not always at home so I will have to go hand keys to you and I will only have limited time. Thanks!",
19122299,"Private bedroom in Chinatown, NYC, #1",27726596577,unconfirmed,Amiee,Manhattan,Chinatown,40.71457,-73.9958,United States,US,False,flexible,Private room,2022,$857 ,$171 ,1,71,6/11/2019,5.5,5,3,91,"Please remember that this is a residential building. The building rules, apartment occupancy restrictions and the year-round tenants must be respected.",
19122851,Gigantic Sunny Room in Park Slope-Private Backyard,8053569001,unconfirmed,Rachel,Brooklyn,Sunset Park,40.662420000000004,-73.99464,United States,US,False,strict,Entire home/apt,2003,$532 ,$106 ,1,14,10/28/2018,1.06,5,1,4,,
19123404,Beautiful and clean 2BR in prime Chelsea,93817073786,verified,Aaron,Manhattan,Chelsea,40.742670000000004,-73.99971,United States,US,True,flexible,Entire home/apt,2011,$197 ,$39 ,3,76,7/4/2019,5.82,5,1,91,"Professional building, please be considerate of other residents in the building. This is not a place for parties.",
19123956,5min to JFK! Private Suite TwinBeds New home R1,78801832202,unconfirmed,Johann,Queens,Jamaica,40.69252,-73.80272,United States,US,True,strict,Private room,2018,$206 ,$41 ,1,23,5/28/2019,1.75,2,4,114,,
19124508,"Two double beds, New York, Chinatown, #2",85589205963,verified,Amiee,Manhattan,Chinatown,40.714,-73.99571,United States,US,False,flexible,Private room,2012,$178 ,$36 ,1,82,6/18/2019,6.24,2,3,77,"-Please don't wear shoes inside the apartment (shoes should be removed in the area just inside the door to the apartment). -Please DO wear shoes while out in the courtyard. -Please keep the doors to the apartment locked at all times. -Please recycle -Please don't move/remove the portable A/C from the bedroom window.  -Please ensure that your bedroom windows are closed and securely locked when running the heat or A/C, before leaving the apartment and before going to bed. -Please ensure that the courtyard gate is closed and securely locked before leaving the apartment and before going to bed. -Please rinse off any dishes/flatware that you use and place them into the dishwasher after use. -Please help conserve energy (and my electricity bill!) by doing the following when you going to bed and when you are leaving: turn lights off, turn the thermostat down to between 60-65 degrees F (colder months), turn the A/C up to 75 degrees F or just turn it off entirely (warmer months). -Please NO smo",
19125061,"Entire Garden Level Home in Greenpoint, Brooklyn",52998476831,unconfirmed,Maggie,Brooklyn,Greenpoint,40.72488,-73.94932,United States,US,False,moderate,Entire home/apt,2005,$812 ,$162 ,1,6,3/24/2019,0.5,2,1,6,,
19125613,*THE BUSINESS TRAVELER ROOM*,48159599190,unconfirmed,Carlos,Queens,Elmhurst,40.7448,-73.88176999999999,United States,US,False,flexible,Private room,2007,$364 ,$73 ,6,26,7/4/2019,2.09,3,5,299,"Please be quiet and respectful. Also, limited kitchen access in evenings. No pets or smoking please!",
19126165,The Perfect Williamsburg Apartment,6855410210,verified,Aurelio,Brooklyn,Williamsburg,40.720209999999994,-73.95949,United States,US,False,flexible,Entire home/apt,2006,$305 ,$61 ,2,3,3/11/2019,0.29,2,1,0,"Please remember that this is a residential building. The building rules, apartment occupancy restrictions and the year-round tenants must be respected.",
19126717,5 min to JFK! Private Queen room in new home. R3,46402103368,verified,Johann,Queens,Jamaica,40.69352,-73.80301,United States,US,False,strict,Private room,2004,$559 ,$112 ,1,47,6/30/2019,3.56,2,4,125,No smoking cigarettes inside apartment.,
19127270,"Family-friendly 2BR, Prime Upper West Side",46775599140,verified,Liz,Manhattan,Upper West Side,40.791140000000006,-73.97787,United States,US,False,moderate,Entire home/apt,2003,$94 ,$19 ,6,3,12/30/2018,0.23,3,1,0,,
19127822,5min to JFK! Private Queen Room in New home! R2,82347951202,unconfirmed,Johann,Queens,Jamaica,40.69238,-73.80247,United States,US,False,strict,Private room,2022,$924 ,$185 ,1,37,3/23/2019,2.8,2,4,297,"Leave the apartment as you found it!  If you used dishes or cups or anything in the kitchen area, you are expected to clean, wash, dry and return the item to its origin.   Act respectful in the neighborhood and inside the halls, other units are in the building so act responsible.   We ask that quiet hours be respected between 11pm and 8am.  Meaning no dance parties, loud noises, or other disturbances that are not emergencies.  We understand sometime guest will like to enjoy themselves until the bars close (2am).  We expect you to be courteous once you return to the property, excessive noise and disturbances reported may result in cancellation of your booking immediately without refund and maybe forcibly removed at my or my agents discretion.   No Smoking No Parties No Drugs No Weapons Only People on Reservation permitted to stay in the apartment. Please keep front door locked and closed at all times. You are expected to leave the apartment as you found it, kitchen clean, fridge empty, ",
19128374,"Last minute pricing! quiet street, heart of SoHo",38608155168,unconfirmed,Asaf,Manhattan,SoHo,40.7258,-74.0015,United States,US,True,strict,Private room,2015,$518 ,$104 ,6,2,3/3/2019,0.17,3,1,0,"Overall please treat the apartment as you would you own home,  Keeping it as clean and tidy as you found it.  Please clean up before checking out.  Any major clean-up service required may be deducted from the deposit.  No Loud / Large Parties .  Please include the number of people who will be staying before you reserve this apartment.  No extra guests other than the maximum 4 allowed who booked  All smoking should be done outside, as this is a smoke free environment",
19128927,Full Apartment Downtown Manhattan (East Village),33730683523,unconfirmed,Johan,Manhattan,East Village,40.72748,-73.9795,United States,US,False,moderate,Entire home/apt,2006,$958 ,$192 ,5,25,2/18/2019,1.94,5,1,0,"Please plan to check in after 4 PM and check out before 11 AM.  No Smoking, No pets Please No parties and quiet hours after 9 pm Clean dishes   We are not responsible for your belongings. Thank You!",
19129479,Studio in Prospect Park South,2902809306,unconfirmed,Aneta,Brooklyn,Flatbush,40.644870000000004,-73.96233000000001,United States,US,True,flexible,Entire home/apt,2016,$557 ,$111 ,5,3,5/26/2019,0.4,5,1,0,No Smoking Cats Allowed With Fee,
19130031,Sunny and spacious private room in Bushwick,69229217442,unconfirmed,Ava,Brooklyn,Bushwick,40.69907,-73.92348,United States,US,False,moderate,Private room,2006,$234 ,$47 ,30,0,,,2,1,0,"Please remember that this is a residential building. The building rules, apartment occupancy restrictions and the year-round tenants must be respected.",
19130584,For Female Cozy Shared Room in Midtown West,7071041606,verified,Demir,Manhattan,Hell's Kitchen,40.763529999999996,-73.98839,United States,US,False,moderate,Shared room,2015,$401 ,$80 ,1,24,6/15/2019,1.84,3,3,208,"Please remember that this is a residential building. The building rules, apartment occupancy restrictions and the year-round tenants must be respected.",
19131136,Cozy Shared Room by Central Park For Female,1372885439,verified,Demir,Manhattan,Hell's Kitchen,40.765190000000004,-73.98939,United States,US,True,strict,Shared room,2013,$317 ,$63 ,1,17,10/28/2018,1.3,2,3,212,,
19131688,Modern Style Cozy & Convenient 2 Bedroom Apartment,52367911446,verified,Christopher,Manhattan,Harlem,40.81889,-73.94224,United States,US,True,strict,Entire home/apt,2011,$551 ,$110 ,2,20,5/27/2019,1.52,2,2,89,"Please remember that this is a residential building. The building rules, apartment occupancy restrictions and the year-round tenants must be respected.",
19132240,"Stylish and Serene in Cobble Hill, Brooklyn",37688878095,verified,Erika,Brooklyn,Cobble Hill,40.685,-73.99965999999999,United States,US,False,flexible,Entire home/apt,2008,$749 ,$150 ,2,11,10/7/2018,0.91,4,1,0,"Please remember that this is a residential building. The building rules, apartment occupancy restrictions and the year-round tenants must be respected.",
19132793,Sunny Beautiful Loft,15572986372,verified,Annette,Brooklyn,Bedford-Stuyvesant,40.695370000000004,-73.95642,United States,US,False,flexible,Entire home/apt,2009,"$1,174 ",$235 ,18,4,1/3/2019,0.32,2,1,24,,
19133345,Sunny hip room in Bushwick 2 mins from the L train,91539011710,unconfirmed,Sarah,Brooklyn,Bushwick,40.68869,-73.90581999999999,United States,US,False,flexible,Private room,2016,$587 ,$117 ,3,22,4/11/2019,1.76,3,2,0,Respect the other neighbors and the host. Quiet after 9PM Respect all apartments' belongings by leaving them as you found them. Respect check in and check out time!,
19133897,Coney Island / Brighton Beach Private rm duplex,28243139663,unconfirmed,Lucky,Brooklyn,Brighton Beach,40.579409999999996,-73.975,United States,US,False,flexible,Private room,2017,$120 ,$24 ,1,12,6/30/2019,1.03,3,1,90,"-Please don't wear shoes inside the apartment (shoes should be removed in the area just inside the door to the apartment). -Please DO wear shoes while out in the courtyard. -Please keep the doors to the apartment locked at all times. -Please recycle -Please don't move/remove the portable A/C from the bedroom window.  -Please ensure that your bedroom windows are closed and securely locked when running the heat or A/C, before leaving the apartment and before going to bed. -Please ensure that the courtyard gate is closed and securely locked before leaving the apartment and before going to bed. -Please rinse off any dishes/flatware that you use and place them into the dishwasher after use. -Please help conserve energy (and my electricity bill!) by doing the following when you going to bed and when you are leaving: turn lights off, turn the thermostat down to between 60-65 degrees F (colder months), turn the A/C up to 75 degrees F or just turn it off entirely (warmer months). -Please NO smo",
19134450,JULY SALE ! PRIVATE ROOM UPPER EAST SIDE NYC,76776248082,verified,Gal,Manhattan,Upper East Side,40.77655,-73.94651,United States,US,True,strict,Private room,2020,$333 ,$67 ,21,2,12/29/2018,0.25,2,1,131,Parties and smoking are not allowed under any circumstances and incur significant fees. Pets may be considered with pre-approval and an additional pet fee.,
19135002,"Nice room in large, quiet EV apt",89389873319,verified,Lori,Manhattan,East Village,40.72585,-73.97967,United States,US,True,flexible,Private room,2022,$942 ,$188 ,5,2,7/16/2018,0.16,3,2,2,,
19135554,Studio - 5Mins to Times Square,34310974414,unconfirmed,Kim,Manhattan,Midtown,40.766659999999995,-73.98156,United States,US,True,moderate,Entire home/apt,2004,$974 ,$195 ,30,0,,,2,4,362,"Please remember that this is a residential building. The building rules, apartment occupancy restrictions and the year-round tenants must be respected.",
19136107,Prime Williamsburg on quiet street!,15189171032,unconfirmed,Rolf Arne,Brooklyn,Williamsburg,40.71479,-73.94915999999999,United States,US,True,strict,Entire home/apt,2021,$279 ,$56 ,14,0,,,5,1,0,,
19136659,Beautiful duplex in New York,30793081642,verified,Julia,Manhattan,East Harlem,40.79788,-73.93265,United States,US,True,strict,Entire home/apt,2008,"$1,185 ",$237 ,7,0,,,4,1,278,"Guests must be fit enough to maneuver themselves and any luggage up 3 flights of winding staircase.  Dishes, pots, pans, and appliances are usable but please leave everything in about the same state that you found it.  Apartment is not sound-proof! I like my neighbors, be kind to them. Don't get me in trouble with them. Don't hesitate to ask questions about function or location of something!! Have a great stay!",
19137211,NEW Charming Studio,77895149855,verified,Ramsey,Brooklyn,Boerum Hill,40.68716,-73.98801,United States,US,True,flexible,Entire home/apt,2008,$451 ,$90 ,2,0,,,4,1,23,"Please remember that this is a residential building. The building rules, apartment occupancy restrictions and the year-round tenants must be respected.",
19137763,Awesome Central Park Room. Cozy Manhattan Space.,80186366747,unconfirmed,Kazuya,Manhattan,East Harlem,40.79322,-73.94038,United States,US,True,strict,Private room,2004,$304 ,$61 ,30,3,3/31/2019,0.26,3,103,207,,
19138316,Large studio near Central Park/Columbus Circle,38962911423,verified,Roxana,Manhattan,Hell's Kitchen,40.76582,-73.98409000000001,United States,US,False,moderate,Entire home/apt,2005,$375 ,$75 ,3,38,6/29/2019,3.33,2,1,9,,
19138868,Charming Bedroom in Cozy East Harlem Apartment,82738720638,unconfirmed,Xiomara,Manhattan,East Harlem,40.79822,-73.93468,United States,US,False,flexible,Private room,2014,$533 ,$107 ,2,25,5/24/2019,2.67,5,1,101,"Please remember that this is a residential building. The building rules, apartment occupancy restrictions and the year-round tenants must be respected.",
19139420,Beautiful  peninsula to stay,89406213367,unconfirmed,Ramon,Queens,Bayswater,40.60628,-73.76019000000001,United States,US,True,flexible,Entire home/apt,2013,$198 ,$40 ,4,8,10/10/2018,0.7,5,1,222,• Check-in time is 12PM (noon). • Check-in time is 12PM (noon). Please no smoking and no pets in the apartment,
19139973,Cozy Brooklyn two level apartment with a backyard,77992361785,verified,Céline,Brooklyn,Bedford-Stuyvesant,40.68565,-73.92599,United States,US,True,flexible,Entire home/apt,2015,"$1,198 ",$240 ,7,0,,,3,1,20,,
19140525,East Vilage Sleeping Space Semi-Private Room,11411570233,unconfirmed,Deborah,Manhattan,East Village,40.72433,-73.9789,United States,US,True,moderate,Private room,2009,$525 ,$105 ,2,50,6/25/2019,3.86,3,1,288,"Please remember that this is a residential building.  The building rules, hotel occupancy restrictions, and year-round tenants have to be respected.",
19141077,Cozy UES apartment by the Central Park,75718233562,verified,Yulia,Manhattan,Upper East Side,40.7814,-73.95541,United States,US,True,moderate,Entire home/apt,2011,$258 ,$52 ,2,2,4/13/2019,0.64,5,1,0,"Please remember that this is a residential building. The building rules, apartment occupancy restrictions and the year-round tenants must be respected.",
19141630,2 Story Apartment in Greenwich Village,46238078338,unconfirmed,Taylor,Manhattan,Greenwich Village,40.734159999999996,-73.99446,United States,US,False,moderate,Entire home/apt,2016,$167 ,$33 ,2,3,10/22/2018,0.24,4,1,0,,
19142182,Private Room in Bushwick Luxury Fortress,90487031138,verified,Drew,Brooklyn,Bushwick,40.69872,-73.9301,United States,US,True,flexible,Private room,2010,$734 ,$147 ,2,0,,,3,1,175,,
19142734,Affordable Lenox Ave Room. Clean Sunny  Comfy!,63133952826,unconfirmed,Kazuya,Manhattan,Harlem,40.81205,-73.94309,United States,US,False,flexible,Private room,2010,$352 ,$70 ,30,0,,,2,103,236,#NAME?,
19143286,5min to JFK! Private 3 bedroom Apt-Whole 1st Floor,18080662917,unconfirmed,Johann,Queens,Jamaica,40.69267,-73.80159,United States,US,False,strict,Entire home/apt,2016,$334 ,$67 ,1,10,10/31/2018,0.78,3,4,82,"Please remember that this is a residential building. The building rules, apartment occupancy restrictions and the year-round tenants must be respected.  Parties, pets and smoking are not allowed under any circumstances and incur significant fees.",
19143839,Elegant and spacious apt in UWS - Cleaning Incl.,35994082184,verified,Claudia,Manhattan,Upper West Side,40.79889,-73.97182,United States,US,True,strict,Entire home/apt,2014,$993 ,$199 ,2,3,1/3/2019,0.25,4,1,0,"Please remember that this is a residential building. The building rules, apartment occupancy restrictions and the year-round tenants must be respected.",
19144391,Your special place in Manhattan BACK room,93440531723,verified,Elena,Manhattan,Washington Heights,40.833729999999996,-73.94181999999999,United States,US,False,strict,Private room,2004,$843 ,$169 ,1,18,6/2/2019,1.38,5,6,90,"Please remember that this is a residential building. The building rules, apartment occupancy restrictions and the year-round tenants must be respected.",
19144943,Cozy & Beautiful Room in Astoria for all seasons,8722573930,verified,Mars,Queens,Ditmars Steinway,40.77816,-73.91001999999999,United States,US,False,strict,Private room,2003,$756 ,$151 ,2,41,5/27/2019,3.18,4,1,15,#NAME?,
19145496,Spacious Bedroom 1 Min. From the 1 Train,44737219748,verified,Erin,Manhattan,Harlem,40.82132,-73.9538,United States,US,True,flexible,Private room,2013,"$1,069 ",$214 ,1,10,5/19/2019,4.17,5,1,5,,
19146048,Cozy Upper East Side apartment,72910393674,unconfirmed,Margaret,Manhattan,Upper East Side,40.78029,-73.95251999999999,United States,US,True,moderate,Entire home/apt,2011,$725 ,$145 ,10,4,5/2/2019,0.34,4,1,9,,
19146600,"Cozy 1 bedroom apartment in Throggs neck, bronx",91408900890,unconfirmed,George,Bronx,Throgs Neck,40.82257,-73.83773000000001,United States,US,True,strict,Entire home/apt,2022,"$1,182 ",$236 ,2,23,6/3/2019,1.84,4,1,89,,
19147153,Small 1-bedroom in East Harlem,86795641996,verified,Signe,Manhattan,East Harlem,40.7942,-73.94532,United States,US,True,moderate,Entire home/apt,2016,$300 ,$60 ,4,4,6/20/2019,0.37,4,1,0,,
19147705,Gorgeous Two Br Apt in Jamaica Estates.,15982298605,verified,Nazma,Queens,Jamaica Estates,40.71434,-73.78805,United States,US,False,flexible,Entire home/apt,2020,$869 ,$174 ,1,18,6/9/2019,1.78,5,2,166,Please no LOUD music after 2 AM.  The neighbors have recently complained.  Just be reasonable and cool and everything will be OK.  Thank you : ),
19148257,"Cozy Room Great Price in Bushwick, Bklyn!(Suite 3)",97444509165,verified,Oscar,Brooklyn,Bushwick,40.68912,-73.90848000000001,United States,US,False,moderate,Private room,2008,$906 ,$181 ,3,50,6/29/2019,3.96,4,4,9,,
19148809,Brand New Astoria Suite (large studio),36508277959,unconfirmed,Robert,Manhattan,Civic Center,40.71306,-74.00569,United States,US,False,moderate,Entire home/apt,2010,$715 ,$143 ,1,0,,,2,1,90,Parties and smoking are not allowed under any circumstances and incur significant fees. Pets may be considered with pre-approval and an additional pet fee.,
19149362,private room near columbia,1610353509,unconfirmed,Tony,Manhattan,Morningside Heights,40.81338,-73.96042,United States,US,False,strict,Private room,2015,$427 ,$85 ,3,0,,,5,1,0,,
19149914,Riverside Apartment Room,44711524788,unconfirmed,俞,Manhattan,Upper West Side,40.79811,-73.97185999999999,United States,US,False,moderate,Private room,2018,$207 ,$41 ,1,5,7/8/2018,0.38,2,1,0,,
19150466,Light filled Brooklyn apartment with deck!,33844457182,verified,Jeremiah,Brooklyn,Park Slope,40.66775,-73.97738000000001,United States,US,False,moderate,Entire home/apt,2013,$987 ,$197 ,4,5,11/24/2018,0.4,4,1,0,,
19151019,Ladies Dorm Shared Room (( Bottom Bunk Bed)),41227469512,verified,Torell,Brooklyn,Bedford-Stuyvesant,40.68609,-73.95736,United States,US,True,strict,Shared room,2012,$585 ,$117 ,2,14,3/12/2019,1.18,4,3,306,"Please remember that this is a residential building. The building rules, apartment occupancy restrictions and the year-round tenants must be respected.",
19151571,Spacious room in unique loft,35626234028,verified,Stefan,Brooklyn,Bedford-Stuyvesant,40.68983,-73.95626,United States,US,True,strict,Private room,2010,"$1,178 ",$236 ,2,1,11/4/2018,0.12,5,1,0,No Smoking. Cats Allowed With Fee.,
19152123,Simple and clean,23607773710,unconfirmed,Robert,Brooklyn,Sunset Park,40.64524,-74.01273,United States,US,True,flexible,Entire home/apt,2008,$847 ,$169 ,2,31,6/18/2019,2.49,5,4,126,,
19152676,Master Bedroom on 2nd floor in a sweet house!,69070251824,verified,Patricia,Brooklyn,Bushwick,40.69585,-73.90966999999999,United States,US,True,flexible,Private room,2013,$258 ,$52 ,2,12,5/27/2019,1.01,3,2,0,,
19153228,Cozy & Elegant 1 bedroom,57968971784,unconfirmed,Lilee,Manhattan,Hell's Kitchen,40.75574,-73.99723,United States,US,True,strict,Private room,2005,$679 ,$136 ,2,16,5/31/2019,1.26,2,1,12,All Renters and Guests must be 25 years of age unless accompanied by a parent or guardian. Parties of any kind are not allowed. There is no smoking allowed in the boat. Use of illegal substances will be cause for immediate termination of the rental and reported to the police. All pets must be on a leash when outside the boat.  Quiet hours are between 9:30pm and 8am.  Noise must be kept to a minimum during this time period. ,
19153780,"Clean, Comfortable, Convenient",82314212724,verified,Anne,Manhattan,Midtown,40.75155,-73.97021,United States,US,True,flexible,Entire home/apt,2022,$770 ,$154 ,2,2,5/5/2019,0.21,5,1,11,NO SMOKING ALLOWED AND NO PETS ALLOWED!,
19154332,A Hidden Gem in Queens,15573738012,verified,Amah Justin,Queens,Jamaica,40.68257,-73.77949,United States,US,True,flexible,Entire home/apt,2013,$282 ,$56 ,2,25,6/24/2019,2.06,5,1,62,,
19154885,Downtown Brooklyn Home,74493542529,verified,Keon,Brooklyn,Fort Greene,40.69493,-73.97984,United States,US,True,strict,Private room,2007,$324 ,$65 ,5,48,4/27/2019,3.7,5,1,86,,
19155437,Beautifully decorated duplex with an amazing yard!,85832083817,unconfirmed,Grace,Brooklyn,Crown Heights,40.67367,-73.9223,United States,US,True,moderate,Entire home/apt,2016,$712 ,$142 ,3,33,7/7/2019,2.56,3,1,292,,
19155989,Private Queen Room steps from Columbia and Subway,39308155144,unconfirmed,Emily,Manhattan,Morningside Heights,40.81313,-73.96148000000001,United States,US,False,moderate,Private room,2018,$407 ,$81 ,2,22,1/1/2019,1.88,3,1,0,,
19156542,Private Bedroom in Midtown West with River View,82033530132,verified,Evelyn,Manhattan,Hell's Kitchen,40.76201,-73.99876,United States,US,False,moderate,Private room,2005,$995 ,$199 ,3,4,7/9/2018,0.31,4,1,0,,
19157094,Cozy Harlem room w/ a view! Near Central Park!,55497194330,verified,Kazuya,Manhattan,Harlem,40.81098,-73.94278,United States,US,False,flexible,Private room,2010,$554 ,$111 ,30,1,7/31/2018,0.09,4,103,237,"Enjoy yourself. Soak in the neighborhood street life. Leave enriched and with some new experiences.  No smoking and no pets allowed. There is an outdoor courtyard area accessible from the door next to the stove. To respect the quiet enjoyment of our neighbors, please refrain from loud conversations or cell phone use in the courtyard area because other buildings abut the courtyard and voices carry. Before leaving, please remove all used linens and towels and leave in laundry bag in closet, wash, dry and put away dishes, pots/pans and utensils. Leave keys in unit and lock the door behind you.",
19157646,New Modern Townhouse Clinton Hill Brooklyn,54934976048,unconfirmed,Pamela,Brooklyn,Clinton Hill,40.69462,-73.96996,United States,US,True,strict,Entire home/apt,2011,$871 ,$174 ,12,0,,,5,1,2,,
19158199,Sun Drenched Artist Loft in Williamsburg!,85886420408,verified,Reisha,Brooklyn,Williamsburg,40.71777,-73.96173,United States,US,True,strict,Entire home/apt,2008,$607 ,$121 ,4,8,7/1/2019,0.7,5,1,156,"- Please Note: This unit was just renovated in 2016 and it comfortably accommodates four guests, but up to 6 guests are permitted if you so desire (two guests in each bedroom and 2 guests on the two available twin size air mattresses). Please request an air mattress(es) (if needed) when making a reservation.  No smoking, no pets, no parties, and must be 25 years old to book.  For check-out, please ensure: - All plates and cups are left in the sink or dishwasher - All trash is left in the kitchen trash can or bagged and left next to the trash can (additional bags are under the sink) - All windows are closed and locked - If used, the air mattresses are deflated and put away (please leave used linens for the air mattresses on the floor) - If furniture was moved during your stay, please return to its original location  Please be mindful to our neighbors in the building, quiet hours after 10pm is not a must, but a nice gesture.  Please be considerate of our next guests who will be staying a",
19158751,"Cozy & Convenient Private Bedroom in Harlem, NYC.",98228448212,unconfirmed,Christopher,Manhattan,Harlem,40.8186,-73.94348000000001,United States,US,False,strict,Private room,2014,$313 ,$63 ,1,1,5/4/2019,0.45,3,2,0,Please no dirty dishes behind. Thank you,
19159303,Bedstuy spacious townhouse w. amazing backyard,64239405873,verified,Gabriel,Brooklyn,Bedford-Stuyvesant,40.68242,-73.92788,United States,US,False,strict,Entire home/apt,2018,$702 ,$140 ,10,1,7/21/2018,0.08,2,1,0,,
19159855,Charming 3 Bedroom House in Forest Hills NY,4771171601,unconfirmed,Nicole,Queens,Forest Hills,40.71952,-73.85523,United States,US,True,strict,Entire home/apt,2004,$141 ,$28 ,4,6,12/31/2018,0.51,4,1,3,"We expect guests to relax and enjoy themselves, but to be respectful of the space and the community.  Please note: no extra guests allowed and please limit loud noises beyond 10pm (sensitive neighbors).",
19160408,Simple Private Rm w/ Futon in the Bronx/ Storage,607847221,verified,Charles,Bronx,Fordham,40.85801,-73.88247,United States,US,False,moderate,Private room,2021,$770 ,$154 ,1,9,8/5/2018,0.7,5,2,0,Treat this quaint apartment like it's your own.,
19160960,New York Oasis,33991378301,verified,Aliesha,Manhattan,Upper East Side,40.76917,-73.9516,United States,US,True,moderate,Entire home/apt,2010,$178 ,$36 ,4,11,5/23/2019,1.13,4,1,3,No Smoking on the apartment.  No Ilegal Drugs  No Parties on property. No pets PLEASE TRY  TO BE AS QUIET AS POSSIBLE CONSIDER OTHER NEIGHBORS OR TENANTS. THANK YOU IN ADVANCE!.,
19161512,Brooklyn Basement,69056911602,verified,April,Brooklyn,Gowanus,40.67087,-73.99305,United States,US,True,flexible,Entire home/apt,2013,$152 ,$30 ,2,7,7/7/2019,0.74,5,1,7,"Smoking is allowed on the patio only. No pets unless discussed with owners Be mindful of the neighbors, this is a residential area.",
19162065,Midtown East - Huge private room with terrace,62311393847,verified,Li,Manhattan,Midtown,40.75704,-73.96531,United States,US,True,moderate,Private room,2013,$830 ,$166 ,3,4,8/22/2018,0.31,3,1,0,Respect the neighbors Absolutely no smoking in and around the property. Respect the neighbors Back door is for Emergency Exit only  (clearly marked) Respect the neighbors We love dogs but sorry no pets,
19162617,PVT room cozy & warm w/fridge 15mins to NY airport,91098949541,unconfirmed,Isaac And Eunice,Queens,Jamaica,40.70713,-73.78341999999999,United States,US,False,moderate,Private room,2008,$617 ,$123 ,2,34,6/24/2019,2.63,2,1,331,,
19163169,Onderdonk Hotel Studio,80212141304,verified,Daniel,Queens,Ridgewood,40.7087,-73.91452,United States,US,False,strict,Private room,2010,$544 ,$109 ,2,1,6/23/2018,0.08,4,1,0,"PLEASE NOTE THE FOLLOWING BEFORE REQUESTING A BOOKING:  * I will reply as soon as possible to let you know if my apartment will be available for ALL your needs.  - 1. We are happy to host Friendly, Neat, Low-Maintainence Adults & Well-Behaved Children.  ---- All cookware, dishes and utensils in the kitchen are at your disposal ---- There will be basic condiments provided for you, but please ask about food as this is our home. We ask that you rinse whatever dishes you use & place in dishwasher & leave the kitchen as you found it.  - 2. NO UNPAID ADULTS, CHILDREN, OR OVERNIGHT VISITORS PERMITTED  - 3. NO SMOKING  - 4. NO PARTIES  - 5. NO LOUD MUSIC - 6. PETS (decided on a case by case basis, please inquire for more information and additional fees) - 7. PLEASE MAKE REQUESTS EARLY (to ensure availability) FOR ANY EXTRA Special Requests or Needs.  - 8. RATES, AVAILABILITY & AMENITIES ARE SUBJECT TO CHANGE UNTIL A RESERVATION IS FINALIZED, AND WILL DEPEND ON TIME OF YEAR AND WHO REQUESTS A R",
19163722,Artist Loft in Tribeca,35416056240,verified,Anna,Manhattan,Tribeca,40.71785,-74.00549000000001,United States,US,True,strict,Entire home/apt,2009,$142 ,$28 ,2,20,7/7/2019,1.56,3,1,10,Check-in time is 1PM. Read the manual after you book - it covers everything INCLUDING check in. This manual should come in the check in,
19164274,Very Convenient Modern Brooklyn Studio Apartment,19233218784,unconfirmed,Jessica,Brooklyn,Prospect-Lefferts Gardens,40.66113,-73.95943,United States,US,True,strict,Entire home/apt,2019,$351 ,$70 ,3,51,7/1/2019,4.16,2,1,46,Apartment is located in quiet neighborhood so noise is ok as long as it's not excessive. We have a strict no-pet and no-smoking policy. This is our building policy and also a strongly enforced household policy.,
19164826,Sunny & Cheery Bronx Home - with Chickens!,22101472477,unconfirmed,Lily,Bronx,Mott Haven,40.8084,-73.92036999999999,United States,US,True,flexible,Entire home/apt,2020,$102 ,$20 ,2,36,6/29/2019,3.12,2,1,114,No smoking No pets  No events or parties Check out by 11am  Check in after 3pm $50 fee for lost keys  Please stay out of the nursery unless you have a baby sleeping in there We can be flexible with check in and check out times depending on the next renter's right to a 3pm check in time.,
19165378,MODERN 2-3 Bedroom Apartment with Huge Roof Deck,30325264293,verified,Kelley,Brooklyn,Columbia St,40.68051,-74.00357,United States,US,False,moderate,Entire home/apt,2019,$916 ,$183 ,30,1,8/22/2018,0.09,2,1,95,,
19165931,Massive Bedroom w/Private Yard. NYC/Williamsburg,49714125804,verified,Jolene,Brooklyn,Williamsburg,40.71971,-73.95879000000001,United States,US,True,strict,Private room,2012,$265 ,$53 ,14,0,,,5,1,0,#NAME?,
19166483,Serene 1BR in Midtown East by Sonder,84411948106,unconfirmed,Sonder,Manhattan,Murray Hill,40.74388,-73.97193,United States,US,True,strict,Entire home/apt,2009,$105 ,$21 ,29,1,3/15/2019,0.26,3,96,347,,
19167035,Elegant 1BR in Midtown East by Sonder,45717950380,unconfirmed,Sonder,Manhattan,Murray Hill,40.744679999999995,-73.97335,United States,US,True,moderate,Entire home/apt,2014,$880 ,$176 ,29,1,8/3/2018,0.09,2,96,338,,
19167588,Intimate Studio in FiDi by Sonder,60903712810,verified,Sonder,Manhattan,Financial District,40.70447,-74.00846999999999,United States,US,True,flexible,Entire home/apt,2009,$188 ,$38 ,29,0,,,5,96,170,#NAME?,
19168140,SoHo! Private Room in Comfy Apt!,69506538044,verified,Jasmine,Manhattan,SoHo,40.72788,-74.00301,United States,US,False,flexible,Private room,2016,$470 ,$94 ,1,38,7/6/2019,2.98,5,10,151,,
19168692,Soho!  Amazing Single Room!,39008989024,unconfirmed,Jasmine,Manhattan,SoHo,40.7258,-73.99969,United States,US,False,strict,Private room,2010,$991 ,$198 ,1,35,6/23/2019,2.75,4,10,156,"Check in/out: We can meet outside of my building at check-in between 4:00pm-6:00pm.  If you can give me an estimated ETA, that would be helpful!  Please leave your keys in the studio when you check-out Thursday afternoon.  I am very flexible with check-out between 12:00pm-3:00pm. Go up 1 flight of stairs, and it will be the first door to the right.   The door locks automatically, but there is a deadbolt and lock.  You do not have to deadbolt the door every time you leave.  TV – Press and hold the “All On” button to turn on TV Towels are on the top shelf in the bathroom, and the bed is all set!   I do have a portable A/C in the second window on the right.  Since I live on the second floor, it does not get too warm, but if you do need it, please remember to turn it off if you are leaving the building. Trash/recycling days are Sundays and Thursdays. There’s trash bags on the third shelf in the bathroom closet to the left.  When you are checking out on Thursday, please take the trash out r",
19169245,Soho! Room in Modern Apartment!,75881964980,unconfirmed,Jasmine,Manhattan,SoHo,40.72513,-74.00329,United States,US,False,strict,Private room,2009,"$1,125 ",$225 ,1,42,7/6/2019,3.32,5,10,120,"- Please make sure to leave the place clean and organized so as to let other guests enjoy the space. - Cleaning fee covers washing of laundry, vacuuming of floors, changing sheets/bedding, etc. It also covers replacement of toiletry and essentials. - Absolutely NO smoking, NO parties, and please take shoes off upon entering the apt. Thank you and I look forward to providing you with an excellent stay! -James",
19169797,Large sunny room in Modern Brooklyn Townhouse,90762682736,unconfirmed,Can,Brooklyn,Clinton Hill,40.69631,-73.96288,United States,US,False,moderate,Private room,2016,"$1,056 ",$211 ,3,11,1/1/2019,0.85,3,1,356,"You are our guests and we are so glad to have you here.  For your safety, and ours, we ask that you meet your guests off site.  There is no smoking in the building. There are no animals allowed.  If you arrive, and we are not available to greet you, there is a lock box on the outside of the building to the right of the double front doors. The keys to the building and your guest room are there.  Once you have booked, I will give you the code for it.  In consideration of the other guests that will be sharing the bathroom, please keep your use to 15-20 minutes. There is a clipboard to sign up for a specific time for use. (i.e. to keep flight schedule, meeting etc.) If you have children staying with you, have all food and drinks for them in the common area at a table, please no food or drinks for the kids in the guest rooms, ( and loft area) to avoid spills etc.  Please keep your children in the designated areas mentioned. ( your guest room, common area to the left of the partition, and th",
19170349,sunshine room sublease,10100149276,unconfirmed,Qingxue,Manhattan,Washington Heights,40.84002,-73.94384000000001,United States,US,False,strict,Shared room,2007,$288 ,$58 ,1,1,6/23/2019,1.0,4,1,30,All Renters and Guests must be 25 years of age unless accompanied by a parent or guardian. Parties of any kind are not allowed. There is no smoking allowed in the boat. Use of illegal substances will be cause for immediate termination of the rental and reported to the police. All pets must be on a leash when outside the boat.  Quiet hours are between 9:30pm and 8am.  Noise must be kept to a minimum during this time period.,
19170901,GREAT LOCATION / GREAT PRICE COZY PRIVATE ROOM,30185746447,verified,Federico,Brooklyn,Bushwick,40.70227,-73.92264,United States,US,True,flexible,Private room,2012,$257 ,$51 ,3,25,6/25/2019,2.07,3,2,44,"We lived next door for over five years and recently sold our condo, so please don't be an idiot. We had tenants for three years and never heard them, and they never heard us (even when we had a newborn)... and we would expect the same to be true for you. No pets and no smoking.",
19171454,LUXURY On The Lower East Side,75196196460,verified,Jeremy,Manhattan,Lower East Side,40.718959999999996,-73.986,United States,US,False,moderate,Entire home/apt,2010,$625 ,$125 ,2,3,12/15/2018,0.31,4,1,8,"Please be considerate of the space and the neighbors.  Sorry, no parties allowed, this is more of a quiet space. Looking for more towels or need an extra pillow? Don't hesitate to text me! Things happen. If something gets broken, please let me know so I can replace it.",
19172006,Luxury 2 Bedroom Grand Central,74897292030,unconfirmed,Ian,Manhattan,Murray Hill,40.75058,-73.97746,United States,US,True,flexible,Entire home/apt,2013,$366 ,$73 ,30,0,,,4,4,364,,
19172558,"Harlem, near Columbia: Sunny room with view",13391898322,verified,Maria,Manhattan,Harlem,40.82967,-73.94851,United States,US,False,strict,Private room,2004,$947 ,$189 ,4,29,7/2/2019,2.29,2,1,98,,
19173111,Private room in Manhattan,46518924008,unconfirmed,Mary,Manhattan,Morningside Heights,40.810390000000005,-73.95948,United States,US,False,moderate,Private room,2017,$413 ,$83 ,1,67,4/7/2019,5.19,2,2,0,,
19173663,Cozy Manhattan 2 bedroom,17644428899,verified,Shen,Manhattan,East Harlem,40.79019,-73.94839,United States,US,False,strict,Private room,2011,$936 ,$187 ,3,19,6/28/2019,1.53,4,1,14,,
19174215,Modern Apt with private bedroom & bathroom,22352101875,verified,Zak,Brooklyn,Clinton Hill,40.69485,-73.96566999999999,United States,US,False,flexible,Private room,2006,$246 ,$49 ,1,16,8/17/2018,1.24,5,1,0,"You are our guests, we are so glad to have you here. For your safety and ours, we ask that you meet your guests off site.  Thus is a non-smoking building. No pets allowed.  Thank you",
19174768,Modern Wall of Glass Townhouse with Garden,63152413317,verified,Catherine,Manhattan,Harlem,40.806090000000005,-73.95258000000001,United States,US,True,moderate,Entire home/apt,2009,$696 ,$139 ,4,2,3/30/2019,0.19,3,1,197,"No Smoking on the apartment.  No Ilegal Drugs  No Parties on property. No pets PLEASE TRY  TO BE AS QUIET AS POSSIBLE CONSIDER OTHER NEIGHBORS OR TENANTS. THANK YOU IN ADVANCE!. Hull st. court apartment rules: 0.  Absolutely NO smoking in the apartment or  building.  Anyhow if you need to, please do go out to Hull street and people watch while smoking. The North end has multiple cigar bars, too! 1.  Most important, please, No Parties = be quiet, use ""indoor voices"" like they taught us in grade school!  Also, keep the stereo at a reasonable level, etc.   If YOU experience trouble with noise try to contact me immediately and I'll do what I can to stop it. 2.  Please be kind to sheets and towels, leave wet ones in the tub, and generally pick up stuff when leaving.  3. Anything at all recyclable put in the blue wheeled bin on the way out of the building on Hull st court.  Put trash in the blue trash can in the kitchen.  If you are staying for more than a few days and have trash in excess o",
19175320,Bed Stuy Brownstone Charm,9782370325,verified,Damira,Brooklyn,Bedford-Stuyvesant,40.68847,-73.93054000000001,United States,US,True,strict,Private room,2004,$925 ,$185 ,2,9,10/29/2018,0.71,4,1,0,No smoking and no parties.,
19175872,ELLIS 56-4 *COLUMBIA PRESBYTERIAN HOSPITAL AREA,74705608903,verified,Juliana,Manhattan,Washington Heights,40.84089,-73.94109,United States,US,False,strict,Private room,2005,$760 ,$152 ,30,1,12/11/2018,0.14,2,34,311,,
19176424,"Lovely room with private bathroom, near Manhattan",74122036659,unconfirmed,Martin,Queens,Sunnyside,40.73657,-73.91975,United States,US,False,flexible,Private room,2011,$394 ,$79 ,1,10,6/13/2019,1.02,5,8,275,,
19176977,Sunny room in great location,54259962019,unconfirmed,Engorako,Queens,Astoria,40.76549,-73.9149,United States,US,True,moderate,Private room,2008,$369 ,$74 ,50,0,,,4,1,21,"House Rules Welcome to Boston-Furnished-Rentals. We respectfully request that you take care of all furniture, appliances, and all other belongings in our apartments. Pets are allowed only with prior approval. Please turn off all lights and appliances including the A/C and heat when you leave. We also ask that you follow our trash rules while staying with us. The efforts of all our guests allow us to pass on savings for everyone. We look forward to your visit and thanks for choosing Boston-Furnished-Rentals while enjoying Boston.",
19177529,Cozy 1 Bed/1 Bath Nestled in Charming West Village,92993033509,verified,Josh,Manhattan,West Village,40.73338,-74.00314,United States,US,True,flexible,Entire home/apt,2022,$514 ,$103 ,2,4,7/26/2018,0.31,5,1,0,"Check Out is at Noon (12:00pm) unless otherwise specified. Cleanliness is next to godliness!  No smoking, no pets, no parties! Please take your shoes off upon entering the apt. Thank you!",
19178081,BEST DEAL in NYC - Cute and Cozy Room Times Square,3479613884,verified,Prav,Manhattan,Hell's Kitchen,40.75854,-73.98988,United States,US,False,flexible,Private room,2013,$580 ,$116 ,3,101,6/8/2019,7.77,5,3,68,"PLEASE  NOTE: • 6.25% MA State Sales Tax is already incorporated into the room rate and extra guest fees. • The total listed as the cleaning fee is comprised of a $119 cleaning fee and a $39 damage protection plan which provides $3,000 worth of coverage for accidental damage to the property during the stay. There is no smoking allowed in the boat. Use of illegal substances will be cause for immediate termination of the rental and reported to the police. All pets must be on a leash when outside the boat.  Quiet hours are between 9:30pm and 8am.  Noise must be kept to a minimum during this time period.",
19178634,Ensuite Private Room with Bath @4th FL,31181347275,verified,Yvonne,Brooklyn,Borough Park,40.635909999999996,-74.00717,United States,US,False,moderate,Private room,2011,"$1,023 ",$205 ,1,10,5/24/2019,0.82,5,7,312,Residential building so no loud gatherings  No noise after 11  Basically treat it like its your place  No cleaning fee charged so please leave kitchen like you found it,
19179186,Single Bunker Private Bath Room,18578640592,verified,Yvonne,Brooklyn,Borough Park,40.63573,-74.00551999999999,United States,US,False,moderate,Private room,2009,"$1,073 ",$215 ,1,1,3/18/2019,0.26,2,7,350,"House Rules Welcome to Boston-Furnished-Rentals. We respectfully request that you take care of all furniture, appliances, and all other belongings in our apartments. Pets are allowed only with prior approval. Please turn off all lights and appliances including the A/C and heat when you leave. We also ask that you follow our trash rules while staying with us. The efforts of all our guests allow us to pass on savings for everyone. We look forward to your visit and thanks for choosing Boston-Furnished-Rentals while enjoying Boston.",
19179738,BEST LOCATION - Lovely room by Times Square!!!,42530751459,verified,Prav,Manhattan,Hell's Kitchen,40.758590000000005,-73.99195,United States,US,True,moderate,Private room,2011,$630 ,$126 ,3,84,6/22/2019,6.46,2,3,17,"House Rules Welcome to Boston-Furnished-Rentals. We respectfully request that you take care of all furniture, appliances, and all other belongings in our apartments. Pets are allowed only with prior approval. Please turn off all lights and appliances including the A/C and heat when you leave. We also ask that you follow our trash rules while staying with us. The efforts of all our guests allow us to pass on savings for everyone. We look forward to your visit and thanks for choosing Boston-Furnished-Rentals while enjoying Boston.",
19180291,Bushwick play2,52307307426,unconfirmed,Jourdain,Brooklyn,Bushwick,40.693290000000005,-73.91579,United States,US,False,strict,Private room,2018,$210 ,$42 ,14,2,9/30/2018,0.2,4,2,311,"Expect to have our place treated with respect, but don't want guests to feel uncomfortable so if there's a beer(s) in the fridge, feel free, snacks in the drawers, usually fresh fruit in the bowl, up for grabs etc...",
19180843,Cozy large Full 1 Bedroom Apt,79791388091,verified,Omar,Brooklyn,Midwood,40.6294,-73.97004,United States,US,True,strict,Entire home/apt,2004,$168 ,$34 ,354,0,,,2,1,179,"House Rules Welcome to Boston-Furnished-Rentals. We respectfully request that you take care of all furniture, appliances, and all other belongings in our apartments. Pets are allowed only with prior approval. Please turn off all lights and appliances including the A/C and heat when you leave. We also ask that you follow our trash rules while staying with us. The efforts of all our guests allow us to pass on savings for everyone. We look forward to your visit and thanks for choosing Boston-Furnished-Rentals while enjoying Boston.",
19181395,"Private Bedroom In Brooklyn, NY",96569433976,verified,Veronika,Brooklyn,Sheepshead Bay,40.59919,-73.94189,United States,US,True,flexible,Private room,2004,$824 ,$165 ,6,0,,,2,1,12,"No Smoking on the apartment.  No Ilegal Drugs  No Parties on property. No pets PLEASE TRY  TO BE AS QUIET AS POSSIBLE CONSIDER OTHER NEIGHBORS OR TENANTS. THANK YOU IN ADVANCE!. Reiterating what's below>>> No parties!  No loud noises, please! - realize that there are other guests (and especially residents) like you in the building that may in fact want to get sleep on a regular basis (sometime between the hours of 10pm and 7am, probably!)  During the day, jumping jacks are probably ok. If you have any problems or if neighbors complain call me at (phone number hidden) and mediate over the phone or in person.   Hull st. court apartment rules: 0.  Absolutely NO smoking in the apartment or  building.  Anyhow if you need to, please do go out to Hull street and people watch while smoking. The North end has multiple cigar bars, too! 1.  Most important, please, No Parties = be quiet, use ""indoor voices"" like they taught us in grade school!  Also, keep the stereo at a reasonable level, etc.   I",
19181947,Lovely room in Manhattan Lower East Side,16349398836,unconfirmed,Qi,Manhattan,Lower East Side,40.71026,-73.98738,United States,US,False,moderate,Private room,2014,$738 ,$148 ,1,11,7/13/2018,0.85,4,1,0,"No Smoking on the apartment.  No Ilegal Drugs  No Parties on property. No pets** (ask) PLEASE TRY  TO BE AS QUIET AS POSSIBLE CONSIDER OTHER NEIGHBORS OR TENANTS. THANK YOU IN ADVANCE!. Reiterating what's below>>> No parties!  No loud noises, please! - realize that there are other guests (and especially residents) like you in the building that may in fact want to get sleep on a regular basis (sometime between the hours of 10pm and 7am, probably!)  During the day, jumping jacks are probably ok. If you have any problems or if neighbors complain call me at (phone number hidden) and mediate over the phone or in person.   Hull st. court apartment rules: 0.  Absolutely NO smoking in the apartment or  building.  Anyhow if you need to, please do go out to Hull street and people watch while smoking. The North end has multiple cigar bars, too! 1.  Most important, please, No Parties = be quiet, use ""indoor voices"" like they taught us in grade school!  Also, keep the stereo at a reasonable level, ",
19182500,Quiet Room for Rent,86498906596,verified,Cynthia,Manhattan,Harlem,40.82571,-73.95016,United States,US,True,flexible,Private room,2008,"$1,112 ",$222 ,3,0,,,5,1,0,"PLEASE  NOTE: • 6.25% MA State Sales Tax is already incorporated into the room rate and extra guest fees. • The total listed as the cleaning fee is comprised of a $119 cleaning fee and a $39 damage protection plan which provides $3,000 worth of coverage for accidental damage to the property during the stay. There is no smoking allowed in the boat. Use of illegal substances will be cause for immediate termination of the rental and reported to the police. All pets must be on a leash when outside the boat.  Quiet hours are between 9:30pm and 8am.  Noise must be kept to a minimum during this time period.",
19183052,Luxury spacious new 1Bdr 30 mins to Manhattan,7392187352,unconfirmed,Panid,Brooklyn,Midwood,40.61605,-73.94549,United States,US,False,strict,Entire home/apt,2008,$626 ,$125 ,4,1,7/7/2018,0.08,5,1,7,,
19183604,"Elegant 4 floor/4BR home, garden, chef's kitchen",84612074335,unconfirmed,Alex,Brooklyn,Clinton Hill,40.68403,-73.9625,United States,US,False,strict,Entire home/apt,2005,$596 ,$119 ,3,0,,,5,1,0,"Quiet, residential. No smoking. No pets",
19184157,Chic + comfortable 1 BR apt on Upper East Side,78204898967,unconfirmed,Dale,Manhattan,Upper East Side,40.77772,-73.94821999999999,United States,US,True,moderate,Entire home/apt,2018,$746 ,$149 ,2,6,9/17/2018,0.5,2,1,0,"Please feel to use the kitchen, laundry, etc. I take great pride in keeping my things nice, so please be respectful and we will be all set :)",
19184709,Cozy room close to Central Park and Columbia,24107478945,unconfirmed,Beatriz,Manhattan,Upper West Side,40.8018,-73.96264000000001,United States,US,False,moderate,Private room,2007,$512 ,$102 ,3,19,6/17/2019,1.5,4,1,189,House rules  1- Since this is a apartment that is lived in at times there are some closets and draws with personal items and I would ask not to use those spaces but there is plenty of space for your stuff. 2- Residential Building so no loud noises or parties especially after 10:30. 3- No overnight company unless approved. 4- Common Courtesy  5-No  or smoking.,
19185261,NYC HUB Master Bedroom: Train @900ft,83169266919,unconfirmed,Jeff,Queens,Jamaica,40.711059999999996,-73.78393,United States,US,False,strict,Private room,2021,$884 ,$177 ,2,10,5/8/2019,0.79,5,7,0,,
19185814,Deluxe East Village Flat: 2 Bed - 2 Bath,39669630513,unconfirmed,Nick,Manhattan,East Village,40.72891,-73.97977,United States,US,True,moderate,Entire home/apt,2009,"$1,112 ",$222 ,1,5,12/22/2018,0.39,5,4,59,,
19186366,Brooklyn Nest,24193765646,verified,Emily,Brooklyn,East Flatbush,40.65014,-73.94451,United States,US,True,flexible,Entire home/apt,2022,$752 ,$150 ,2,0,,,2,1,5,No smoking.   We do allow pets.,
19186918,Sweet Studio in <3 of Manhattan,2248040897,verified,Ruth & C,Manhattan,Upper East Side,40.76182,-73.9619,United States,US,True,moderate,Entire home/apt,2018,$822 ,$164 ,1,48,6/15/2019,3.71,4,1,0,,
19187470,Comfy King Bed Feet from Subway,64089350069,verified,Raphael,Manhattan,Harlem,40.80387,-73.95164,United States,US,False,flexible,Private room,2018,$568 ,$114 ,3,30,7/4/2019,2.48,5,4,145,No smoking. No pets allowed in the building. Quiet hours apply.,
19188023,"""I LOVE BROOKLYN""  Newly Renovated Studio APT.",74203198359,unconfirmed,"R, J",Brooklyn,Bedford-Stuyvesant,40.6881,-73.94586,United States,US,True,moderate,Entire home/apt,2014,$569 ,$114 ,1,75,6/21/2019,5.77,3,3,20,"This is my apartment that I rent out when I'm away; I ask that you treat my things as you would yours and leave it as you found it.  There is no smoking in the apartment as well as no pets. - Please be quiet in the hallway/stairs - I live in a small apartment building (5 apartments) and all of my neighbors are very quiet and polite so please reciprocate. - No overnight guests that are not on the reservation/have not been agreed upon in advance. - No smoking in the apartment, out the window, etc.   -Please be mindful of shutting off lights when not in use/when leaving the apartment. -If you cook please take care of your dishes (you can use the dishwasher). ",
19188575,King Size Room Feet from Subway,98503809311,verified,Raphael,Manhattan,Harlem,40.80352,-73.95212,United States,US,True,moderate,Private room,2021,"$1,056 ",$211 ,3,35,7/7/2019,2.82,4,4,0,"Since I actually live here for part of the time, the closet space is off limits. Please no shoes in the house!",
19189127,Modern Studio Apt on Waterfront (Greenpoint),15182004132,unconfirmed,Dan,Brooklyn,Greenpoint,40.72617,-73.95956,United States,US,False,moderate,Entire home/apt,2005,$416 ,$83 ,15,0,,,5,1,191,Please be respectful of the space and building!  No loud noises or extra guests beyond 10pm.,
19189680,Light-filled Room with Private Bath & Entrance,30279625251,unconfirmed,Karen,Brooklyn,Greenpoint,40.73325,-73.95541999999999,United States,US,False,moderate,Private room,2003,$935 ,$187 ,1,12,10/3/2018,0.97,3,1,0,,
19190232,The cozy room!,3584959904,unconfirmed,Leomaris,Manhattan,Harlem,40.829609999999995,-73.94525,United States,US,True,moderate,Private room,2014,$320 ,$64 ,7,11,6/9/2019,0.85,5,3,88,,
19190784,Cozy and Convenient Spot in Washington Heights,5206092386,unconfirmed,Nick,Manhattan,Washington Heights,40.851079999999996,-73.93911999999999,United States,US,True,flexible,Private room,2007,$113 ,$23 ,1,8,7/8/2018,0.62,5,1,0,Absolutely no parties are permitted. The apartment is in a multi-unit building so guests must be respectful of other tenants in the building.,
19191337,Gorgeous UES DOORMAN Apt + GYM & ROOFTOP clean !,27411002149,verified,Dafna Irit,Manhattan,Upper East Side,40.77727,-73.94588,United States,US,True,strict,Entire home/apt,2018,$947 ,$189 ,35,1,7/31/2018,0.09,5,2,21,"No Smoking on the apartment.  No Ilegal Drugs  No Parties on property. No pets PLEASE TRY  TO BE AS QUIET AS POSSIBLE CONSIDER OTHER NEIGHBORS OR TENANTS. THANK YOU IN ADVANCE!. Reiterating what's below>>> No parties!  No loud noises, please! - realize that there are other guests (and especially residents) like you in the building that may in fact want to get sleep on a regular basis (sometime between the hours of 10pm and 7am, probably!)  During the day, jumping jacks are probably ok. If you have any problems or if neighbors complain call me at (phone number hidden) and mediate over the phone or in person.   Hull st. court apartment rules: 0.  Absolutely NO smoking in the apartment or  building.  Anyhow if you need to, please do go out to Hull street and people watch while smoking. The North end has multiple cigar bars, too! 1.  Most important, please, No Parties = be quiet, use ""indoor voices"" like they taught us in grade school!  Also, keep the stereo at a reasonable level, etc.   I",
19191889,Modern newly renovated apartment with balcony,55323942485,verified,Adriano,Manhattan,Washington Heights,40.84963,-73.9372,United States,US,True,strict,Entire home/apt,2007,$584 ,$117 ,2,15,6/23/2019,1.39,3,1,48,We expect from you just to respect the basic rules: no smoking and being careful with the house furniture and things.,
19192441,Cute private bedroom in Stuyvesant Height.,78104975963,verified,Jaquayala,Brooklyn,Bedford-Stuyvesant,40.68315,-73.92913,United States,US,True,flexible,Private room,2008,$533 ,$107 ,1,1,12/11/2018,0.14,2,1,0,"Respect my home, space and belongings.  Absolutely no smoking allowed in the unit.   Please respect my neighbors by keeping the noise levels to a minimum, particularly between the hours of 10pm-7am.  Enjoy your stay in Boston, fall in love with my city and make yourself at home!!",
19192993,BEAUTIFUL STUDIO ON UPPER EAST SIDE/ CENTRAL PARK,54057630791,verified,Inna,Manhattan,Upper East Side,40.77045,-73.9568,United States,US,False,strict,Entire home/apt,2008,$706 ,$141 ,30,6,7/1/2019,0.59,5,16,339,"No smoking, no loud music after 11pm.",
