id,NAME,host id,host_identity_verified,host name,neighbourhood group,neighbourhood,lat,long,country,country code,instant_bookable,cancellation_policy,room type,Construction year,price,service fee,minimum nights,number of reviews,last review,reviews per month,review rate number,calculated host listings count,availability 365,house_rules,license
19558616,Spacious Studio Apartment in Luxury Building,22038326346,verified,Elizabeth,Queens,Long Island City,40.75087,-73.94202,United States,US,True,strict,Entire home/apt,2006,$650 ,$130 ,2,24,7/1/2019,2.11,2,1,232,,
19559168,Wyndham Midtown 45 @ NYC,10899435582,unconfirmed,Jennifer,Manhattan,Midtown,40.75357,-73.97313,United States,US,False,moderate,Private room,2003,$686 ,$137 ,3,1,11/5/2018,0.12,3,1,0,#NAME?,
19559721,Modern Williamsburg Apartment with Manhattan Views,44656030967,verified,Ari,Brooklyn,Williamsburg,40.71414,-73.96334,United States,US,False,moderate,Entire home/apt,2009,"$1,038 ",$208 ,2,3,8/5/2018,0.25,2,1,0,,
19560273,LIC Brand New Home with a View & Pool,25779737250,unconfirmed,Fei,Queens,Long Island City,40.747479999999996,-73.93985,United States,US,True,strict,Private room,2009,$886 ,$177 ,1,0,,,4,1,0,No smoking anywhere on the property- including the front steps.  No parties- please be considerate of the many neighbors around you.  Please take the trash out at the end of your stay.  The fireplace is not cleared for burning wood but you may use the candles provided. Please blow out candles when you leave.,
19560825,Private Room near Columbia  University *,47977211669,verified,Joe,Manhattan,Upper West Side,40.8006,-73.96406999999999,United States,US,False,strict,Private room,2015,$641 ,$128 ,1,80,6/22/2019,6.59,3,3,19,NO Smoking,
19561378,PERFECTLY LOCATED PRIVATE APARTMENT - AFFORDABLE,68562766124,unconfirmed,Kevin Unal,Manhattan,Harlem,40.80448,-73.95567,United States,US,False,strict,Entire home/apt,2010,"$1,018 ",$204 ,1,58,6/18/2019,4.89,4,1,96,- Respect as if it were your own home is all we ask :),
19561930,Close to everywhere in NY!! Cerca de todo en NY!!,64214387401,unconfirmed,Ana,Queens,Astoria,40.757090000000005,-73.9145,United States,US,True,flexible,Private room,2007,$493 ,$99 ,2,21,6/24/2019,1.86,4,3,151,No smoking inside and no pets. Please be respectful of the hosts and the space.,
19562482,"Sunny Bedroom, New renovated Brooklyn House",82612246814,verified,Selin,Brooklyn,Prospect-Lefferts Gardens,40.65829,-73.95170999999999,United States,US,True,flexible,Private room,2019,"$1,200 ",$240 ,20,3,7/22/2018,0.25,4,1,0,"Treat the home as you would your own.  If staying through a trash day, please leave trash by curb.",
19563034,"Cozy, Clean Private Room in Clinton Hill BK",92149359968,unconfirmed,Maggie,Brooklyn,Clinton Hill,40.693220000000004,-73.96655,United States,US,True,strict,Private room,2007,$386 ,$77 ,3,2,7/22/2018,0.16,3,1,0,This building is home to quiet professionals; please be respectful of neighbors and be mindful of noise.,
19563587,Extra Large appartment in the heart of Manhattan,89274656274,verified,Barbara,Manhattan,Harlem,40.81657,-73.93849,United States,US,True,strict,Entire home/apt,2003,$79 ,$16 ,1,19,6/3/2019,1.62,4,3,0,,
19564139,Cozy bedroom on the cusp of Williamsburg/Bushwick,19941135782,verified,Christian,Brooklyn,Williamsburg,40.71018,-73.94057,United States,US,False,strict,Private room,2017,$165 ,$33 ,3,2,7/29/2018,0.17,3,1,36,,
19564691,"Parkslope, Brooklyns Best Neighborhood!",55647356037,unconfirmed,Sean,Brooklyn,Park Slope,40.671929999999996,-73.98151999999999,United States,US,True,flexible,Private room,2011,$283 ,$57 ,2,24,6/30/2019,2.09,3,1,294,No Smoking,
19565244,Very close to Manhattan! Muy cerca de Manhattan,22968134789,unconfirmed,Ana,Queens,Astoria,40.75697,-73.91314,United States,US,False,strict,Private room,2019,$256 ,$51 ,2,34,6/27/2019,2.97,5,3,167,Please run dishwasher before checking out and respect noise levels for neighbors! :),
19565796,"Quiet, Clean Bedroom in Prime Harlem Location.",2277313539,verified,Myles,Manhattan,Harlem,40.79976,-73.95119,United States,US,False,moderate,Private room,2006,$524 ,$105 ,3,28,6/24/2019,2.36,2,1,4,NO Smoking,
19566348,"Midtown apt, steps to Penn station (family, kids)",9398351931,verified,Rose,Manhattan,Chelsea,40.75274,-73.99647,United States,US,True,strict,Entire home/apt,2010,$311 ,$62 ,3,4,2/10/2019,0.33,3,1,0,"Access to kitchen appliances and cutlery, etc. Food and alcohol not included, we are close to a liquor store, Trader Joes and Whole Foods. No parties, no smoking, no pets, no more than 2 guests. Please treat the place as you would your own.",
19566901,2  PRIVATE  ROOMS IN A  SPACIOUS APPARTEMENT,1357593926,verified,Barbara,Manhattan,Harlem,40.81694,-73.93909000000001,United States,US,True,strict,Private room,2012,$212 ,$42 ,2,3,9/6/2018,0.26,3,3,364,Please treat our home as if it were your own.,
19567453,COZY ROOM IN MANHATTAN MINUTES 2 TIMES SQR,41544762862,verified,Figo,Manhattan,Harlem,40.81678,-73.94246,United States,US,False,flexible,Private room,2007,"$1,112 ",$222 ,1,7,4/2/2019,0.62,3,2,180,"You are my guest - please behave as such!  This is where I live. - No neighbor-disturbance-level noise past 11:00PM - No pets of any kind - No smoking - Use the kitchen, not the food (it is ours) - Clean up spills and dishes - No illegal drugs or substances",
19568005,SPACIOUS 3 BR APT 5 MNS TO CENTRAL PARK NORTH,16774901743,unconfirmed,El,Manhattan,Harlem,40.802690000000005,-73.94686999999999,United States,US,True,flexible,Entire home/apt,2005,$567 ,$113 ,2,0,,,3,3,353,"We expect our guests to behave in a respectful manner and try to limit loud sounds and noises (such as music and/or shouting) in the evening. All animals must be well mannered and guests are expected alert us to any animals they may have with them, so that we can clean properly after departure. This apartment is non-smoking.",
19568557,UWS Cozy room near Columbia UNIVERSITY***,66748826475,unconfirmed,Joe,Manhattan,Upper West Side,40.79978,-73.96295,United States,US,False,flexible,Private room,2013,$266 ,$53 ,1,64,6/23/2019,5.42,4,3,11,"No pets, no smoking inside.",
19569110,Home away from home,26292892572,unconfirmed,Joey,Brooklyn,Midwood,40.61615,-73.95997,United States,US,True,flexible,Entire home/apt,2004,$479 ,$96 ,1,1,7/17/2018,0.08,4,1,0,,
19569662,Private room close to Columbia university **,31417946776,verified,Joe,Manhattan,Upper West Side,40.79972,-73.96281,United States,US,True,moderate,Private room,2015,$587 ,$117 ,1,76,6/16/2019,6.28,2,3,16,"Parties, group events, having any number of guests above the number of people listed on the reservation either for a few minute visit or otherwise, or playing loud music is not allowed. Neighbors are quiet and respectable professionals and it is strictly necessary to respect their peace and to be discreet at any time. Thank you for your understanding. You can feel free to ask me for anything. Safe travels and see you soon! Sebastien",
19570214,Spacious and close to everything,49765709698,verified,Vivian,Bronx,Claremont Village,40.84171,-73.91159,United States,US,False,moderate,Private room,2009,$612 ,$122 ,1,0,,,2,1,363,This is a quiet residential street of owner occupied properties.  Guest are expected to be respectful of other quests. No late night loud noise making. No smoking.  Freshly laundered slippers are provided for guests to wear in the house.  We have a no shoes policy inside the house.,
19570767,"Big, Pretty & Right in the City!",94668269241,verified,Kelly,Manhattan,Harlem,40.82763,-73.94404,United States,US,False,flexible,Private room,2011,$899 ,$180 ,1,19,7/2/2019,7.92,3,2,16,,
19571319,NYC Guest Suite with Loft-Free Ferry to Manhattan,33936672891,unconfirmed,Nina,Staten Island,Clifton,40.615429999999996,-74.08513,United States,US,True,flexible,Entire home/apt,2004,$913 ,$183 ,2,5,5/19/2019,0.43,5,7,312,,
19571871,LES - Lower East Side,20406642852,unconfirmed,Borna,Manhattan,Chinatown,40.71443,-73.99348,United States,US,False,flexible,Private room,2008,$934 ,$187 ,7,1,8/15/2018,0.09,3,1,0,,
19572424,COZY ROOM 5 MNS WALK TO CENTRAL PARK NORTH,39376342769,verified,El,Manhattan,Harlem,40.803670000000004,-73.94803,United States,US,False,strict,Private room,2011,$489 ,$98 ,3,6,1/2/2019,0.6,4,3,353,,
19572976,Charming Upper Manhattan Apartment,52155525585,verified,Talia,Manhattan,Washington Heights,40.83958,-73.94596,United States,US,True,strict,Entire home/apt,2016,$176 ,$35 ,3,4,11/24/2018,0.33,4,1,0,,
19573528,❤️ A Warm Place to Stay. A Clean & Sunny RM,46797004366,unconfirmed,Kazuya,Queens,Woodside,40.744609999999994,-73.90648,United States,US,True,strict,Private room,2017,$606 ,$121 ,30,0,,,5,103,238,,
19574080,Midtown 45 Manhattan with a view,45586787883,verified,Loretta,Manhattan,Midtown,40.75157,-73.97134,United States,US,True,strict,Private room,2007,$871 ,$174 ,3,0,,,3,1,5,,
19574633,Cozy home in UWS,44744772859,unconfirmed,Rachel,Manhattan,Upper West Side,40.795770000000005,-73.97403,United States,US,True,flexible,Private room,2020,$233 ,$47 ,6,6,8/26/2018,0.49,4,1,0,,
19575185,One big and comfy bedroom located in queens NY!!,46136133005,unconfirmed,Lina,Queens,Elmhurst,40.74295,-73.87812,United States,US,True,strict,Private room,2013,"$1,189 ",$238 ,2,0,,,5,1,358,"- On a typical weeknight, I will be home from 10pm to 7:30am",
19575737,The house of Tranquility,44505164905,verified,Ankeen,Brooklyn,Flatbush,40.6533,-73.95534,United States,US,False,flexible,Entire home/apt,2020,$68 ,$14 ,2,1,7/21/2018,0.08,5,1,0,No parties or extra guests! Sorry,
19576290,apartment in ft Greene. Close to park and subway,9692262151,verified,Elik,Brooklyn,Fort Greene,40.68705,-73.97336,United States,US,True,flexible,Entire home/apt,2014,$146 ,$29 ,28,6,6/10/2019,0.52,5,1,307,#NAME?,
19576842,RH COZY HOME,61262360725,unconfirmed,Danny,Queens,Richmond Hill,40.696659999999994,-73.83415,United States,US,True,moderate,Entire home/apt,2017,"$1,028 ",$206 ,3,15,1/1/2019,1.33,3,1,0,Please be respectful of noise levels after 10pm.,
19577394,Comfy Quiet Private Room in 3 bd/rm Apt.,76715146232,verified,Bryan,Manhattan,Washington Heights,40.854659999999996,-73.92771,United States,US,True,strict,Private room,2010,$850 ,$170 ,2,1,7/30/2018,0.09,3,1,0,Please remove your shoes when you enter the apartment.  There are trays out to place your shoes -- this is especially important in winter to not track salt and snow everywhere. We have nice hardwood floors that we'd like not to damage.  NO SMOKING -- THIS INCLUDES BEHIND OR IN FRONT OF THE BUILDING NO PETS  Do not bring anyone over who is not on the reservation -- you are the only people permitted to enter the building  Respect our neighbors and do not make noise,
19577947,Beautiful Private room in Brooklyn,40514785264,verified,Zara,Brooklyn,Bedford-Stuyvesant,40.69185,-73.95896,United States,US,True,strict,Private room,2020,$591 ,$118 ,10,0,,,3,1,17,Enjoy the marathon,
19578499,Cozy Brooklyn Nook w/Quick Manhattan Access,29945900330,unconfirmed,Janli,Brooklyn,Downtown Brooklyn,40.69032,-73.9871,United States,US,False,flexible,Private room,2022,$249 ,$50 ,2,26,5/31/2019,2.39,2,1,0,,
19579051,Casa Maritza,82302947462,verified,Marco,Brooklyn,East Flatbush,40.64629,-73.932,United States,US,False,moderate,Entire home/apt,2015,$584 ,$117 ,3,18,6/22/2019,1.53,3,1,48,,
19579603,Sunny studio apartment in Greenpoint BK,71537547616,unconfirmed,Krista,Brooklyn,Greenpoint,40.72878,-73.95823,United States,US,True,moderate,Entire home/apt,2019,$746 ,$149 ,3,0,,,3,1,0,We live in close proximity to our neighbors so we are not able to allow parties or large gatherings or late night partying.,
19580156,Newly Renovated Apartment in Upper Manhattan!,66221942883,verified,Matthew,Manhattan,Inwood,40.86159,-73.92616,United States,US,False,strict,Entire home/apt,2021,$609 ,$122 ,4,3,10/31/2018,0.26,2,1,0,"No pets, no smoking, no parties.  No guests not on the reservation.  You are liable for any damage. We will give you access to Netflix.  Please respect the account. Please report anything broken at the beginning of your reservation to avoid the loss of your security deposit.  Clean all your dishes and clean up after yourself.  Please keep the noise down.",
19580708,Prospect Park Oasis in the City,52778931536,verified,Sarah & Bruce,Brooklyn,Prospect-Lefferts Gardens,40.66113,-73.96276999999999,United States,US,False,flexible,Entire home/apt,2017,$241 ,$48 ,2,11,4/28/2019,0.94,3,1,0,"We expect travelers to leave the apartment in the same condition that they left it in. We take great care of the apartment as we feel it is a truly special home, and hope that others will treat it the same way! We will provide fresh sheets and towels, which guests can put in a pile upon leaving. We do not allow pets unfortunately. Although we love them, the building does not!",
19581260,Home Sweat Home,1012116301,verified,Jasmine,Manhattan,Battery Park City,40.711059999999996,-74.0157,United States,US,False,strict,Entire home/apt,2006,$573 ,$115 ,28,5,5/16/2019,0.41,2,1,47,No Smoking  No Pets,
19581813,Esteem's Place Deux,93722328166,verified,Esteem,Bronx,Parkchester,40.83791,-73.85845,United States,US,False,flexible,Private room,2014,$280 ,$56 ,1,14,6/13/2019,1.24,5,2,311,#NAME?,
19582365,Comfy Clinton Hill Master Suite,28708707782,unconfirmed,Candi,Brooklyn,Bedford-Stuyvesant,40.694179999999996,-73.96069,United States,US,True,strict,Private room,2022,"$1,002 ",$200 ,1,3,4/7/2019,0.36,2,3,0,"Please remember that this is a residential building. The building rules, apartment occupancy restrictions and the year-round tenants must be respected.  Parties and smoking are not allowed under any circumstances and incur significant fees. Pets may be considered with pre-approval and an additional pet fee.",
19582917,Magic at the Castle: private bedroom and bathroom,72322000376,verified,Ally,Bronx,Throgs Neck,40.816390000000006,-73.81954,United States,US,False,strict,Private room,2016,$669 ,$134 ,1,13,6/30/2019,1.09,5,1,35,,
19583470,Modern NYC Living in Soho/ Noho/West Village,7255652674,unconfirmed,Jeff,Manhattan,Greenwich Village,40.727,-73.99767,United States,US,False,strict,Private room,2014,$741 ,$148 ,3,30,6/6/2019,2.64,3,3,20,No kitchen access. No wifi - I do have a hot spot. No key given to you. No extra guest allowed.,
19584022,Chic Designer Lower East Side Studio,76820656536,verified,Daniella,Manhattan,Lower East Side,40.717690000000005,-73.99148000000001,United States,US,False,strict,Entire home/apt,2018,$708 ,$142 ,1,3,12/30/2018,0.26,3,1,0,"Please treat the interior of the unit, including all furniture with respect.   No smoking or pets allowed. Enjoy yourself but please keep noise to acceptable levels at night to avoid disturbing neighbors.  No parties please.",
19584574,Clean and modern space in Clinton Hills,17600608538,unconfirmed,Tyrone,Brooklyn,Bedford-Stuyvesant,40.6886,-73.95884000000001,United States,US,False,strict,Entire home/apt,2004,$523 ,$105 ,2,38,7/1/2019,3.28,2,2,102,No smoking. No pets. ,
19585126,The Best Place to stay in Manhattan,23529199784,unconfirmed,Ildiko,Manhattan,Upper West Side,40.79083,-73.97531,United States,US,True,strict,Entire home/apt,2021,$741 ,$148 ,3,3,5/6/2019,0.42,5,1,330,,
19585679,Williamsburg Modern Apt - same block as L/G train.,52099862898,verified,Bianca,Brooklyn,Williamsburg,40.713640000000005,-73.95125999999999,United States,US,True,moderate,Entire home/apt,2018,$758 ,$152 ,5,0,,,4,1,103,"Maintain cleanliness .  Please carry all the necessary items that is required for your stay , host cannot provide any of it . Also can accomodate females who are veg and eggatarians only",
19586231,Lucky Home 像纽约有个温馨的家 安静整洁 Sunshine lovely Comfort,38209854946,verified,Anna,Queens,Flushing,40.75607,-73.82212,United States,US,False,moderate,Private room,2008,"$1,001 ",$200 ,1,3,8/19/2018,0.28,5,2,0,,
19586783,Cozy Room Great Price in Bushwick Bklyn! (Suite 2),26744242856,unconfirmed,Oscar,Brooklyn,Bushwick,40.68796,-73.90781,United States,US,False,flexible,Private room,2021,$547 ,$109 ,4,47,7/2/2019,4.37,2,4,20,"We expect our guests to behave in a respectful manner and try to limit loud sounds and noises (such as music and/or shouting) in the evening. All animals must be well mannered and guests are expected alert us to any animals they may have with them, so that we can clean properly after departure.",
19587336,CESAR'S PALACE,21376292663,verified,Cesar,Bronx,Pelham Gardens,40.86153,-73.83655999999999,United States,US,False,flexible,Entire home/apt,2017,$566 ,$113 ,1,50,6/23/2019,4.19,3,1,349,"The three main lights of the apartment are on the right of the front entrance.  The far light is for the bed area, the middle one (the black tab you have to flick up and down) is for the main area, and the near switch is for the light right over you as you step in.  The light in the bathroom is by the storage unit.  The light in the kitchen is to your left right as you walk into it.",
19587888,Sunny well-located room near Times Sq. 41D2,62769701861,verified,John,Manhattan,Chelsea,40.75369,-73.99719,United States,US,False,strict,Private room,2006,$55 ,$11 ,7,11,6/22/2019,0.99,3,47,358,"No pets, no children, no smoking (landlord's rules, not ours - sorry!).  Also, it is a pretty quiet building and the owners feel strongly about keeping it this way, so please refrain from any loud music/shouting/partying. Finally, we are happy to take care of stripping/washing the sheets, but would appreciate it if you would clean up any dishes you use during your stay. Other than that, have fun!",
19588440,"LongTerm-25DaysMin
Chinatown,Soho,LittleItaly,LES",23569833871,unconfirmed,Ben,Manhattan,Chinatown,40.715090000000004,-73.99986,United States,US,True,flexible,Private room,2021,$758 ,$152 ,25,0,,,5,2,333,No smoking or pets allowed,
19588993,AIRY & BREEZY,69291808088,verified,Fifi,Manhattan,Harlem,40.81265,-73.95260999999999,United States,US,False,strict,Entire home/apt,2007,$364 ,$73 ,2,3,4/1/2019,0.31,5,2,0,,
19589545,Beautiful room in Bushwick right next to JMZ train,84309431887,verified,Zephyr,Brooklyn,Bushwick,40.69227,-73.92520999999999,United States,US,True,moderate,Private room,2006,$358 ,$72 ,5,3,9/19/2018,0.25,5,1,4,"Please remember that this is a residential building. The building rules, apartment occupancy restrictions and the year-round tenants must be respected.",
19590097,Cozy Studio near Hudson River & Central Park,33067426130,unconfirmed,Dara,Manhattan,Hell's Kitchen,40.7686,-73.98951,United States,US,False,strict,Entire home/apt,2009,$454 ,$91 ,4,7,3/24/2019,0.59,4,1,0,"No Smoking, No Pets",
19590649,"Great room in Bushwick, Brooklyn.",4885309456,verified,Tal,Brooklyn,Bushwick,40.69417,-73.92589,United States,US,False,moderate,Private room,2005,"$1,104 ",$221 ,5,6,5/1/2019,0.51,5,2,0,Please no smoking or pets in the loft! ,
19591202,Bright and spacious Bushwick apartment,6727721517,verified,Fernando,Brooklyn,Bushwick,40.706179999999996,-73.91689000000001,United States,US,False,strict,Entire home/apt,2003,"$1,173 ",$235 ,30,1,8/19/2018,0.09,3,1,6,,
19591754,Queens Center 25 min to Manhattan 5min to subway!,60583393132,verified,Richard,Queens,Elmhurst,40.73744,-73.87246999999999,United States,US,False,strict,Entire home/apt,2021,$154 ,$31 ,30,14,6/30/2019,1.15,5,1,242,,
19592306,Twin Cabin One,86135422884,unconfirmed,The Bowery House,Manhattan,Nolita,40.72242,-73.99463,United States,US,False,strict,Private room,2005,$952 ,$190 ,1,0,,,5,8,0,"-We simply ask you to feel like you are in your own home, and respect the condo and neighbors.   - A copy/scan of a photo ID or an AirBNB ID verification will be required to receive keys.  -No pets, no smoking and no party, no extra parties/guests in the Condo -that are not part of your reservation.   - Please note our check in time: 3:00 PM (or anytime later) and Check out time: 10:00 AM. If you absolutely must check-in during the morning, please message us first.  -Our condo is best for 2 people, but we can certainly accommodate a 3rd person without an extra-person fee!  Let us know first if you have 3 guests and we can bring a floor mattress.",
19592859,Great renovated apartment 1 block away from train,24081560831,verified,Jessica,Manhattan,Washington Heights,40.85116,-73.93457,United States,US,False,moderate,Entire home/apt,2014,$348 ,$70 ,3,7,6/26/2019,0.64,3,1,6,,
19593411,"Airy, sun-drenched brownstone apt w/ private deck",85951421547,verified,Tiffany,Brooklyn,Fort Greene,40.6896,-73.97238,United States,US,False,strict,Private room,2007,$771 ,$154 ,14,0,,,2,1,0,"Thank you for your reservation. By placing your reservation online you indicated that you accepted the terms and conditions which have been printed below.  Please review your reservation summary as below - then print, sign and return the agreement to:  (EMAIL HIDDEN) or fax it to (PHONE NUMBER HIDDEN) or  mail it to: Spare Suite, Inc., 119 Braintree Street, Suite 510, Boston, MA 02134, USA Upon receipt, we will send you the welcome document with check in instructions and how to get your keys. ------------------------------------------------------------------------ ------------------------------------------------------------------------ Terms of the Agreement: BOOKING AND REFUND POLICY Once booked your reservation is guaranteed for the check in and check out times and dates specified. All reservations must be paid in advance, in full for the entire period of stay.  All reservations are final, and NON REFUNDABLE UNDER ANY CIRCUMSTANCES.  If you feel you may need to cancel once booked, yo",
19593963,3 Level Loft♦♦♦Private Terrace W/views ♦♦♦Flatiron,58046129709,verified,Eric,Manhattan,Midtown,40.74493,-73.9824,United States,US,False,flexible,Entire home/apt,2018,$319 ,$64 ,5,39,6/30/2019,3.24,4,1,114,Please be respectful of our neighbors and no additional guests or parties. No Smoking. No Pets.,
19594516,Beautiful Convenient Bushwick Oasis w/Trampoline,24258770573,verified,Alex,Brooklyn,Bushwick,40.692859999999996,-73.92675,United States,US,True,flexible,Private room,2017,$526 ,$105 ,1,22,7/1/2019,9.17,5,1,70,"Unfortunately no pets are allowed in the building. Smoking is prohibited on the premises. Trash is put out only on the designated day in the back of the building. No parties with kegs, djs or live music.",
19595068,Secured Apartment Queens NY - 15 mins from JFK.,39814661159,verified,Mary,Queens,Jamaica,40.69066,-73.78759000000001,United States,US,True,strict,Private room,2009,$105 ,$21 ,5,8,12/8/2018,0.68,4,1,314,"Please Note: This unit was just renovated in November 2015 and it comfortably accommodates 4 guests, but up to 6 guests are permitted if you so desire (two guests in each bedroom and 2 guests on the available queen size air mattress). Please request an air mattress (if needed) when making a reservation. No smoking, no pets, no parties, and must be 25 to book.  For check-out, please ensure: -  All plates and cups are left in the sink or dishwasher -  All trash is left in the kitchen trash can or bagged and left next to the trash can (additional bags are under the sink) -  All windows are closed and locked -  If used, the air mattresses are deflated and put away (please leave used linens for the air mattresses on the floor) -  If furniture was moved during your stay, please return to its original location Please be mindful to our neighbors in the building, quiet hours after 9pm and no music or loud gatherings on the private patio. Please be considerate of our next guests who will be stay",
19595620,Williamsburg sunny bedroom,93636119304,verified,Arnaud,Brooklyn,Williamsburg,40.71674,-73.95825,United States,US,True,strict,Private room,2006,$947 ,$189 ,3,2,3/4/2019,0.19,5,1,0,No smoking No children under the age of 18 No animals No loud parties or people beyond those included in the reservation No late night check-ins,
19596172,"Prime Location Cozy, Posh,  Upper East Side Room1",45801856523,unconfirmed,Jack,Manhattan,Upper East Side,40.78369,-73.95154000000001,United States,US,False,strict,Private room,2013,"$1,147 ",$229 ,2,58,6/30/2019,4.96,4,3,354,,
19596725,"Prime Location Cozy, Posh,  Upper East Side Room 2",60949892073,unconfirmed,Jack,Manhattan,Upper East Side,40.78352,-73.95275,United States,US,False,strict,Private room,2017,$214 ,$43 ,2,57,7/1/2019,4.76,2,3,351,"Please respect the space, and leave the apartment the way that you found it. Please do not host any parties, and be respectful of my neighbors. No pets allowed. No smoking allowed. No additional guests.",
19597277,"Prime Location Cozy, Posh,  Upper East Side Room3",30486354116,unconfirmed,Jack,Manhattan,Upper East Side,40.78394,-73.95137,United States,US,False,flexible,Private room,2008,$652 ,$130 ,2,49,6/30/2019,4.06,2,3,358,,
19597829,Red Hook Loft,8688093119,unconfirmed,Molly,Brooklyn,Red Hook,40.67966,-74.00641,United States,US,True,moderate,Private room,2019,$401 ,$80 ,7,1,9/1/2018,0.1,3,1,45,No smoking. No pets.,
19598382,A Cozy Single bed for Female Girls,23851119325,unconfirmed,Fei,Brooklyn,East New York,40.6757,-73.87657,United States,US,False,strict,Shared room,2016,$870 ,$174 ,2,26,6/4/2019,2.25,4,1,50,"There are many coasters and please use them for your drinks.  There is one shelf in the kitchen cabinet that has food stuff that are personal and it will be marked as such.  Please no pets, smoking or parties.  There is a stand alone fireplace but it is decorative only. Please be respectful and keep noise to a minimum is the mornings and evenings to avoid disturbing neighbors.",
19598934,HouseOfGrace,23691539976,unconfirmed,Sien,Manhattan,East Village,40.72307,-73.98437,United States,US,False,strict,Private room,2014,$484 ,$97 ,1,12,5/4/2019,1.07,2,1,160,treat the property and other tenants with respect,
19599486,Spacious room in center of the city,62216658890,verified,Stella,Manhattan,Lower East Side,40.7216,-73.98791,United States,US,True,moderate,Private room,2015,$525 ,$105 ,2,26,6/24/2019,2.29,4,4,61,"Please remember that this is a residential building. The building rules, apartment occupancy restrictions and the year-round tenants must be respected.  Parties, pets and smoking are not allowed under any circumstances and incur significant fees.",
19600039,Lucky home 温馨如家,83051351158,unconfirmed,Anna,Queens,Flushing,40.75432,-73.82273,United States,US,False,strict,Private room,2011,$503 ,$101 ,1,1,8/15/2018,0.09,4,2,0,"House rules: Guests agree to the following terms and conditions 1.Guest(s) agree to NO PARTIES anywhere on the property. Legal action will be taken for parties that cause damages to the unit, property, reputation, or relationship with building staff or other residents.  2.Smoking of any kind is not permitted in the unit or on the premises.  3.Guests agree to abide by maximum occupancy of unit, and observe quiet hours between 9pm and 9am 4.Guests are responsible for action of ALL GUESTS occupying their unit at all times.  5.Guests agree to return all keys, remotes, and parking passes. Replacement fees may apply for unreturned items 6.Guests understand that onsite building staff (maintenance and concierge) are not affiliated with Jordan or AIRBNB. Please contact me directly for any needed items. 7.Guests understand that no pets are to be in the unit.  8.Guests agree to pay replacement cost for any unreturned items, and $125 per hour fee for unauthorized early checkin or late checkout.  18",
19600591,Very Sunny Apt on UWS,83339739802,unconfirmed,Yann,Manhattan,Morningside Heights,40.80494,-73.96426,United States,US,True,flexible,Entire home/apt,2013,"$1,053 ",$211 ,2,2,8/15/2018,0.18,3,1,0,"No smoking. No pets. No drugs. No parties. Quiet hours after 9pm.  Tenants' belongings are not covered under our insurance. We recommend that you obtain renter's insurance as we are not responsible for your belongings. We care for this apartment as if it were our own home.  This is a family neighborhood and a quiet/respectful one.  This home was built prior to 1978 and according to MA Lead Law notification, we have to inform our renters that there is a possibility of lead paint.  Kindly do not eat the walls.  Check-in Time: 3:00 PM  Checkout Time: 11:00 AM  To ensure your safe deposit returned on time, please follow your checkout duties: - Wash and put away dishes OR start the dishwasher! - Double bag the trash and we will take it out! - We will strip the sheets and wash the towels! Thank you so much!",
19601143,Large room near Times Square 31C4,79736127350,verified,John,Manhattan,Hell's Kitchen,40.75544,-73.99511,United States,US,True,flexible,Private room,2008,$798 ,$160 ,7,3,10/24/2018,0.29,3,47,348,"House Rules 1. Check-in is 4 pm local time. If the unit is ready earlier, we’ll let you know. Check-out is normally 11 am local time, but we’d be happy to extend it as long as we don’t have a cleaning scheduled. Just let us know.  2. All bookings require a security deposit of at least $300, which will be refunded within 7 days of your check-out. 3. For security measures we require all guests to provide proof of identification through ID verification on our own website. In order to check in we'll need a photo of your ID.  4. Our cancellation policy is as shown on our ad and defined by the site you are booking through.  5. Don’t let $300 go up in smoke. There's no smoking allowed in any Flatbook and a $300 fine for breaking this rule.  6. Unfortunately we don’t allow pets in any of our apartments. 7. Unless you’re staying in one of our specialty apartments, we don’t allow parties or excessive noise. 8. If we find the place very messy, we have to charge an extra $40 for every extra hour o",
19601695,Large cozy room in the center of NYC 21B2,63768096718,verified,John,Manhattan,Hell's Kitchen,40.75492,-73.99563,United States,US,True,strict,Private room,2004,"$1,105 ",$221 ,7,7,5/25/2019,0.66,3,47,329,,
19602248,perfectly located right next to Main st Flushing,61539046528,verified,Tony,Queens,Flushing,40.756370000000004,-73.83208,United States,US,False,strict,Entire home/apt,2016,$718 ,$144 ,2,22,6/9/2019,1.83,5,7,58,No Smoking,
19602800,Sunny Private Bedroom Near Manhattan,85156573784,unconfirmed,Carolina,Queens,Sunnyside,40.74122,-73.92223,United States,US,False,flexible,Private room,2008,"$1,182 ",$236 ,1,11,6/23/2019,0.93,2,1,346,The apartment is in a brownstone shared with five other tenants.  Guests are expected to be respectful of the property and treat it like their own.  Small Pets are allowed but need to be approved.  No parties or loud late night noise. 420 Friendly.,
19603352,Garden level Brooklyn apartment,24227049419,unconfirmed,Alex,Brooklyn,Boerum Hill,40.685629999999996,-73.98796,United States,US,False,strict,Entire home/apt,2021,"$1,003 ",$201 ,4,2,12/20/2018,0.19,2,1,0,,
19603905,Large eclectic plant filled home w private rooftop,21348249963,verified,Lena,Queens,Ridgewood,40.69212,-73.90188,United States,US,False,strict,Entire home/apt,2022,$928 ,$186 ,7,0,,,4,1,10,- Please keep volume to a minimum past 11pm - No smoking -No parties or unexpected guests,
19604457,Bedroom minutes to Manhattan - steps to train,42258046994,unconfirmed,Sue,Brooklyn,Williamsburg,40.71215,-73.94082,United States,US,True,flexible,Private room,2017,$240 ,$48 ,2,70,6/20/2019,5.79,4,2,30,"Please treat this apartment as you would your own home. Additionally, there are other tenants in the building, so please be respectful and keep the noise level low. While the apartment does have a fish, please no additional pets. This building is also a smoke free building",
19605009,A real East Village experience on St Marks Place!,80043644024,verified,Laura,Manhattan,East Village,40.7277,-73.98362,United States,US,False,moderate,Entire home/apt,2019,"$1,124 ",$225 ,1,38,6/23/2019,3.27,3,2,101,Quiet time after midnight. Please turn off the light/AC each time when you go out. :) No Staying overnight  in the living room/couch. Glasses/liquor in the living room cabinets are not available.  Please don't leave dirty dishes.  Please tidy the kitchen when you finished cooking and leave dishes in dry in the dishwasher. Feel free to use the dishwasher. Detergent is under the sink. Thank you!,
19605562,Cozy & Gorgeous Girls room Near Train / Manhattan,41805314256,verified,Kazuya,Queens,Woodside,40.74465,-73.90795,United States,US,False,strict,Private room,2009,"$1,079 ",$216 ,30,0,,,5,103,0,Please be respectful of the space and building! No loud noises or extra guests beyond 10pm.,
19606114,Beautiful Bedstuy Brooklyn Bedroom,87772209157,verified,Stacy,Brooklyn,Bedford-Stuyvesant,40.68208,-73.92116,United States,US,True,moderate,Private room,2022,"$1,125 ",$225 ,2,4,8/27/2018,0.35,4,1,0,,
19606666,Sunny 1.5 Bed Bushwick Brooklyn Railroad,98712791246,verified,Elizabeth,Brooklyn,Bushwick,40.702040000000004,-73.91684000000001,United States,US,False,strict,Entire home/apt,2006,$493 ,$99 ,2,10,4/28/2019,0.97,2,1,15,"Please remember that this is a residential building. The building rules, apartment occupancy restrictions and the year-round tenants must be respected.",
19607218,Harlem Bliss,93599181636,verified,Irma,Manhattan,East Harlem,40.8018,-73.9413,United States,US,False,strict,Entire home/apt,2022,$652 ,$130 ,2,25,6/11/2019,2.06,4,1,6,"- Please treat this home as your own and respect the neighbors. No parties, smoking, or additional guests (other than the agreed upon).",
19607771,Cozy Sunnyside Couples Bedroom w/ Great Location,19332435430,verified,Kazuya,Queens,Sunnyside,40.7351,-73.92039,United States,US,True,flexible,Private room,2003,"$1,083 ",$217 ,30,1,3/1/2019,0.23,2,103,0,No smoking. No parties. Please be considerate of your neighbors and consolidate all trash during your stay to the trash cans at the back entrance of the building. Thank you.,
19608323,"Large, Eco-Friendly, Vintage Apt near Bushwick",44634716108,unconfirmed,Emily,Queens,Ridgewood,40.70527,-73.90083,United States,US,False,moderate,Private room,2008,$454 ,$91 ,2,22,2/1/2019,1.92,2,1,16,NO Smoking.  No Pets.,
19608875,Ionic Room close to NYC,8602841370,unconfirmed,Iris,Brooklyn,Bedford-Stuyvesant,40.687459999999994,-73.95379,United States,US,False,strict,Private room,2012,$714 ,$143 ,30,30,5/31/2019,2.71,3,2,361,"NO smoking, no pets, all guests must be disclosed. ",
19609428,Small 3rd story Room off BRKLYN-QUEENS Expressway,88355263155,unconfirmed,James,Brooklyn,Greenpoint,40.724140000000006,-73.93966999999999,United States,US,False,moderate,Private room,2010,$638 ,$128 ,1,4,10/29/2018,0.34,4,1,0,,
19609980,"Prospect Heights / Brooklyn Botanical Garden $ Prospect Park West
#kuetheresidence",89803695222,verified,Katia,Brooklyn,Prospect Heights,40.67367,-73.96507,United States,US,True,flexible,Entire home/apt,2019,$78 ,$16 ,3,13,6/18/2019,1.09,2,1,9,"Inn Boston Reservations requests that noise levels remain moderate to low, and that all guests take into consideration those in the surrounding suites. Depending on the scale of the broken rules, guests may be contacted to request a lower noise level or asked to leave. In the event that the guests are required to vacate the unit, no refund will be provided.",
19610532,SUPER COZY LUXURY APT WALL ST. WITH GYM/ROOFTOP,64636774933,unconfirmed,Ezgin,Manhattan,Financial District,40.70496,-74.00639,United States,US,True,moderate,Entire home/apt,2006,$156 ,$31 ,5,36,6/13/2019,3.06,4,1,136,"This is our home (our primary residence), we just ask that you treat it like your home and respect but enjoy our belongings. We also ask that you be respectful of our neighbors.  The apartment is well sound-proofed and quiet but please be mindful in the hallways.",
19611085,Light Filled Upper East Side Studio,27142057081,verified,Erica,Manhattan,Upper East Side,40.77668,-73.94587,United States,US,False,strict,Entire home/apt,2017,$69 ,$14 ,30,9,6/16/2019,0.82,3,1,4,No Smoking.  No Pets.,
19611637,Modern Bedroom in Townhouse. Close to subway.,40173134714,verified,Carles,Brooklyn,Bushwick,40.68764,-73.91445,United States,US,False,moderate,Private room,2011,$124 ,$25 ,1,57,6/24/2019,4.76,3,1,48,Please be respectful of other building residents - keeping evening noise to a minimum.,
19612189,Beautiful cozy 3 bedrooms steps from Industry City,92430028554,unconfirmed,Lou,Brooklyn,Sunset Park,40.66214,-73.99511,United States,US,True,strict,Entire home/apt,2012,$689 ,$138 ,1,34,6/20/2019,3.07,3,5,133,,
19612741,Upscale Spacious Condo in the Heart of Brooklyn,91688172922,unconfirmed,Dejuan,Brooklyn,Bedford-Stuyvesant,40.68291,-73.91975,United States,US,True,moderate,Entire home/apt,2014,$428 ,$86 ,2,8,10/15/2018,0.68,4,1,84,"Just enjoy your stay! And while no smoking is allowed in the building, the stoop has ample seating and is recessed away enough from the street to provide space for a private burn.  Towels will be provided for showering, and all utensils in the kitchen are at your disposal.  If you have specific questions about activities close by, please send me a message and I'll try to provide as best an answer as possible.",
19613294,Camp Rockaway,211781143,verified,Kent,Queens,Breezy Point,40.56605,-73.86994,United States,US,False,moderate,Private room,2016,$232 ,$46 ,1,4,6/15/2019,0.35,3,2,160,NO Smoking,
19613846,A+ Location - Cozy Brooklyn Room with Great Access,64359612973,verified,Jeremy,Brooklyn,Gowanus,40.67779,-73.98342,United States,US,True,strict,Private room,2003,$621 ,$124 ,2,37,6/20/2019,3.27,3,1,54,"No smoking Pets may be allowed (inquire for further information) This is not a rental unit, it is our home that we live in with our daughter on a full-time basis.  Please take care of it!",
19614398,Beautiful brand new apartment !,58447752464,verified,Lou,Brooklyn,Sunset Park,40.66362,-73.99616,United States,US,True,strict,Entire home/apt,2010,$129 ,$26 ,1,1,11/4/2018,0.12,3,5,174,"Please remember that this is a residential building. The building rules, apartment occupancy restrictions and the year-round tenants must be respected.",
19614951,2 BR - Manhattan Upper West Side - Bright & Quiet,11801878146,verified,Margaux,Manhattan,Upper West Side,40.79782,-73.97179,United States,US,False,moderate,Entire home/apt,2021,$201 ,$40 ,2,1,1/1/2019,0.16,2,1,3,"We prefer to limit the apartment to 4 people. It's our home, and we take good care of it -- so we hope you will, too.  No smoking, no pets, no parties. All dinner ware/cooking supplied should be left in the dishwasher and all trash should be left in the trash can (additional bags are in the drawer above the trash if you need them).",
19615503,Sunny house,71250691106,unconfirmed,Cheolwoo,Queens,Elmhurst,40.74579,-73.88904000000001,United States,US,False,flexible,Entire home/apt,2021,$476 ,$95 ,3,16,7/7/2019,1.42,5,1,40,,
19616055,Dream House Midtown,3592210369,unconfirmed,Mary,Manhattan,Hell's Kitchen,40.76484,-73.98969,United States,US,False,moderate,Entire home/apt,2014,"$1,157 ",$231 ,4,0,,,2,1,0,"No smoking! If I smell smoke or if there is other evidence of smoking, you will forfeit your entire security deposit.   The fireplace is (URL HIDDEN) do not use it as it will cause significant damage. If you do, you will forfeit your entire security deposit. I would consider VERY well behaved pets. A pet would lead to $75 being added to the cleaning fee. You are responsible for any damage caused by your pet. If a pet stays here without pre-approval, you will forfeit your entire deposit. Check in and check out time can be flexible depending upon the dates you are looking for and whether anyone else is staying. Unless we arrange otherwise, check in and check out is at noon. The cleaning fee covers two hours. If additional cleaning is required, you will be charged $50/hour, deducted from your deposit. Out of respect for my neighbors, I must insist upon no parties being held at my place. If my neighbor complains about a party happening, or if there is a big mess left at the place, you will",
19616608,Artistic + Chic Flat in East Village w/ Backyard,97749324466,verified,Galina,Manhattan,East Village,40.72382,-73.97683,United States,US,False,moderate,Private room,2007,$577 ,$115 ,2,7,5/15/2019,0.79,2,1,89,No pets. No smoking please.,
19617160,Beautiful Apartment In Nolita for 4 Guests,64425344527,unconfirmed,Richard,Manhattan,Chinatown,40.71765,-73.99457,United States,US,False,strict,Entire home/apt,2018,"$1,147 ",$229 ,30,3,5/29/2019,0.3,2,11,113,This is a quiet condo association building from 10 p.m. to 6 a.m.  Please be quiet in the stairwell and remove shoes during the hours of 10 p.m. and 6 a.m.,
19617712,1BR private apartment,88083489245,unconfirmed,Marina,Brooklyn,Gravesend,40.59166,-73.96672,United States,US,False,moderate,Entire home/apt,2008,"$1,037 ",$207 ,2,26,6/23/2019,2.22,5,1,323,,
19618264,* Lovely Washington Heights Room *,81245282128,unconfirmed,Aida,Manhattan,Washington Heights,40.83298,-73.93938,United States,US,True,moderate,Private room,2010,$750 ,$150 ,7,2,8/28/2018,0.18,4,1,0,,
19618817,Modern Brooklyn Loft in Full-Service Elev Bldg,29040776571,verified,Stacie,Brooklyn,Prospect Heights,40.682190000000006,-73.97259,United States,US,False,strict,Entire home/apt,2013,$453 ,$91 ,3,6,7/1/2019,0.52,3,1,0,NO Smoking.,
19619369,"Cozy Room: 7 Minutes to LGA, 20 min to Manhattan !",82171628835,unconfirmed,Freddy,Queens,Jackson Heights,40.75782,-73.85973,United States,US,True,flexible,Private room,2003,$208 ,$42 ,1,55,7/2/2019,4.98,3,3,136,"No smoking in the apartment, in the common hallway or outside the building. Respectful of our neighbors - no loud music.",
19619921,studio apartment,74652392262,verified,Sven,Brooklyn,Gowanus,40.66873,-73.99263,United States,US,False,moderate,Entire home/apt,2012,$166 ,$33 ,9,0,,,2,1,0,,
19620474,"Cathedral ceiling, very large Chelsea apartment",4978134514,unconfirmed,Tugrul,Manhattan,Chelsea,40.7433,-74.00119000000001,United States,US,False,moderate,Entire home/apt,2016,$282 ,$56 ,5,0,,,4,1,46,No pets. No smoking. Please :),
19621026,"Prime Location 67 St & 3 Ave, walk to Central Park",66928538825,unconfirmed,Irina,Manhattan,Upper East Side,40.76663,-73.96171,United States,US,True,strict,Entire home/apt,2006,"$1,052 ",$210 ,4,4,4/2/2019,0.35,3,1,2,,
19621578,An artist retreat in the heart of Bushwick,40759055602,verified,Daniel,Brooklyn,Bushwick,40.69826,-73.91944000000001,United States,US,True,moderate,Entire home/apt,2007,$542 ,$108 ,2,40,3/25/2019,3.32,3,1,0,"Please remember that this is a residential building. The building rules, apartment occupancy restrictions and the year-round tenants must be respected.  Parties, pets and smoking are not allowed under any circumstances and incur significant fees.",
19622131,1 Bedroom 2R in Authentic Brooklyn Brownstone,93079898568,verified,Vincent,Brooklyn,Bedford-Stuyvesant,40.690740000000005,-73.93858,United States,US,True,flexible,Private room,2018,$890 ,$178 ,1,20,6/3/2019,1.9,4,6,285,"No guests unless specified, no parties, no loud disturbances, tranquil relaxation!",
19622683,Harlem Gem,11298538251,verified,Danielle,Manhattan,Harlem,40.80705,-73.95581999999999,United States,US,True,moderate,Private room,2015,$977 ,$195 ,2,42,6/26/2019,4.92,4,1,13,No Pets allowed No smoking,
19623235,"Private apartment, complimentary parking included.",20704485233,unconfirmed,Kyle,Queens,Flushing,40.75396,-73.83361,United States,US,False,strict,Entire home/apt,2008,$472 ,$94 ,1,40,6/23/2019,3.46,2,1,15,No Smoking  No Pets,
19623787,Private Room,75528909856,verified,George,Brooklyn,Williamsburg,40.7073,-73.92775999999999,United States,US,True,flexible,Private room,2017,$86 ,$17 ,1,8,10/11/2018,0.73,2,1,1,,
19624340,"New York private room in Park slope, City views",57363602834,unconfirmed,Sandee,Brooklyn,Gowanus,40.67118,-73.99061,United States,US,True,flexible,Private room,2014,$344 ,$69 ,4,14,5/27/2019,1.16,2,1,0,"-Minimum two night stay. -Up to two guests max. -No pets please -No smoking/drugs. -No parties and be respectful of neighbors. -I'm LGBT friendly and expect that you are too. -Apartment is on the 4th floor and there unfortunately is no elevator, so those with mobility issues should take this into consideration.",
19624892,Best spot in town: Bunk in Brooklyn,81866518385,verified,Anchor,Brooklyn,Bedford-Stuyvesant,40.69103,-73.93933,United States,US,True,moderate,Shared room,2015,$253 ,$51 ,1,33,6/2/2019,2.78,4,17,85,Treat everything as if it was yours! Enjoy yourself.,
19625444,Super cool shared apartment,4929009500,unconfirmed,Anchor,Brooklyn,Bedford-Stuyvesant,40.69099,-73.94094,United States,US,False,moderate,Shared room,2008,$326 ,$65 ,2,32,6/23/2019,2.66,2,17,85,,
19625997,Great Sunny Brooklyn Room minutes from the City!,13084695232,unconfirmed,Jessica,Brooklyn,Carroll Gardens,40.678340000000006,-73.99761,United States,US,False,flexible,Private room,2017,$982 ,$196 ,2,21,7/5/2019,2.1,4,2,73,"Please remember that this is a residential building. The building rules, apartment occupancy restrictions and the year-round tenants must be respected.",
19626549,2 BEDS Y- SUNNY ROOM NEAR TRAIN TO MANHATTAN,10820766270,verified,William And Julian,Brooklyn,Bedford-Stuyvesant,40.68574,-73.95492,United States,US,False,strict,Private room,2021,$242 ,$48 ,2,28,6/23/2019,2.3,4,1,334,"This apartment is located in a beautiful brownstone in Boston's Back Bay. Quiet hours are between 10pm and 8am. Garbage is collected by the city twice a week, (details of collection days and times are provided in the unit). Maximum occupancy for this unit is 3 persons. No personal items may be left in common hallways. 100% smoke free and no pets allowed.",
19627101,Private 1 Bd Guest House. Great for Quiet Getaway,49590122593,unconfirmed,Eddie,Queens,Rego Park,40.71734,-73.86,United States,US,True,flexible,Entire home/apt,2006,"$1,173 ",$235 ,2,12,3/25/2019,1.02,2,4,332,,
19627654,Bright room in beautiful Park Slope apartment,40158675913,unconfirmed,Tiffany,Brooklyn,Sunset Park,40.65828,-73.98983,United States,US,True,moderate,Private room,2008,"$1,145 ",$229 ,2,7,11/4/2018,0.58,5,1,0,"House rules: Guests agree to the following terms and conditions 1.Guest(s) agree to NO PARTIES anywhere on the property. Legal action will be taken for parties that cause damages to the unit, property, reputation, or relationship with building staff or other residents.  2.Smoking of any kind is not permitted in the unit or on the premises.  3.Guests agree to abide by maximum occupancy of unit, and observe quiet hours between 9pm and 9am 4.Guests are responsible for action of ALL GUESTS occupying their unit at all times.  5.Guests agree to return all keys, remotes, and parking passes. Replacement fees may apply for unreturned items 6.Guests understand that onsite building staff (maintenance and concierge) are not affiliated with Jordan or AIRBNB. Please contact me directly for any needed items. 7.Guests understand that no pets are to be in the unit.  8.Guests agree to pay replacement cost for any unreturned items, and $125 per hour fee for unauthorized early checkin or late checkout.  18",
19628206,Brand New Brooklyn Style Hostel RM3 #1,66439879539,verified,Melissa,Brooklyn,Bedford-Stuyvesant,40.694140000000004,-73.9556,United States,US,False,moderate,Shared room,2011,$284 ,$57 ,3,10,6/15/2019,0.93,3,34,332,No Smoking Indoors,
19628758,Cozy Studio Apartment in Great Location!!!,66762885829,unconfirmed,Diana,Manhattan,Gramercy,40.737140000000004,-73.97962,United States,US,False,moderate,Entire home/apt,2017,"$1,188 ",$238 ,1,11,6/6/2019,1.51,2,5,312,,
19629310,Brand New Brooklyn Style Hostel RM3 #2,77173765103,unconfirmed,Melissa,Brooklyn,Bedford-Stuyvesant,40.69385,-73.95696,United States,US,False,moderate,Shared room,2013,$658 ,$132 ,1,18,5/1/2019,1.53,4,34,365,"No smoking, No pets. Of course I want you to have a great time, but please no partying at the apartment. Guest must be cortious to other building tenants. The home is for you to have a comfortable place to relax, sleep, and use the amenities.",
19629863,SUNNY ROOM C - GREAT LOCATION RIGHT NEXT TO METRO,44363220548,verified,Nadine,Brooklyn,Bedford-Stuyvesant,40.69373,-73.95040999999999,United States,US,False,flexible,Private room,2016,$950 ,$190 ,30,35,6/17/2019,3.04,2,3,348,,
19630415,Josh & Charlotte's Place,14989252587,verified,Josh,Brooklyn,Bedford-Stuyvesant,40.69361,-73.93441,United States,US,True,flexible,Private room,2008,$414 ,$83 ,2,44,7/7/2019,4.43,2,1,73,,
19630967,Super Convenient Park Slope Room,55975709859,unconfirmed,Andrew,Brooklyn,Gowanus,40.670770000000005,-73.98969,United States,US,True,strict,Private room,2006,$623 ,$125 ,2,53,7/3/2019,5.26,3,2,13,Our community is very quiet!! No parties please. That is what Newbury and Boylston Street are for. LOL,
19631520,Luxury Historic Brooklyn Apt in Bed Stuy - Legal,26083590395,verified,Christof,Brooklyn,Bedford-Stuyvesant,40.680690000000006,-73.91045,United States,US,False,flexible,Entire home/apt,2017,$258 ,$52 ,1,27,6/30/2019,5.66,4,2,62,"Clean, respectful, no parties :)",
19632072,"Cozy clean bright room Bushwick, blocks from train",19426223276,unconfirmed,HyeSuk & Alex,Brooklyn,Bedford-Stuyvesant,40.69444,-73.93247,United States,US,True,strict,Private room,2005,$435 ,$87 ,20,9,6/9/2019,0.78,2,4,154,,
19632624,"Upper East 1 Bedroom Apartment, Near Central Park!",51884451798,verified,Diana,Manhattan,Upper East Side,40.773590000000006,-73.94865,United States,US,False,flexible,Entire home/apt,2018,"$1,119 ",$224 ,1,1,3/13/2019,0.25,4,5,365,,
19633177,Brand New Brooklyn Style Hostel RM3 #4,31902144854,unconfirmed,Melissa,Brooklyn,Bedford-Stuyvesant,40.69396,-73.95578,United States,US,True,strict,Shared room,2012,$94 ,$19 ,1,16,7/6/2019,1.34,5,34,346,"Of course I want you to have a great time, but please no partying at the apartment. Guests must be respectful of other building tenants. The home is meant for you to have a comfortable place to relax, sleep, use the amenities, and just have a great central location to come home to.",
19633729,Brand New Brooklyn Style Hostel RM3 #3,13280893911,unconfirmed,Melissa,Brooklyn,Bedford-Stuyvesant,40.694390000000006,-73.95518,United States,US,False,moderate,Shared room,2022,$92 ,$18 ,3,14,5/6/2019,1.24,2,34,361,No Pets allowed.   No smoking.,
19634281,"Private, Modern, Garden Apt - Historic Ditmas Park",75740584827,unconfirmed,Hilary,Brooklyn,Flatbush,40.6417,-73.96554,United States,US,False,flexible,Entire home/apt,2020,$697 ,$139 ,4,18,6/18/2019,1.57,4,1,52,"Please keep our place as it is your own - nice and clean. Before you leave turn off lights, AC. Shut the windows.   Please do not use any oils or rich body lotions on our bedsheets. From our previous experiences If we find the stains you will be charged for the items: Full set 50$, flat sheet 15$, pillow case 10$, fitted sheet 15$, towel 10$ Please do not wipe your make up with a towel.  Please do not throw anything inside of toilet: paper towels, hair, oils, food.  Anything accept toilet paper.  Any damaged furniture or fabric should be replaced or paid with original price. Please do not wear high hills in the apartment, the floor is just re-done. Absolutely non-smoking building inside and out, common areas. 1000$ fee will be demanded if a guest smokes in the building.",
19634833,BRAND NEW LUXE 2BR/2 BA APARTMENT IN BUSHWICK,11239578482,unconfirmed,Tabea,Brooklyn,Bushwick,40.69701,-73.93002,United States,US,False,strict,Entire home/apt,2018,$521 ,$104 ,12,1,1/6/2019,0.16,4,2,0,"Fresh linens and towels are provided. No smoking. No pets. If cannot check out by 11:00 am, let us know. Please be respectful of our neighbors and keep the noise level down. Please clean and keep the place neat. We will take care of trash and linens when we return.",
19635386,"Modern, Cozy Apt Share for Young Professionals",81989345546,verified,Ollie,Brooklyn,Bedford-Stuyvesant,40.685790000000004,-73.95038000000001,United States,US,False,flexible,Private room,2017,"$1,108 ",$222 ,30,1,3/19/2019,0.27,2,8,217,"LOOKING FOR SOMEONE CLEAN/RESPONSIBLE. NO PETS, NO SMOKERS.",
19635938,Freehand New York- Bunk Room,2077061668,unconfirmed,Freehand,Manhattan,Flatiron District,40.74107,-73.98693,United States,US,False,strict,Private room,2005,$128 ,$26 ,1,35,5/26/2019,3.11,3,3,331,"Please remember that this is a residential building. The building rules, apartment occupancy restrictions and the year-round tenants must be respected.  Parties, pets and smoking are not allowed under any circumstances and incur significant fees.",
19636490,Private Room,1458627602,unconfirmed,Momo,Bronx,Allerton,40.86659,-73.866,United States,US,True,flexible,Private room,2009,$85 ,$17 ,2,0,,,3,1,0,"Please remember that this is a residential building. The building rules, apartment occupancy restrictions and the year-round tenants must be respected.  Parties and smoking are not allowed under any circumstances and incur significant fees. Pets may be considered with pre-approval and an additional pet fee.",
19637043,"Gorgeous studio ""Hamptons style"" in West Village",41561419229,verified,Lauren,Manhattan,West Village,40.73611,-74.00922,United States,US,True,strict,Entire home/apt,2015,$661 ,$132 ,3,26,6/23/2019,2.14,4,1,67,It is a professional building we ask there be no parties or loud noise,
19637595,Huge 1 Bedroom 2F in Authentic Brooklyn Brownstone,61924897765,unconfirmed,Vincent,Brooklyn,Bedford-Stuyvesant,40.69271,-73.93943,United States,US,True,flexible,Private room,2015,$587 ,$117 ,2,32,6/3/2019,2.72,3,6,251,"Fresh linens and towels are provided. No smoking, no pets, and no small children allowed. Please be respectful of our neighbors and keep the noise level to a minimum. Please clean and keep the place neat. No more than 2 guests allowed and please do not bring visitors without first getting our permission. No parties. You are otherwise welcome to make yourselves at home.",
19638147,Charming and Cozy Private Clinton Hills Studio,12766834408,unconfirmed,Andrea,Brooklyn,Clinton Hill,40.68305,-73.96316,United States,US,True,moderate,Entire home/apt,2006,$227 ,$45 ,14,2,12/31/2018,0.19,3,1,0,"Absolutely no smoking!  It is a ground level apartment with a private entrance, there is absolutely no excuse not to walk outside.",
19638700,Red Hook studio space with private entrance,97155025888,unconfirmed,Roberto,Brooklyn,Red Hook,40.675,-74.01127,United States,US,False,strict,Entire home/apt,2013,$603 ,$121 ,4,32,6/24/2019,2.75,5,1,107,,
19639252,Near LGA and JFK Airports Large Cozy Room,7377259313,unconfirmed,Jimmy,Queens,East Elmhurst,40.760709999999996,-73.88405999999999,United States,US,False,strict,Private room,2011,$156 ,$31 ,1,104,7/4/2019,8.64,3,4,351,"- Check-in is after 12PM (noon) - No smoking! If I smell smoke or if there is other evidence of smoking, you will forfeit your entire security deposit. - The fireplace is (URL HIDDEN) do not use it as it will cause significant damage. If you do, you will forfeit your entire security deposit. - Check in and check out time can be flexible depending upon the dates you are looking for and whether anyone else is staying. Unless we arrange otherwise, check in and check out is at noon. - The cleaning fee covers two hours. If additional cleaning is required, you will be charged $50/hour, deducted from your deposit. - Out of respect for my neighbors, I must insist upon no parties being held at my place. If my neighbor complains about a party happening, or if there is a big mess left at the place, you will forfeit your entire deposit. - You agree to follow all of the rules of the building, including trash and roof deck rules. Any issues with not following the building rules and you forfeit your ",
19639804,Sun-Filled Artist Loft in Private Townhouse,25021513173,verified,Cyril,Manhattan,West Village,40.73865,-74.00662,United States,US,True,moderate,Entire home/apt,2004,$214 ,$43 ,2,15,6/5/2019,1.48,2,1,179,No parties or pets.  Please be courteous and keep the space clean.,
19640356,"Cabin Feels
Sunset Views
By Greenwood cemetery 
<3",60086119758,verified,Michal,Brooklyn,Borough Park,40.64282,-73.98779,United States,US,False,strict,Entire home/apt,2006,$383 ,$77 ,2,2,1/2/2019,0.19,2,1,0,,
19640909,Sunny Pre-War Carroll Gardens Apartment,8113205670,unconfirmed,Jessica,Brooklyn,Carroll Gardens,40.67995,-73.99665,United States,US,True,strict,Entire home/apt,2008,$228 ,$46 ,2,7,5/11/2019,0.59,3,2,19,,
19641461,Bright Bedroom Steps to train Minutes to Manhattan,2470532769,verified,Sue,Brooklyn,Williamsburg,40.7132,-73.94164,United States,US,True,flexible,Private room,2011,$157 ,$31 ,2,75,6/21/2019,6.2,3,2,15,,
19642013,KID-friendly 2BR apartment - heart of Williamsburg,20155471287,verified,Juan,Brooklyn,Williamsburg,40.70945,-73.95843,United States,US,False,moderate,Entire home/apt,2008,$327 ,$65 ,30,32,4/21/2019,3.06,3,1,60,,
19642566,Ju Ju Shala in Williamsburg,22016790042,verified,Pablo,Brooklyn,Williamsburg,40.707609999999995,-73.95336999999999,United States,US,True,moderate,Private room,2004,$213 ,$43 ,2,8,6/26/2019,0.68,2,1,86,,
19643118,Lovely Private Room in Heart of Prospect Heights!,23697178853,unconfirmed,Rachel,Brooklyn,Prospect Heights,40.677620000000005,-73.96539,United States,US,True,moderate,Private room,2022,$92 ,$18 ,2,4,9/1/2018,0.37,2,1,0,"Please remember that this is a residential building. The building rules, apartment occupancy restrictions and the year-round tenants must be respected.  Parties, pets and smoking are not allowed under any circumstances and incur significant fees.",
19643670,Manhattan view from Queens- 15 min from NYC & BK,54382405741,unconfirmed,Mary,Queens,Sunnyside,40.73758,-73.92820999999999,United States,US,False,strict,Shared room,2008,$75 ,$15 ,2,1,7/22/2018,0.09,3,1,0,,
19644223,This is a beautiful condo with a lot of mirror,16656035553,verified,Vincent,Manhattan,Harlem,40.80045,-73.95166,United States,US,True,flexible,Private room,2021,$364 ,$73 ,1,13,6/30/2019,1.13,2,2,351,,
19644775,Bon Séjour,63729441708,verified,Paul,Manhattan,Financial District,40.70413,-74.0134,United States,US,True,strict,Private room,2010,"$1,069 ",$214 ,1,0,,,5,1,365,,
19645327,Cozy apartment in Astoria / Long Island City,52130158191,verified,Sadat,Queens,Astoria,40.76538,-73.92726,United States,US,True,moderate,Entire home/apt,2022,"$1,003 ",$201 ,2,46,6/21/2019,3.84,5,2,121,No Smoking  No Pets,
19645879,Trendy Nabe Bunk for travelers,7689487530,unconfirmed,Anchor,Brooklyn,Bedford-Stuyvesant,40.69124,-73.93911,United States,US,False,flexible,Shared room,2013,$119 ,$24 ,1,35,6/20/2019,2.92,2,17,78,Enjoy and be respectful,
19646432,Spacious studio by the ocean,4320522897,verified,Polina,Brooklyn,Brighton Beach,40.57951,-73.95663,United States,US,True,moderate,Entire home/apt,2003,"$1,120 ",$224 ,25,4,3/13/2019,0.37,2,1,0,"Please remember that this is a residential building. The building rules, apartment occupancy restrictions and the year-round tenants must be respected.  Parties and smoking are not allowed under any circumstances and incur significant fees. Parties and smoking are not allowed under any circumstances and incur significant fees. Pets may be considered with pre-approval and an additional pet fee.",
19646984,Williamsburg Sizable Bedroom w/ Outdoor Space,90650043016,unconfirmed,Michael,Brooklyn,Williamsburg,40.712559999999996,-73.95121,United States,US,False,moderate,Private room,2010,$215 ,$43 ,4,11,7/1/2019,0.99,4,1,5,"Respectful, quiet but enjoyable stay! Clean, or messy and then clean up before they leave! ;-)",
19647536,Midtown NYC Loft,52274797377,unconfirmed,Mathew,Manhattan,Murray Hill,40.748490000000004,-73.97873,United States,US,False,flexible,Entire home/apt,2012,$502 ,$100 ,3,28,6/19/2019,2.43,4,1,43,,
19648089,"COZY AND ELEGANCE PLACE NEAR JFK, LGA",83476207202,unconfirmed,Charlie,Queens,Woodhaven,40.69883,-73.85141999999999,United States,US,True,flexible,Private room,2014,"$1,107 ",$221 ,2,8,5/10/2019,0.81,3,3,50,,
19648641,Private room in Friendly Apartment!,84368288565,unconfirmed,Yvonne,Brooklyn,Bushwick,40.69327,-73.91599000000001,United States,US,False,strict,Private room,2007,$824 ,$165 ,1,3,7/30/2018,0.25,3,2,250,,
19649193,vicky客栈2,76687185377,verified,Vicky,Queens,Flushing,40.742979999999996,-73.82306,United States,US,False,moderate,Private room,2005,$600 ,$120 ,1,26,7/7/2019,2.34,2,5,46,No Smoking or Pets,
19649746,vicky客栈3,93728452212,unconfirmed,Vicky,Queens,Flushing,40.742940000000004,-73.82318000000001,United States,US,True,flexible,Private room,2004,$690 ,$138 ,1,25,7/5/2019,2.12,3,5,46,,
19650298,vicky客栈5,32696894356,verified,Vicky,Queens,Flushing,40.742470000000004,-73.82439000000001,United States,US,True,flexible,Private room,2012,$462 ,$92 ,1,52,7/7/2019,4.32,5,5,15,"Please Note: This unit was just renovated in April 2016 and it comfortably accommodates one to three guests (two guests in the bedroom and 1 guest on the available queen air mattress).  Please request an air mattress (if needed) when making a reservation. No smoking, no pets, no parties, and must be 25 years old to book.   Please be mindful to our neighbors in the building; quiet hours after 10pm. Please be considerate of our next guests who will be staying after you, if something is broken or needs fixing, please let me know, as I have an arsenal of tools and enjoy fixing things. For check-out, please ensure: -  All plates and cups are left in the sink or dishwasher -  All trash is left in the kitchen trash can or bagged and left next to the trash can (additional bags are under the sink) -  All windows are closed and locked -  If used, the air mattresses are deflated and put away (please leave used linens for the air mattresses on the floor) -  If furniture was moved during your stay,",
19650850,"Cozy bedroom mins to Manhattan, one block to train",83890961188,verified,William,Brooklyn,Williamsburg,40.7127,-73.94034,United States,US,True,strict,Private room,2016,$430 ,$86 ,2,64,6/10/2019,5.35,4,2,26,,
19651402,Central Park Treasure,55391430420,verified,Jennifer,Manhattan,Harlem,40.806259999999995,-73.95268,United States,US,True,moderate,Entire home/apt,2007,$327 ,$65 ,3,12,5/29/2019,1.01,4,1,37,,
19651955,A Great Room,21571799015,unconfirmed,Syeda,Queens,Sunnyside,40.74136,-73.92475999999999,United States,US,False,flexible,Private room,2003,$310 ,$62 ,1,27,6/5/2019,2.4,4,9,309,,
19652507,A room for rest before you wander,7680167704,verified,Rebecca,Brooklyn,Crown Heights,40.6746,-73.9474,United States,US,True,strict,Entire home/apt,2009,$966 ,$193 ,1,51,7/7/2019,4.47,2,1,2,"Please treat this home as your own and respect the neighbors. No parties, smoking, or additional guests (other than the agreed upon).",
19653059,A Private Room,41445065234,verified,Syeda,Queens,Sunnyside,40.74046,-73.9251,United States,US,False,flexible,Private room,2013,$977 ,$195 ,1,25,6/22/2019,2.23,3,9,336,,
19653612,Large  Secured Condominium Studio,89008618278,verified,Henry,Bronx,University Heights,40.8612,-73.91065,United States,US,True,strict,Entire home/apt,2012,$976 ,$195 ,1,6,11/10/2018,0.53,4,1,191,"No pets, no smoking, no parties.  No guests not on the reservation.  You are liable for any damage. Please do NOT move the furniture we've had damage in the past because of this.  If you need to move anything for a reason please ask. We will give you access to Netflix.  Please respect the account. Please report anything broken at the beginning of your reservation to avoid the loss of your security deposit.  Clean all your dishes and clean up after yourself.  Please keep the noise down.",
19654164,Prime Bushwick Artist’s Pad,71404513960,verified,Creighton,Brooklyn,Bushwick,40.689040000000006,-73.92036999999999,United States,US,False,moderate,Private room,2009,$325 ,$65 ,3,16,6/3/2019,1.4,2,1,139,,
19654716,Chic Upper West Side living.,90844348486,unconfirmed,Rohan,Manhattan,Upper West Side,40.77782,-73.98761999999999,United States,US,False,flexible,Private room,2021,$544 ,$109 ,1,4,2/3/2019,0.38,3,1,0,,
19655269,Beautiful Williamsburg 1BR  - Huge and Sunny,52350582441,verified,Alex,Brooklyn,Williamsburg,40.71433,-73.95679,United States,US,False,moderate,Entire home/apt,2011,"$1,096 ",$219 ,7,3,1/4/2019,0.43,4,1,230,- - Please be courteous and quiet when coming in and out - Do not talk to neighbors - No smoking inside - No parties allowed - Clean up after yourself - Respect the property - Shoes off please  - No loud music or TV after 1:00 AM,
19655821,Very large room & apartment close to Central Park!,50155332617,verified,Bhavin,Manhattan,Midtown,40.76448,-73.97907,United States,US,True,strict,Private room,2012,"$1,075 ",$215 ,1,1,7/23/2018,0.09,3,1,90,,
19656373,WV apt available July 24th to Aug 24th,98261765371,unconfirmed,Cristin,Manhattan,West Village,40.731320000000004,-74.00429,United States,US,False,flexible,Entire home/apt,2008,$597 ,$119 ,15,0,,,4,1,0,No smoking or parties and be respectful of upstairs guests and neighbors.,
19656925,Full Cabin One,95910961812,unconfirmed,The Bowery House,Manhattan,Nolita,40.72271,-73.99412,United States,US,False,strict,Private room,2011,$998 ,$200 ,1,2,7/29/2018,0.17,3,8,0,No smoking or parties allowed,
19657478,NYC Large private bedroom & bathroom,27027351170,verified,Jasmine,Queens,Ditmars Steinway,40.77329,-73.91183000000001,United States,US,False,moderate,Entire home/apt,2005,$508 ,$102 ,3,3,9/3/2018,0.25,4,1,41,,
19658030,Big Apple Slice of History with Breakfast Included,12397252856,unconfirmed,Carmen,Manhattan,East Village,40.72493,-73.97570999999999,United States,US,True,flexible,Private room,2016,$913 ,$183 ,2,26,6/19/2019,2.23,5,1,118,"Are we allowed to drive the boats? All of our boats are in-slip rentals, and can't be taken out. Many of our rental locations have charter services available in the same marina, and we can get you information regarding these services if you desire an excursion. How safe is the location? The boats are in very safe locations. There are gates for entrance, and a fully staffed office looking after the marina. Each boat can be secured while you are on board, or if you are away for the day. The parking is all in well lit and maintained lots. Do I need to bring my car, and where do I park? We recognize the hassle of traveling with a car within cities. We try to select marinas that are convenient for car-free exploring. Most of our locations are within walking distance to major tourist sites, and also have an abundance of public transportation options. If you do need to drive to the marina, we can provide you with information for finding a parking spot convenient to the marina and boat.  Do th",
19658582,Full Cabin Two,73989458203,unconfirmed,The Bowery House,Manhattan,Nolita,40.72315,-73.99454,United States,US,False,flexible,Private room,2018,$344 ,$69 ,1,1,2/10/2019,0.2,4,8,0,,
19659135,"Bright, Spacious Apartment in Brooklyn",38115566678,unconfirmed,Filippo,Brooklyn,Clinton Hill,40.68453,-73.96773,United States,US,True,strict,Entire home/apt,2018,$152 ,$30 ,5,2,9/14/2018,0.19,3,1,13,"No smoking, no pets. Security deposit required.  Please no parties, though this is a totally separate apartment there is another apartment in the building. The tenant in this other apartment is quiet and respectful of our guests and he asks that our guests also be respectful of noise levels.",
19659687,SUNNY ROOM B - GREAT LOCATION RIGHT NEXT TO METRO,9908150817,verified,Nadine,Brooklyn,Bedford-Stuyvesant,40.69526,-73.95119,United States,US,False,moderate,Private room,2009,$952 ,$190 ,30,15,5/19/2019,1.42,2,3,328,No smoking No pet allowed,
19660239,"Bright, Private Bedroom in Bushwick Proper",80037360712,verified,Kevin,Brooklyn,Bushwick,40.69808,-73.92416999999999,United States,US,True,strict,Private room,2012,$954 ,$191 ,1,17,6/11/2019,1.63,2,1,106,,
19660792,Private Room in Nolita/Soho (+ Balcony/Roof Deck),83312424953,unconfirmed,Ilya,Manhattan,Nolita,40.72341,-73.99426,United States,US,False,moderate,Private room,2013,$594 ,$119 ,4,37,6/21/2019,3.22,2,1,78,,
19661344,Private 3B Room in 4BR/2BA APT in Hell's Kitchen,68131206348,unconfirmed,David,Manhattan,Hell's Kitchen,40.75998,-73.98952,United States,US,True,strict,Private room,2010,$613 ,$123 ,1,73,6/22/2019,6.48,4,12,187,"Hello there! Please only enter the front door of the building if I have let you in or you have been given the key beforehand.  Please leave the apartment and its contents in the same condition you found it. Please no one in the building or apartment except the registered guests.  This is a strict one.  Thanks for understanding! Please no eating or drinking on the sofa. (Also, please hand wash any dishes used.) Please walk gently in the apartment and observe quiet hours of 8pm-10am. It is an old building and sound transfers easily.  Definitely no smoking and/or any other ""substances"" on the premises. Sorry, none of the alcohol in the apartment is for guest consumption. Thank you for respecting the property and also my furnishings. This helps me offer nice things for consequent guests! Sorry for the litany of rules, but adhering to these will make everyone happy. I like to keep a calm & clean place. Thank you! Paul",
19661896,Private 3A Room in 4BR/2BA APT in Hell's Kitchen,54699316503,verified,David,Manhattan,Hell's Kitchen,40.76187,-73.98984,United States,US,False,moderate,Private room,2022,$967 ,$193 ,1,54,6/23/2019,4.84,5,12,251,"We like to keep things quiet and peaceful and expect that our guests will be respectful of our space and belongings. No smoking, no illegal substances.",
19662448,Private 3C Room in 4BR/2BA APT in Hell's Kitchen,56152298935,unconfirmed,David,Manhattan,Hell's Kitchen,40.7601,-73.99166,United States,US,True,flexible,Private room,2013,$893 ,$179 ,1,59,6/20/2019,5.25,3,12,194,,
19663001,Private 3D Room in 4BR/2BA APT in Hell's Kitchen,19521011306,verified,David,Manhattan,Hell's Kitchen,40.75955,-73.99022,United States,US,False,moderate,Private room,2011,$941 ,$188 ,1,67,6/18/2019,5.98,5,12,241,- No Smoking In the House.  There is a back porch accessible through the kitchen where you can smoke. - We try to keep the house very clean and would like to ask you to please remove your shoes when entering the house so that dirt doesn't trek around the house.  There is a shoe cabinet right by the entrance where you can store your shoes.  Some slippers will also be provided and can be found inside the shoe cabinet. - Please clean after yourself after you use the bathroom. It is a shared bathroom. The same goes for the kitchen. ,
19663553,Simple + Cute + Spacious Studio (perfect for 1-2),58874557502,unconfirmed,Yeena,Manhattan,Upper West Side,40.7862,-73.98089,United States,US,True,strict,Entire home/apt,2017,"$1,057 ",$211 ,3,6,6/23/2019,0.57,3,1,0,,
19664105,Comfortable Studio Apartment,14130292987,verified,Ral,Bronx,Edenwald,40.89245,-73.83721,United States,US,False,strict,Entire home/apt,2016,$198 ,$40 ,1,32,6/20/2019,2.74,5,1,32,"Kitchen, please:  - Do not leave perishable items in the fridge or on the counter for extended stays.  General, please:  - Treat our home as you would your own. - Clean up after yourself. We ask that you leave the common areas as you found them and do your dishes when you're finished with them.  - Feel free to use linens and towels as you need them. At the end of your stay, please leave them by the washer & dryer.  - We are smoke-free and pet-free.  - This rule is a must: Enjoy your stay!",
19664658,Williamsburg apartment with roof terrace,55306785524,verified,Francesca,Brooklyn,Williamsburg,40.71085,-73.96136,United States,US,True,moderate,Private room,2017,$392 ,$78 ,4,10,5/28/2019,0.87,4,1,5,"No loud music, No pets, No smoking, No additional guess allow; Room is  offered for one person only.",
19665210,Large artsy basement room close to subway,2385067611,unconfirmed,David,Brooklyn,Bedford-Stuyvesant,40.67723,-73.91618000000001,United States,US,False,strict,Private room,2018,$197 ,$39 ,1,15,7/8/2019,1.81,4,2,13,,
19665762,NEW Bright West Village 2 Bed,94739677421,verified,Teddy,Manhattan,West Village,40.7383,-74.00131,United States,US,False,strict,Entire home/apt,2007,"$1,080 ",$216 ,2,9,12/5/2018,0.76,3,1,0,No other pets allowed. No smoking. We expect general respect for our house and things. No access to private bedrooms.,
19666315,"Sunny, Spacious Town Home w. Private Backyard!",76430230897,unconfirmed,David,Brooklyn,Sunset Park,40.66236,-73.99109,United States,US,True,moderate,Entire home/apt,2008,$451 ,$90 ,2,4,12/30/2018,0.42,5,1,0,#NAME?,
19666867,Suite/English basement in Brooklyn townhouse,68237296502,unconfirmed,Rachel,Brooklyn,Kensington,40.6451,-73.97064,United States,US,True,moderate,Private room,2019,$442 ,$88 ,3,19,6/30/2019,1.61,5,1,85,,
19667419,Cozy gem in Greenwich Village @ border of SoHo,35314030532,verified,Christopher,Manhattan,Greenwich Village,40.72704,-73.99672,United States,US,True,flexible,Entire home/apt,2017,$714 ,$143 ,2,9,4/23/2019,0.82,5,3,0,- No Smoking In the House. There is a back porch accessible through the kitchen where you can smoke. - We try to keep the house very clean and would like to ask you to please remove your shoes when entering the house so that dirt doesn't trek around the house. There is a shoe cabinet right by the entrance where you can store your shoes. Some slippers will also be provided and can be found inside the shoe cabinet. - Please clean after yourself after you use the bathroom. It is a shared bathroom. The same goes for the kitchen.,
19667971,NEW! HUGE DESIGN LOFT w/ Rooftop in Williamsburg,29986348001,verified,Fleur,Brooklyn,Williamsburg,40.71308,-73.94458,United States,US,True,strict,Entire home/apt,2021,"$1,192 ",$238 ,9,5,4/14/2019,0.42,2,1,59,- Enjoy Your self and have a pleasant stay!,
19668524,Cozy apartment in the East Village,3840145545,verified,David,Manhattan,East Village,40.72541,-73.98398,United States,US,False,strict,Entire home/apt,2017,$577 ,$115 ,2,6,5/19/2019,2.12,2,1,5,- No Smoking In the House. There is a back porch accessible through the kitchen where you can smoke. - We try to keep the house very clean and would like to ask you to please remove your shoes when entering the house so that dirt doesn't trek around the house. There is a shoe cabinet right by the entrance where you can store your shoes. Some slippers will also be provided and can be found inside the shoe cabinet. - Please clean after yourself after you use the bathroom. It is a shared bathroom. The same goes for the kitchen.,
19669076,"Near JFK & LaGuardia airport, cozy studio-style",77882759884,verified,Nhia,Queens,Queens Village,40.70946,-73.74837,United States,US,False,moderate,Private room,2013,"$1,013 ",$203 ,1,47,7/1/2019,3.96,3,1,348,No parties. No smoking please,
19669628,Apartment in Brooklyn Brownstone & Rooftop Views,31659055260,verified,Meredith,Brooklyn,Crown Heights,40.67435,-73.95087,United States,US,True,strict,Entire home/apt,2022,$725 ,$145 ,2,7,12/31/2018,0.59,5,1,7,Be respectful and no smoking in room,
19670181,"Huge, Bright, clean Bushwick blocks from train",33205958068,verified,HyeSuk & Alex,Brooklyn,Bedford-Stuyvesant,40.695170000000005,-73.93248,United States,US,True,moderate,Private room,2004,$814 ,$163 ,20,11,5/6/2019,0.92,4,4,244,#NAME?,
19670733,Great apartment in the heart of trendy Bushwick.,28437351434,verified,David,Brooklyn,Bushwick,40.70145,-73.92,United States,US,False,moderate,Entire home/apt,2005,$582 ,$116 ,2,10,11/5/2018,0.83,2,1,3,- No loud music after 9 pm please,
19671285,Compact Comfy Cute Private room in Brooklyn Ctown,58962111573,unconfirmed,青明,Brooklyn,Sunset Park,40.64165,-74.00922,United States,US,True,flexible,Private room,2012,$980 ,$196 ,2,6,4/1/2019,0.53,3,5,224,"- Be respectful, we are opening our home to you. - Clean up after yourself. - Be mindful of the neighbors and our busy work schedule. - If you have any questions, please ask, we are very friendly people. - Enjoy your stay!",
19671838,Brooklyn Retreat,58533470186,unconfirmed,Thom & Moses,Brooklyn,Bedford-Stuyvesant,40.68393,-73.9553,United States,US,True,moderate,Private room,2012,$581 ,$116 ,3,49,7/5/2019,4.18,3,1,71,"For visitor who only need to sleep,take shower and rest from 10 pm to 8:00 am No smoking extra quiet please Check out please close doors by manual lock Walking slow and not noise please",
19672390,Spacious and Comfy private room in Brooklyn Ctown,91893594615,verified,青明,Brooklyn,Sunset Park,40.63985,-74.01094,United States,US,False,moderate,Private room,2013,$410 ,$82 ,2,10,5/19/2019,0.85,2,5,186,#NAME?,
19672942,Comfy Bunk Bed private room in Brooklyn Chinatown,13322288589,verified,青明,Brooklyn,Sunset Park,40.63986,-74.01064000000001,United States,US,True,strict,Private room,2013,"$1,139 ",$228 ,2,10,5/28/2019,0.92,4,5,232,"We really only have one general requirement, and that is: please leave the apartment and its contents in the condition you found it. We do not have a maid service that cleans the apartment so please be respectful.",
19673494,Private Red Hook Guest Suite,22329947087,verified,Pavel,Brooklyn,Red Hook,40.67856,-74.01584,United States,US,False,moderate,Entire home/apt,2021,$354 ,$71 ,3,17,6/4/2019,1.42,5,1,6,,
19674047,"1 BR, Williamsburg.",35041827889,unconfirmed,Florencia,Brooklyn,Williamsburg,40.709179999999996,-73.96135,United States,US,True,moderate,Private room,2004,$717 ,$143 ,5,1,11/9/2018,0.12,4,1,249,,
19674599,Bright Spacious Private room in Brooklyn Chinatown,57087242902,unconfirmed,青明,Brooklyn,Sunset Park,40.641,-74.00925,United States,US,True,moderate,Private room,2010,$415 ,$83 ,2,12,6/10/2019,1.02,4,5,262,,
19675151,Comfy and Bright Bedroom in Brooklyn Chinatown,39967495657,verified,青明,Brooklyn,Sunset Park,40.641009999999994,-74.01049,United States,US,True,flexible,Private room,2013,$97 ,$19 ,2,16,6/5/2019,1.35,4,5,222,"We expect that you treat our home as you would yours.  If you smoke, you can do so on the back porch. There is absolutely no smoking in the apartment. If you have a pet you are traveling with, please contact us, we can discuss a nice pet.",
19675704,Comfy brand new designer duplex 2 min from L train,79409002034,unconfirmed,Célestine,Brooklyn,Bushwick,40.69433,-73.90649,United States,US,True,flexible,Private room,2006,$190 ,$38 ,3,5,12/2/2018,0.43,2,1,0,"Hello there! Please only enter the front door of the building if I have let you in or you have been given the key beforehand.  Please leave the apartment and its contents in the same condition you found it. Please no one in the apartment except the registered guests.  This is a strict one.  Thanks for understanding! Please no eating or drinking on the sofa. (Also, please hand wash any dishes used.) Please walk gently in the apartment and observe quiet hours of 8pm-10am. It is an old building and sound transfers easily.  Definitely no smoking and/or any other ""substances"" on the premises. Sorry, none of the alcohol in the apartment is for guest consumption. Thank you for respecting the property and also my furnishings. This helps me offer nice things for consequent guests! Sorry for the litany of rules, but adhering to these will make everyone happy. I like to keep a calm & clean place. Thank you! Paul",
19676256,Harmonious Room,61411778120,unconfirmed,Iris,Brooklyn,Bedford-Stuyvesant,40.687490000000004,-73.95467,United States,US,False,moderate,Private room,2019,$655 ,$131 ,30,29,6/5/2019,2.51,3,2,362,"There is a family that lives below us with a young child. Please be respectful and avoid making excessive noise, especially after 9pm. Also, the washer should only be used for small loads.",
19676808,room & private bathroom in a beautlful space,63764015253,verified,Diana,Brooklyn,Bedford-Stuyvesant,40.69471,-73.933,United States,US,True,flexible,Private room,2018,"$1,159 ",$232 ,3,4,8/10/2018,0.33,2,7,109,Please respect my home. There are other long term tenants who reside in the building.,
19677361,Oasis in the heart of Bed-Sty,54401314255,verified,Bryant,Brooklyn,Clinton Hill,40.683890000000005,-73.96200999999999,United States,US,True,flexible,Private room,2016,$586 ,$117 ,30,0,,,4,3,347,,
19677913,Gourgeous room in Brooklyn,47860231913,verified,Bryant,Brooklyn,Clinton Hill,40.6853,-73.96385,United States,US,True,strict,Private room,2013,$481 ,$96 ,30,31,6/3/2019,2.7,5,3,365,"We suggest you use email or texting contact us if need, do not call us. We will not accept calling from AirBnB guests. We will back to you ASAP.",
19678465,Eclectic Room,3717655854,verified,Bryant,Brooklyn,Clinton Hill,40.68387,-73.96392,United States,US,True,strict,Private room,2005,$155 ,$31 ,30,27,6/13/2019,2.38,4,3,347,"- No Smoking In the House.  There is a back porch accessible through the kitchen where you can smoke. -  There will be other travelers staying along with you, so please be respectful and abide by common sense rules.  - We try to keep the house very clean and would like to ask you to please remove your shoes when entering the house so that dirt doesn't trek around the house.  There is a shoe cabinet right by the entrance where you can store your shoes.  Some slippers will also be provided and can be found inside the shoe cabinet. - Please clean after yourself after you use the bathroom. It is a shared bathroom. The same goes for the kitchen. ",
19679017,Big Private Room In the Heart of The East Village,51136122092,unconfirmed,Daniella,Manhattan,East Village,40.72785,-73.98684,United States,US,True,flexible,Private room,2018,"$1,176 ",$235 ,2,19,6/25/2019,1.58,2,2,32,"Please keep as clean as you can.  Please no shoes in the house.  Absolutely no smoking.  Also, the building association does not allow pets.",
19679570,Bright clean serene room Bushwick blocks 4rm train,98454253181,unconfirmed,HyeSuk & Alex,Brooklyn,Bedford-Stuyvesant,40.694140000000004,-73.93292,United States,US,False,strict,Private room,2019,"$1,026 ",$205 ,20,9,3/29/2019,0.75,2,4,318,,
19680122,Budget apt in PRIME HARLEM NYC location,93167408898,verified,Courtney,Manhattan,Harlem,40.8274,-73.95215,United States,US,True,moderate,Entire home/apt,2011,$161 ,$32 ,2,14,6/26/2019,1.21,5,1,293,,
19680674,Sun-filled private co-op minutes from JFK and NYC,49581339482,unconfirmed,Tiffanie,Queens,Jamaica,40.67784,-73.77299000000001,United States,US,False,flexible,Entire home/apt,2011,$208 ,$42 ,1,7,10/21/2018,0.6,3,1,0,,
19681227,"Huge, Bright Bushwick 3 Bedroom blocks from train",60078348249,unconfirmed,HyeSuk & Alex,Brooklyn,Bedford-Stuyvesant,40.695159999999994,-73.93213,United States,US,True,moderate,Private room,2014,$982 ,$196 ,5,3,3/29/2019,0.44,4,4,167,You are more then welcome to explore the area the rules are just to enter quietly if you come back very late keys will be issue but returned at end of each stay.,
19681779,Aery Room near all,15973847347,verified,Fransheska,Brooklyn,Bedford-Stuyvesant,40.68845,-73.95659,United States,US,False,flexible,Private room,2017,$160 ,$32 ,30,32,6/3/2019,2.86,5,3,365,"12 nights minimum stay, no smoking or pets.",
19682331,cozy room <3,41698193585,verified,Genesiss,Brooklyn,Cypress Hills,40.68401,-73.89461999999999,United States,US,True,strict,Private room,2019,$951 ,$190 ,4,5,6/25/2019,1.5,5,1,0,#NAME?,
19682884,Blisfull Room,36709490443,unconfirmed,Fransheska,Brooklyn,Bedford-Stuyvesant,40.686440000000005,-73.95711999999999,United States,US,False,strict,Private room,2012,"$1,154 ",$231 ,30,25,6/20/2019,2.08,5,3,0,Check-in is at 4pm or after. Checkout is at 1030am unless otherwise specified. Please be respectful and honest because we share the same space. We reserve the right to charge for parking upon arrival and to reject your reservation request if we do not feel comfortable with your request. Thank you!,
19683436,Dreamer Room,93924791104,verified,Fransheska,Brooklyn,Bedford-Stuyvesant,40.68862,-73.95572,United States,US,False,strict,Private room,2012,"$1,092 ",$218 ,30,35,6/19/2019,3.06,5,3,365,Check in: 3pm; Check out: 12pm unless otherwise allowed. No pets please. No parties. NO smoking in or around the property. You can use anything that is inside the apartment so long as you don't break it or bring it outside the apartment. Feel free to read any book.,
19683988,MASTER PRIVATE BATHROOM - 2 BEDS - NEXT TO METRO,13192138440,unconfirmed,"Roo, Nadine And Neil",Brooklyn,Bedford-Stuyvesant,40.69526,-73.95155,United States,US,True,flexible,Private room,2017,$543 ,$109 ,30,28,7/7/2019,2.37,2,3,320,"1.CHECK-IN TIME IS AFTER 3 P.M. EST AND CHECK-OUT IS 11 A.M. EST. 2.This is a NON SMOKING boat. 3.We will not rent to vacationing students or singles under 25 years of age  unless accompanied by an adult guardian or parent. 4.DAMAGE WAIVER- A damage waiver of $39 is required. The waiver offers up to $1500 of insurance against accidental damage. You will not be held responsible for damage incurred provided the following provisions are met: (website hidden) intentional damage is done to the boat or its contents.  (website hidden) charges are incurred due to contraband, pets or collection of rents or services rendered during the stay. 3.All debris, rubbish and discards are placed in the properly bagged, and soiled dishes are placed cleaned. 4.All keys are left on the kitchen table and unit is left locked. (website hidden) linens are lost or damaged. (website hidden) Early check-in or late check-out, unless approved in advance. 5.PAYMENT - An advance payment equal to 50% of the total is re",
19684540,GREAT LOCATION 1 RIGHT NEXT TO METRO,12227872056,unconfirmed,"Roo, Nadine And Neil",Brooklyn,Bedford-Stuyvesant,40.69453,-73.95173,United States,US,True,strict,Private room,2022,$669 ,$134 ,30,18,5/10/2019,1.54,4,3,354,"Keep the apartment  a little clean., the hit 70 , no more and that , the Ac if you are not in the room turn off , please , no party's .if you smoke please only in the balcony , no inside no in the hallway.",
19685093,Cozy private room near the center of NYC 12AL,74909421719,verified,John,Manhattan,Hell's Kitchen,40.7557,-73.99668,United States,US,False,flexible,Private room,2010,"$1,079 ",$216 ,3,15,12/16/2018,1.3,4,47,238,,
19685645,Anderson's abode,26388862129,verified,Rodney,Bronx,Morrisania,40.82823,-73.90114,United States,US,False,flexible,Private room,2017,$882 ,$176 ,2,0,,,2,1,0,,
19686197,Sunny Top Floor Victorian,27705433030,verified,Elizabeth And Timothee,Brooklyn,Crown Heights,40.67726,-73.94618,United States,US,True,flexible,Entire home/apt,2017,$374 ,$75 ,7,11,7/6/2019,1.04,4,2,219,,
19686750,"Brooklyn studio by the park, 30 min to Manhattan",56488619259,unconfirmed,Katya,Brooklyn,Prospect-Lefferts Gardens,40.65501,-73.95948,United States,US,True,moderate,Entire home/apt,2011,$730 ,$146 ,3,2,6/10/2019,0.32,4,3,0,,
19687302,Cozy room in best New York neighborhood Chelsea,34519578544,unconfirmed,Reda,Manhattan,Chelsea,40.74137,-73.9994,United States,US,False,flexible,Private room,2013,"$1,058 ",$212 ,3,8,6/9/2019,0.69,3,1,125,"As I can't keep up the cleaning duty 24/7, please clean after yourself as you enter.  Read carefully the instructions and the cancelation. I have works and I won't promise to be at the house 24/24,but I will try my best if you need help.  Living and kitchen are prohibited while these are my working place.  Must notify me if you're having guests.  If you need anything, I'm glad to help in my power. Just ask!",
19687854,Sunny Room 1 in Cool New Bushwick Building,61786470670,verified,Yelle,Brooklyn,Bushwick,40.70136,-73.9269,United States,US,True,strict,Private room,2016,$220 ,$44 ,6,6,11/12/2018,0.5,5,3,11,"I expect guests to be respectful, clean, and caring of the space and it's belongings.  No smoking in the house. No pets please. (I love them, but the space isn't conducive for them). By booking this space you are accepting responsibility for all damages caused by you and/or your guest(s) to this house and/or it's contents. Please remove shoes at the front foyer.  I ask that guests do not use any of the food in the refrigerator or cabinets. You are welcome to purchase your own food to store and to cook with if you'd like. Please only use kitchen appliances that you are familiar with using so they are operated correctly and safely. There are paper bags beside the kitchen trash can and these are for recycling of glass, plastic, paper and cardboard.",
19688407,Bright Luxury Apartment in Williamsburg,96535972880,verified,Cydney,Brooklyn,Williamsburg,40.71107,-73.94665,United States,US,False,flexible,Entire home/apt,2012,$55 ,$11 ,2,20,6/2/2019,1.83,3,1,0,"- No smoking or drugs inside the apartment or building - No parties are allow - Keep the noise level down between the hours of 10pm & 8am - Keep luggage off of bedding, please use the luggage rack instead. - Dishwasher off limits - Pets are prohibited -  Extra guests throughout duration of stay is not allowed unless approve prior to booking - Lastly, please do not bother the neighbors such as ringing their doorbells or asking for directions. Instead, reach out to us if you have any questions or concerns. Please respect our neighbors privacy and be discreet about our place being AirBnB rental during your stay. Thanks for booking with us and keeping the AirBnB experience alive and well!",
19688959,Large Artist Studio - Prime Midtown Location,49846055918,verified,Jennifer,Manhattan,Midtown,40.749520000000004,-73.9713,United States,US,True,moderate,Entire home/apt,2016,$735 ,$147 ,5,11,1/1/2019,0.91,2,1,0,No loud parties. No smoking. Please),
19689511,Clay's place@Bayswater,36603145911,unconfirmed,Clayton,Queens,Bayswater,40.60644,-73.76089,United States,US,True,flexible,Private room,2005,$856 ,$171 ,2,0,,,3,1,169,,
19690063,Brighton Beach Paradise Apartment - Living Room,19185381031,unconfirmed,Viktoriya,Brooklyn,Brighton Beach,40.57636,-73.95964000000001,United States,US,False,moderate,Shared room,2009,$952 ,$190 ,3,9,7/7/2019,0.78,3,1,85,,
19690616,Twin Cabin with a Window One,27043623251,verified,The Bowery House,Manhattan,Nolita,40.72311,-73.99345,United States,US,False,moderate,Private room,2004,$234 ,$47 ,1,1,3/24/2019,0.28,2,8,0,#NAME?,
19691168,"East Village, ground floor, clean private bedroom!",70808977785,verified,Tim,Manhattan,East Village,40.72573,-73.98376999999999,United States,US,False,moderate,Private room,2011,$669 ,$134 ,7,17,6/24/2019,1.63,4,1,227,"Our Herbivorian House manual with detailed rules and helpful information is present in each apartment.  The Apartment must be left as clean as it was found, (especially the kitchen and bathroom) cleaning supplies are present in the apartment. (we are responsible for washing sheets and towels) No loud or late night noises or parties. No additional guests No smoking. No red meat or strong smelling meats shall be cooked (the smell disturbs our primarily vegetarian guests) Pleasant behavior to all other building residents. Any questions assistance needed please contact us we are happy to help. There is now only 2 hours of public street parking available (residential zone, just changed April 2016) In a triangle directly infrount of our building (we will check on non residential parking availability, and are looking for alternative parking, but call us first is bring a car) Both sides of the streets are ok for 2 hours except on street cleaning days (on one side 1st and third Tuesday, on the ",
19691720,Room in East Village,37143563347,unconfirmed,Daniel,Manhattan,East Village,40.7272,-73.98186,United States,US,True,moderate,Private room,2005,$575 ,$115 ,9,4,5/13/2019,0.65,4,1,0,No smoking please!,
19692273,10 MINS TO MANHATTAN! Very private & sunny room.,26376227934,unconfirmed,Cagkan,Queens,Long Island City,40.75463,-73.93448000000001,United States,US,False,moderate,Private room,2003,"$1,100 ",$220 ,3,44,7/1/2019,3.75,4,1,37,"We suggest you use email or texting contact us if need, do not call us. We will not accept calling from AirBnB guests. We will back to you ASAP.",
19692825,Sonder | 116 John | Superior 1BR + Gym,30065833180,unconfirmed,Sonder,Manhattan,Financial District,40.70633,-74.00623,United States,US,False,flexible,Entire home/apt,2010,$446 ,$89 ,29,0,,,4,96,332,Please treat this house as if it is your own.  - No smoking - No drug use - Shoes can be left in the hall. - Help yourself to anything in the refrigerator. - LOCK THE DOORS when you leave. Front door to condo locks on it's own.,
19693377,Twin Cabin with a Window Two,84845148083,verified,The Bowery House,Manhattan,Nolita,40.722590000000004,-73.99399,United States,US,True,strict,Private room,2007,$639 ,$128 ,1,0,,,4,8,0,"Please, No smoking and no pets. We do require a Security deposit. Absolutely no parties, if a small gathering will take place, please notify us so that we can let the other units in the building know.  Please be aware that the apartment is in a building with other tenants, including children, be mindful of their privacy and the noise level.",
19693930,Gramercy spacious apt!,90047727782,unconfirmed,Olivia,Manhattan,Kips Bay,40.74068,-73.98227,United States,US,False,flexible,Entire home/apt,2015,$509 ,$102 ,1,5,6/5/2019,0.46,5,1,23,,
19694482,Times Sq. Private Bedroom-Great Location!,50012926809,verified,Nick,Manhattan,Hell's Kitchen,40.76475,-73.9932,United States,US,False,moderate,Private room,2014,"$1,024 ",$205 ,1,39,6/13/2019,3.35,4,1,5,,
19695034,Bright Midtown East,53858817580,verified,Rory,Manhattan,Midtown,40.76085,-73.96627,United States,US,False,strict,Entire home/apt,2006,$301 ,$60 ,2,2,6/10/2019,0.17,2,1,4,,
19695586,自己的小房间,26991557253,verified,QianWen,Queens,Flushing,40.75479,-73.81916,United States,US,True,moderate,Shared room,2007,$617 ,$123 ,1,0,,,5,2,89,NO SMOKING!  NO PARTIES!,
19696139,"Modern, Cozy Apt Share for Young Professionals",4347024203,verified,Ollie,Brooklyn,Bedford-Stuyvesant,40.68537,-73.94974,United States,US,False,moderate,Private room,2009,$143 ,$29 ,30,0,,,2,8,237,,
19696691,"Bronx Haven : Near water, accessible to transit",80614436205,verified,Tara,Bronx,Castle Hill,40.81518,-73.84758000000001,United States,US,False,strict,Entire home/apt,2005,$387 ,$77 ,3,32,6/23/2019,2.79,3,1,42,Treat my home as if it is your own home. NO smoking at all in the building. No more than 6 people allowed . Please take your shoes off when enter the apartment,
19697243,Gorgeous Lincoln Center - overlooking Central Park,75994045998,verified,Laura,Manhattan,Upper West Side,40.77237,-73.98063,United States,US,True,flexible,Private room,2012,$400 ,$80 ,2,0,,,3,1,89,"1. NO SHOES IN THE HOUSE. Please, leave them behind the door 2. Please make sure that all the doors are     locked behind you when you leave 3. NO SMOKING, ABSOLUTELY NO DRUGS,     NO excessive alcohol consumption 4. Please, keep the noise level to the minimum       from 10pm to 8am  5. No parties. Please no unauthorized guests. Only checked in guests are allowed on the property 6. Be respectful to our neighbors  7. If you have any questions about anything     please ask freely, I am always happy to help     and make your stay pleasant. ENJOY!",
19697796,Charming House near Prospect Park,43692227937,verified,MIchele,Brooklyn,Windsor Terrace,40.65251,-73.97598,United States,US,True,flexible,Entire home/apt,2020,$418 ,$84 ,3,3,8/2/2018,0.26,4,1,69,,
19698348,Sonder | 21 Chelsea | Modern 1BR + Rooftop,40040109886,verified,Sonder,Manhattan,Chelsea,40.74281,-73.99595,United States,US,True,strict,Entire home/apt,2006,$832 ,$166 ,29,0,,,3,96,312,- Pets under 30pounds only.  - There is a grill in the back yard for guest use,
19698900,Gorgeous Gramercy Apt,61062655946,verified,Owen,Manhattan,Flatiron District,40.73945,-73.98543000000001,United States,US,True,strict,Entire home/apt,2017,$943 ,$189 ,2,12,6/30/2019,1.07,5,1,5,,
19699453,Modern Spacious Studio in the Heart of Chelsea,84037778954,verified,Eliran,Manhattan,Chelsea,40.74285,-73.99395,United States,US,False,moderate,Entire home/apt,2012,$724 ,$145 ,2,22,12/6/2018,1.94,4,1,0,"No unexpected house guests please, and no smoking in the house!",
19700005,Your private studio in Manhattan,19875050141,unconfirmed,Elena,Manhattan,Washington Heights,40.83235,-73.94117,United States,US,True,strict,Entire home/apt,2008,$647 ,$129 ,1,52,6/17/2019,4.37,2,6,40,"No smoking. If using the kitchen, guests must wash and put everything away. Please leave the apartment exactly as you found it.",
19700557,Bushwick House,52662150973,unconfirmed,Giorgi,Brooklyn,Bushwick,40.70313,-73.91450999999999,United States,US,True,moderate,Private room,2003,$992 ,$198 ,21,1,5/3/2019,0.44,2,1,36,,
19701109,Neat+Nice+Large dining area &  2 min to Subway,6048979809,unconfirmed,Hiroki,Queens,Woodside,40.74323,-73.90471,United States,US,True,strict,Private room,2018,$524 ,$105 ,37,1,12/15/2018,0.15,4,37,39,"Our Herbivorian House manual with detailed rules and helpful information is present in each apartment.  The apartment must be left as clean as it was found, (especially the kitchen and bathroom) cleaning supplies are present in the apartment. (we are responsible for washing sheets and towels)  If you would rather not clean up after yourself please include an extra $100.00 for the cleaning Help. No loud or late night noises or parties. No additional guests No smoking. No red meat or strong smelling meats shall be cooked (the smell disturbs our primarily vegetarian guests) Pleasant behavior to all other building residents. Any questions assistance needed?.. please contact us, we are happy to help.",
19701662,Amazing Studio at the Time Square Area/54C,26155389199,verified,Irina,Manhattan,Hell's Kitchen,40.761179999999996,-73.99342,United States,US,True,strict,Entire home/apt,2013,$292 ,$58 ,30,3,4/7/2019,0.33,3,20,346,,
19702214,Modern Condo in Sunset Park w/Washer and Dryer,14355620139,unconfirmed,Gail And Yordanis,Brooklyn,Sunset Park,40.645379999999996,-74.01624,United States,US,False,strict,Entire home/apt,2015,$974 ,$195 ,7,2,4/25/2019,0.71,4,1,0,#NAME?,
19702766,Sunny and Spacious West Harlem bedroom with a view,45016406434,unconfirmed,Malik,Manhattan,Harlem,40.81747,-73.95249,United States,US,True,moderate,Private room,2017,$885 ,$177 ,3,10,11/27/2018,0.85,5,1,0,"I love having you here; you'll feel comfortable and at home.  You will have a key to  the house, so feel free to come and go as you choose.  Enjoy your stay in Boston!",
19703319,One bedroom with full bed / 1 stop from Manhattan,58951365751,unconfirmed,Danielle,Queens,Long Island City,40.74565,-73.94699,United States,US,False,moderate,Private room,2017,"$1,053 ",$211 ,2,13,6/20/2019,1.74,5,1,333,No smoking allowed inside the house. My roomates and I ask if you use any dishes in the kitchen to clean up after yourself. Respect the house and the room you're in.,
19703871,Heart of the City,87924191225,unconfirmed,Chemme,Manhattan,Hell's Kitchen,40.75718,-73.99245,United States,US,False,flexible,Private room,2010,$959 ,$192 ,2,4,10/26/2018,0.42,3,4,365,No smoking in the apartment.,
19704423,Pinacoladaburgh,37472193515,verified,Jessica,Queens,Rockaway Beach,40.58739,-73.81746,United States,US,True,moderate,Entire home/apt,2012,$625 ,$125 ,2,35,7/8/2019,2.97,3,1,125,,
19704976,Bear(D)Close to JFK&LGA&Citi Field&Subway#Parking,7393137143,unconfirmed,Geheng,Queens,Flushing,40.74544,-73.82244,United States,US,False,moderate,Private room,2015,$277 ,$55 ,1,74,7/7/2019,6.2,3,4,56,"This is a non smoking house in a quiet neighborhood, so please no loud music or party's allowed. If not in need of any light, fan or AC please shut it off.""Conserve Energy "" Please treat my home like it is your own home.",
