id,NAME,host id,host_identity_verified,host name,neighbourhood group,neighbourhood,lat,long,country,country code,instant_bookable,cancellation_policy,room type,Construction year,price,service fee,minimum nights,number of reviews,last review,reviews per month,review rate number,calculated host listings count,availability 365,house_rules,license
4646516,Queen size bedroom. 15 min to NYC,17953805084,verified,Freda,Queens,Ditmars Steinway,40.77183,-73.90973000000001,United States,US,False,moderate,Private room,2003,$744 ,$149 ,6,17.0,6/2/2019,0.34,4,8,260,,
4647068,Bright new studio in heart of LIC,32488991995,unconfirmed,Haley,Queens,Long Island City,40.74651,-73.954,United States,US,False,moderate,Entire home/apt,2015,"$1,097 ",$219 ,1,0.0,,,1,1,310,"• Check-in time is 3PM. • Check-out time is 11:00AM. • No parties or events • Not suitable for pets • No smoking No smoking, no drugs, no parties and please, no visiting pets or unannounced visitors. Please lock up door when you go out, and during the heating season, turn down the heat. If you are new to Airbnb, the idea is that I’m not renting a room, but rather sharing my home. I live and work here, and enjoy meeting new people. It's like having old friends visit, not like a hotel. You are welcome to make yourself at home in the common living areas and to use the kitchen, but please leave everything as clean and put away as you have found it. As we will be sharing a bathroom, I appreciate your tidying up and keeping personal items in your room. The cat is not allowed outdoors – he can be sneaky so please don’t leave doors open and keep an eye out for her. You are welcome to the kitchen (and common areas), thank you for cleaning your dishes after using them.   I am environmentally fri",
4647621,3 Bedroom apartment & Yard next to Subway sleeps 6,5329875673,verified,Yinny,Brooklyn,Bay Ridge,40.6342,-74.02337,United States,US,False,flexible,Entire home/apt,2016,$933 ,$187 ,5,48.0,6/15/2019,0.87,1,4,211,"Drinking in moderation, smoking outdoors, no drugs. Please clean up after yourself.",
4648173,Charming East Village/Gramercy Park Studio,71411333984,unconfirmed,Danielle,Manhattan,Gramercy,40.73196,-73.9823,United States,US,False,flexible,Entire home/apt,2014,"$1,026 ",$205 ,3,103.0,6/2/2019,1.99,3,1,47,,
4648725,Five star large one bedroom!,47792374802,unconfirmed,Terry,Manhattan,Upper East Side,40.77792,-73.9539,United States,US,True,strict,Entire home/apt,2018,"$1,170 ",$234 ,1,121.0,6/17/2019,2.19,1,1,38,"Please take your street shoes off when entering the house. This is a smoke free home. Please no smoking in and around the house. For all my male guests: Please sit on the toilet. No standing please! This is a shared facility. Therefore, please be considerate of the amount of water and electricity you use. Please keep the noise level low.",
4649278,Beautiful Spacious Suite..,7978203835,verified,Syreeta,Brooklyn,Prospect-Lefferts Gardens,40.65713,-73.9537,United States,US,True,strict,Private room,2009,$806 ,$161 ,1,0.0,,,4,1,324,"NO PETS!  NO SMOKING ON PREMISES! NO PARTY! A printed house rule will be provided. Please be respectful to others when all rooms are booked. 10 AM Check-out and Check-in is between 12 PM (noon) - 3 PM.   Late check in after 8 pm is $50, lock out is $50. Respect yourself, Respect others, clean up after yourself.  No Smoking/drinking in apt.  Thank You! Location Rules: The ""Exact Address Location Is Not Disclosed For Security Reasons"" And Is Given Out 24 Hours Prior to Check-in.  If This Is a Problem for You, Please STOP Here And Contact Other Hosts for Your Stay.   This Is a Part Of My House Rules.",
4649830,,93694225137,unconfirmed,Josh,Manhattan,Washington Heights,40.85198,-73.93108000000001,United States,US,False,strict,Private room,2014,$63 ,$13 ,1,0.0,,,2,1,8,"No smoking of any kind indoors; no smoking on deck or in back garden; smoking allowed in front garden, where chairs and a table are provided.  Guests using kitchen area are asked to keep it clean and put away food in refrigerator or cabinets or plastic containers.  Quiet hours after 11pm. ",
4650382,1BR 2-blocks from BK Museum,20725411074,verified,Jeremy,Brooklyn,Crown Heights,40.671170000000004,-73.95934,United States,US,True,flexible,Entire home/apt,2022,"$1,167 ",$233 ,1,9.0,5/28/2016,0.16,2,1,415,"•No Smoking in any part of the property •Please do not leave any trash outside, please leave trash in bag inside the unit •Do not flush anything down toilet except toilet paper •Please maintain a reasonable volume •Please respect the property •No large parties •No more than 4 guests •Please ask before accessing bar •Do not purchase anything on cable •Please do not leave exterior doors open so that we can keep out insects and pests",
4650934,Sunny and Quiet Williamsburg Room,43789204524,verified,Masha,Brooklyn,Williamsburg,40.71217,-73.96367,United States,US,False,moderate,Private room,2022,$98 ,$20 ,2,32.0,10/7/2018,0.55,4,2,340,"Unlike most other Airbnb listings, what we do here is long-term rentals by the year, or by the semester.  We try to keep the atmosphere conducive to studying and resting and a couple of house-rules are in place to this end.  1. Towels and linens (sheets, blankets, and pillows) are NOT provided. The bed is twin size. 2. No smoking on the premises.  3. No loud music or TV etc.  4. Only for one person (no couples, no visitors). We seldom have visitors, let alone overnight guests. We know this will be a major turn-off to many people, but we believe we can find a like-minded roommate who can have fun outside the house.  5. If you are not sure about your check-out date, you can reserve the minimum days and extend your stay at a discounted rate.  6. Check-in time has to be coordinated at least 48 hours ahead. On arrival, a short registration process with a picture ID is needed in exchange for keys and wifi access.  7. Inside the apartment, we take off our outside shoes. So if you bring your o",
4651487,Private Apartment In Heart Of Brooklyn,35306638388,verified,Matt,Brooklyn,Bedford-Stuyvesant,40.69294,-73.96001,United States,US,False,flexible,Private room,2019,$382 ,$76 ,1,1.0,1/1/2016,0.02,2,1,3,,
4652039,"Private Studio On Roof, Private bath + Deck",95467101132,unconfirmed,Mia,Brooklyn,Bushwick,40.69437,-73.92607,United States,US,True,flexible,Private room,2010,$751 ,$150 ,5,107.0,4/13/2018,2.03,5,2,272,No Parties No Loud Music No Smoking,
4652591,A Cozy Studio in Clinton Hill,44806451184,unconfirmed,Takako,Brooklyn,Clinton Hill,40.68233,-73.96418,United States,US,True,flexible,Entire home/apt,2019,$650 ,$130 ,4,14.0,12/25/2016,0.25,2,1,238,,
4653144,Sunny Bedroom in BK,13957688017,unconfirmed,Helena S,Brooklyn,Bedford-Stuyvesant,40.68897,-73.95477,United States,US,True,flexible,Private room,2006,$284 ,$57 ,2,8.0,1/5/2019,0.15,3,2,265,"- NO PETS!  NO SMOKING ON PREMISES! NO PARTY! A printed house rule will be provided. Please be respectful to others when all rooms are booked. 10 AM Check-out and Check-in is between 12 PM (noon) - 3 PM.   Late check in after 8 pm is $50, lock out is $50. Respect yourself, Respect others, clean up after yourself.  No Smoking/drinking in apt.  Thank You!  Location Rules: The ""Exact Address Location Is Not Disclosed For Security Reasons"" And Is Given Out 24 Hours Prior to Check-in.  If This Is a Problem for You, Please STOP Here And Contact Other Hosts for Your Stay.   This Is a Part Of My House Rules.",
4653696,Lovely Large Room with Private Bathroom,86700396343,unconfirmed,Paul,Manhattan,Hell's Kitchen,40.759840000000004,-73.99214,United States,US,False,strict,Private room,2022,$349 ,$70 ,1,102.0,6/11/2019,1.84,5,1,403,"NO PETS.  NO SMOKING.  NO PARTIES.  No recreational drugs.  No open flames.  No excess noise after 10:00 pm.  Avoid disturbing neighbors.   NO PETS.  If a pet is found on the premise, a pet surcharge of $300 will be applied. You will be asked to leave immediately and will forfeit your security deposit if an animal is on the property without permission of owner. NO SMOKING PLEASE.  A $500 cleaning fee will be deducted from your deposit if smoking occurs in the unit. This is a NO PARTY house. Parties, loud get-togethers, or gatherings are not allowed because of neighbor issues, and possible damage to property. If a party, loud gathering, or loud disturbance does occur, or if neighbors or other guests call for a loud disturbance, you will forfeit your security deposit and will be evicted immediately. Please Note:  During your stay we ask that you leave the house tidy and in good order.  Guests must provide their own toiletries/cleaning supplies/paper products.  We will have a starter kit ",
4654248,Modern (Website hidden by Airbnb) Sq Apt!,49226291341,verified,Idris,Manhattan,East Village,40.72781,-73.97646,United States,US,False,flexible,Entire home/apt,2011,$357 ,,3,42.0,9/21/2016,0.77,5,1,229,"Guests who use kitchen must wash their dishes (or put them in dishwasher) and wipe stove and counters after eating, in courtesy to other guests. No smoking inside or behind the house; smoking is permitted only in smoking area in front of house. To maintain quiet on floors with bedrooms, please use headphones to listen to music/videos or when making (website hidden) calls in bedrooms, and keep hallways conversations quiet and short.  ",
4654801,Big Sunny Room 10secs from L train,53285339558,unconfirmed,Lauren,Brooklyn,Williamsburg,40.71172,-73.93973000000001,United States,US,True,moderate,Private room,2021,$651 ,,2,0.0,,,2,1,8,"Respect yourself, respect others, clean up after yourself. No smoking or drinking in the apt. Late check in after 9 p.m. and before 10 A.m. is $50, lock out is $50. Thank you",
4655353,"Super Clean, Quiet & Spacious Room",31901365119,unconfirmed,Troy,Queens,Woodhaven,40.69634,-73.8563,United States,US,True,strict,Private room,2015,$252 ,,3,3.0,7/11/2018,0.23,5,1,365,"NO PETS!  NO SMOKING ON PREMISES!  NO PARTY! No ""DRUGS""! - Keep the Place Clean at All Times! - Do Not Ask the ""Neighbors"" for anything.  Ask Me!-  - No Neighbors Interaction! - No ""Drugs"" Please!!! - No Noise! A printed house rule will be provided. Please be respectful to others when all rooms are booked. 10 AM Check-out and Check-in is between 12 PM (noon) - 3 PM.   Late check in after 8 pm is $50, lock out is $50. Respect yourself, Respect others, clean up after yourself.  No Smoking/drinking in apt.  Thank You! Location Rules: The ""Exact Address Location Is Not Stockton St.  It Is 2 Streets Away.  It Is Not Disclosed For Security Reasons"" And Is Given Out 24 Hours Prior to Check-in.  If This Is a Problem for You, Please STOP Here And Contact Other Hosts for Your Stay.   This Is a Part Of My House Rules.",
4655905,Private floor and entrance in townhouse,74669551086,unconfirmed,Marc & Farnoosh,Queens,Rego Park,40.72018,-73.86322,United States,US,True,moderate,Private room,2014,$386 ,,1,28.0,6/22/2019,0.61,3,1,270,"•Parties or Gatherings are not permitted. •Please be courteous to the neighbors and keep noise levels low, especially between the hours of 10pm-10am. •Absolutely no smoking in the apartment. Smoking only on the back porch •Overnight guests are not permitted unless included on the initial reservation. •Please help us conserve energy by turning off lights, small appliances, lamps, etc. when not being used.  •Please store recyclables separately. •Pets are not permitted at any time. •If you need flexibility around the specified check in or check out times, let us know in advance. •Owner is NOT responsible for any accidents, injuries or illness that occurs while on the premises or its facilities.",
4656457,Two story apt with rooftop terrace,6686390839,unconfirmed,Amy,Manhattan,Upper West Side,40.77871,-73.97733000000001,United States,US,False,strict,Entire home/apt,2008,$111 ,,2,23.0,6/17/2019,0.48,5,1,305,,
4657010,Beautiful Apt - Flatiron/ Chelsea,21528388069,unconfirmed,Saville,Manhattan,Chelsea,40.73932,-73.99264000000001,United States,US,True,flexible,Entire home/apt,2022,$135 ,,1,0.0,,,3,1,155,,
4657562,"600 SF appartment in NYC, Manhattan",8994595988,verified,Alexander,Manhattan,Midtown,40.760220000000004,-73.9744,United States,US,False,moderate,Entire home/apt,2007,$238 ,,6,13.0,1/10/2017,0.25,1,1,179,,
4658114,SOHO GALLERY,78350813102,verified,Indi,Manhattan,Tribeca,40.71883,-74.00357,United States,US,True,strict,Entire home/apt,2016,$499 ,,1,2.0,10/19/2016,0.05,4,1,266,,
4658667,Affordable room in a friendly house,34729298780,unconfirmed,Toby,Manhattan,Harlem,40.808820000000004,-73.94165,United States,US,False,moderate,Private room,2019,$235 ,$47 ,20,2.0,1/10/2015,0.04,1,1,246,#NAME?,
4659219,Cool Room In Cool Harlem,11074681028,verified,Roy,Manhattan,Harlem,40.81651,-73.94319,United States,US,False,moderate,Private room,2020,"$1,143 ",$229 ,1,0.0,,,4,1,95,"just act like my friend in building and don't be mean to Jack, he's ugly I know but sweet and small.",
4659771,Cool Room in NYC,33836935447,unconfirmed,Gabriel,Manhattan,Hell's Kitchen,40.7637,-73.98985,United States,US,True,strict,Private room,2005,$126 ,$25 ,17,24.0,6/3/2019,0.45,1,1,422,"House Rules  Please treat my home as if it were your own. Be respectful of me, my guests, and anyone you may encounter in the building.  No smoking (indoors or on the balcony). Please clean up after yourself, especially in the bathroom. Upon leaving, please put your trash in the chute and strip the linens of the bed. If you have any questions, please ask me. No parties or loud noises in the unit after 10 pm but the club lounge is 24 hours and you are welcome to relax and socialize on the 20th (URL HIDDEN) long as your respectful and not overly loud.   PLEASE ALSO BE MINDFUL OF NEIGHBORS.",
4660324,Charming LES studio w/ BBQ patio,9982118143,unconfirmed,Miriam,Manhattan,Lower East Side,40.71801,-73.99078,United States,US,True,strict,Entire home/apt,2005,"$1,076 ",$215 ,1,5.0,5/22/2016,0.09,5,1,376,,
4660876,PENTHOUSE STUDIO WITH LARGE TERRACE,3922577202,unconfirmed,Daniel,Manhattan,Upper West Side,40.79202,-73.97946999999999,United States,US,False,strict,Entire home/apt,2011,$330 ,$66 ,1,0.0,,,1,1,243,Smoking is strictly prohibited. Your pets are welcome but please mind them. NO PARTIES ALLOWED.  EXCESSIVE NOISE IS STRICTLY PROHIBITED.,
4661428,Private 1st level studio near NYC,13951249455,unconfirmed,Rose,Brooklyn,Borough Park,40.61959,-73.97856999999999,United States,US,True,strict,Entire home/apt,2004,$306 ,$61 ,3,,3/28/2019,1.06,3,1,276,"Check-in is after 3PM Some general information about the apartment. Please try to keep it relatively quite, especially at night. Strict no parties or entertainment policy. No additional guests are allowed outside of reservation. No smoking inside the apartment or hallway. No pets allowed in the apartment. Unfortunately no young children as the house is not equipped for children under 10.   When making a booking - please have a verified email address and phone number on your airbnb account. Respect and treat the apartment as your own and how you would expect others to treat yours. Please communicate with us as soon as possible, should something go wrong during your stay, so we can try to fix it as soon as possible. Once you've confirmed the booking, please respect the apartment and don't hesitate to make it your own. We want you to feel like you are at home, so to sum it all up.. don't do things you wouldn't do at your own place We look forward to welcoming you and have a great time in ",
4661980,Spacious Studio- Midtown Manhattan!,77279788447,verified,Megan,Manhattan,Midtown,40.7555,-73.96575,United States,US,False,moderate,Entire home/apt,2017,$948 ,$190 ,1,14.0,4/26/2016,0.25,3,1,115,"Please do not smoke or do drugs in our home, and please do not have parties.  There is no glass allowed on the roof (which is on the 9th floor).",
4662533,HOUSE SUITE,45295193798,unconfirmed,Hollis,Brooklyn,Bushwick,40.695040000000006,-73.92709,United States,US,True,flexible,Entire home/apt,2004,$778 ,$156 ,4,123.0,6/8/2019,2.48,3,1,362,,
4663085,Amazing Private & Cozy Williamsburg Room *rooftop*,48264645939,unconfirmed,Matthew,Brooklyn,Williamsburg,40.70936,-73.94109,United States,US,True,moderate,Private room,2007,"$1,043 ",$209 ,3,125.0,7/3/2019,3.26,5,1,78,"Please remember that this is a residential building.  All building rules, hotel occupancy restrictions, and year-round tenants must be respected.",
4663637,Master bedroom w/ private bathroom and free gym,41065071888,verified,Lika,Brooklyn,Bushwick,40.7001,-73.93009,United States,US,True,flexible,Private room,2021,"$1,155 ",$231 ,7,2.0,2/12/2018,0.09,2,1,385,,
4664190,MODERN Luxury Hotel Residence in Midtown,48991856138,unconfirmed,Dee J,Manhattan,Hell's Kitchen,40.7574,-73.99361,United States,US,True,strict,Entire home/apt,2019,$456 ,$91 ,6,11.0,11/1/2018,0.22,1,1,387,,
4664742,"Quiet, value & convenience in NYC's best hood!",41659333581,verified,Alexandra,Brooklyn,Fort Greene,40.68916,-73.977,United States,US,True,strict,Entire home/apt,2011,$590 ,$118 ,4,27.0,6/22/2019,0.49,2,2,126,,
4665294,Private Room With Balcony UES,45572644527,verified,Namrata,Manhattan,Upper East Side,40.77321,-73.95175,United States,US,False,moderate,Private room,2020,$292 ,$58 ,1,0.0,,,2,1,47,#NAME?,
4665847,Private entrance Private roofdeck NO CLEANING FEE,54487252681,verified,Ryan,Manhattan,East Village,40.72333,-73.97948000000001,United States,US,False,moderate,Private room,2021,$463 ,$93 ,1,39.0,7/2/2019,0.8,1,4,20,#NAME?,
4666399,1 BR in loft / Bushwick,18420569580,unconfirmed,Pierre,Brooklyn,Bushwick,40.69169,-73.92351,United States,US,True,flexible,Private room,2006,$776 ,$155 ,1,8.0,6/25/2017,0.15,5,1,225,#NAME?,
4666951,Great location w/ Terrace!,42161314450,verified,Kim,Brooklyn,Williamsburg,40.71349,-73.9629,United States,US,True,flexible,Entire home/apt,2022,"$1,046 ",$209 ,5,26.0,10/12/2016,0.47,3,1,335,,
4667503,Cozy Nolita Apt - 1 BDR + Study,82402447498,verified,Bethany,Manhattan,Nolita,40.72405,-73.99518,United States,US,True,strict,Entire home/apt,2005,$841 ,$168 ,3,0.0,,,5,1,257,,
4668056,Holiday Sublet in Carroll Gardens,14709576225,verified,Stephanie,Brooklyn,Carroll Gardens,40.67725,-73.99968,United States,US,False,strict,Private room,2009,$735 ,$147 ,1,0.0,,,2,1,218,"No parties, smoking or pets. Feel free to enjoy the location and space, just be respectful, thank you! (My doorman will know if you are bringing people up to the apartment.)",
4668608,Beautiful Greenwich Village Loft,93654553121,unconfirmed,Nikolaos,Manhattan,Greenwich Village,40.729040000000005,-74.00129,United States,US,True,moderate,Entire home/apt,2019,$905 ,$181 ,4,2.0,4/13/2016,0.04,2,1,277,,
4669160,East Village sunny/new bedroom,42041286869,verified,Panayota,Manhattan,East Village,40.728790000000004,-73.97959,United States,US,True,strict,Private room,2010,$86 ,$17 ,1,1.0,1/1/2015,0.02,4,1,225,#NAME?,
4669713,Designer 1BD w/ backyard space,38158874385,unconfirmed,Matt + Allie,Manhattan,East Village,40.7223,-73.98128,United States,US,False,moderate,Entire home/apt,2019,$768 ,$154 ,1,2.0,8/31/2015,0.04,1,1,332,NO Smoking Pets Allowed with Fee,
4670265,Contemporary Luxury Studio Apartment,56032479598,verified,Aram,Brooklyn,Williamsburg,40.71975,-73.96285,United States,US,False,flexible,Entire home/apt,2009,$509 ,$102 ,30,16.0,4/19/2019,0.37,4,1,211,"Please remember that this is a residential building. The building rules, apartment occupancy restrictions and the year-round tenants must be respected.  Parties, pets and smoking are not allowed under any circumstances and incur significant fees.",
4670817,Sunny and Spacious Brooklyn Apartment,44301676652,unconfirmed,Annika,Brooklyn,Bedford-Stuyvesant,40.67958,-73.94581,United States,US,True,strict,Entire home/apt,2009,$658 ,$132 ,5,12.0,8/19/2018,0.24,4,1,290,"Please remember that this is a residential building. The building rules, apartment occupancy restrictions and the year-round tenants must be respected.  Parties and smoking are not allowed under any circumstances and incur significant fees. Pets may be considered with pre-approval and an additional pet fee.",
4671370,Spacious East Village Apartment,83860282795,verified,Nir,Manhattan,East Village,40.724540000000005,-73.98688,United States,US,False,strict,Private room,2011,$515 ,$103 ,1,41.0,7/24/2016,0.77,2,1,354,Professional building with professional behavior expectations!,
4671922,"Home Sweet Home!
Spring fling!",65649497438,unconfirmed,Roger,Manhattan,East Harlem,40.79637,-73.93370999999999,United States,US,False,flexible,Private room,2012,"$1,050 ",$210 ,2,151.0,7/2/2019,2.75,3,1,5,"We expect guests to treat our home as if it were their own. Be neat and clean, considerate, and respectful of both our home and our neighbors. There is NO smoking in the home, NO pets, NO drugs!!!",
4672474,Comfy apt next to Central Park!,48733567180,unconfirmed,Val,Manhattan,Upper West Side,40.77917,-73.97397,United States,US,True,flexible,Entire home/apt,2009,"$1,194 ",,1,1.0,2/4/2016,0.02,5,1,289,#NAME?,
4673026,"Room in Brooklyn, 20 min from Manh",74813159265,unconfirmed,Katya,Brooklyn,Prospect-Lefferts Gardens,40.65627,-73.95936,United States,US,True,strict,Private room,2005,$889 ,,3,50.0,6/20/2019,0.92,4,3,-10,,
4673579,Penthouse on Park Ave,19598119904,unconfirmed,Simon,Manhattan,Gramercy,40.73877,-73.98706999999999,United States,US,False,strict,Entire home/apt,2018,"$1,029 ",,30,2.0,3/22/2015,0.04,2,1,53,,
4674131,Lovely Bedroom in Trendy Brooklyn,71896616551,verified,Jiawen,Brooklyn,Bedford-Stuyvesant,40.67905,-73.95421999999999,United States,US,False,flexible,Private room,2006,"$1,044 ",,7,0.0,,,5,1,255,,
4674683,Bohemian Retreat in Williamsburg,69258619139,verified,Elani,Brooklyn,Williamsburg,40.70973,-73.96056,United States,US,True,moderate,Private room,2003,"$1,165 ",,1,0.0,,,4,1,81,,
4675236,BROOKLYN Authentic artsy LOFT :),25973871906,verified,Kasia,Brooklyn,Williamsburg,40.712340000000005,-73.96601,United States,US,False,strict,Private room,2009,"$1,119 ",,1,0.0,,,1,1,175,,
4675788,"Heart of Astoria, Spacious 2 bdrm, 15min to City!",9956513274,unconfirmed,Marnie,Queens,Astoria,40.76235,-73.9217,United States,US,False,flexible,Entire home/apt,2011,"$1,161 ",,14,0.0,,,5,1,230,"Our check in time is 3pm. If you would like to check in earlier please let us know ahead of time.   We are happy to accomidate if possible, but do understand that we need some time to make sure your room is ready on your arrival.  Clean up after yourself & turn lights off on our roof deck.  It is a common space in the building.    There is No Smoking in the apartment or on the roof deck.  Please no guests without checking with us. We have some nosy neighbors so if they ask where you are staying please let them know with friends or family.  Some of our neighbors are not happy with us using AirBNB.   Thank you for helping us out!",
4676340,Cozy 1-bedroom apt,5044166688,unconfirmed,Steven,Manhattan,Harlem,40.82291,-73.94171,United States,US,False,flexible,Entire home/apt,2004,$950 ,,2,49.0,6/30/2019,0.9,4,1,94,,
4676893,Bedroom in 19th Century Charmer - Clinton Hill,78452238516,verified,Sarah,Brooklyn,Clinton Hill,40.684509999999996,-73.96461,United States,US,False,strict,Private room,2011,$436 ,$87 ,2,6.0,5/23/2019,0.2,1,1,259,,
4677445,Restored Bungalow of Rockaway Beach,43665273538,verified,Maribel & Carolina,Queens,Rockaway Beach,40.58822,-73.81299,United States,US,False,moderate,Entire home/apt,2008,$979 ,$196 ,1,186.0,6/23/2019,3.35,4,1,374,,
4677997,Elegant Quiet Spacious 2BD Brownstone Brooklyn NYC,91693012535,verified,Kevin & Yuan,Brooklyn,Bedford-Stuyvesant,40.688109999999995,-73.92398,United States,US,True,moderate,Entire home/apt,2014,$754 ,$151 ,2,145.0,7/2/2019,2.62,3,2,303,,
4678549,True one bedroom,64922258256,unconfirmed,Eli,Manhattan,Upper East Side,40.77378,-73.95684,United States,US,True,strict,Entire home/apt,2010,"$1,019 ",$204 ,1,3.0,3/27/2016,0.07,3,1,397,,
4679102,Bohemian 1 Bedroom Loft with city view,55225809160,verified,Vida,Brooklyn,Greenpoint,40.72545,-73.94039000000001,United States,US,False,moderate,Entire home/apt,2006,$886 ,$177 ,30,2.0,8/15/2018,0.06,5,52,302,,
4679654,Morning Side Heights Private Room,359986989,unconfirmed,Nick,Manhattan,Harlem,40.81004,-73.95231,United States,US,False,strict,Private room,2005,$710 ,$142 ,1,1.0,1/3/2015,0.02,4,1,101,,
4680206,Charming West Harlem Apartment,60751712804,unconfirmed,Stephanie,Manhattan,Harlem,40.82796,-73.9505,United States,US,True,strict,Private room,2008,"$1,097 ",$219 ,1,0.0,,,5,1,-4,,
4680759,Cozy Private Room,75702389638,unconfirmed,Carol,Bronx,Williamsbridge,40.88016,-73.84923,United States,US,False,flexible,Private room,2012,"$1,154 ",$231 ,28,15.0,5/31/2019,0.3,1,4,8,"Shoes off in the house, please! Turn A/C off when not home, and hand-wash the knives. Thanks :).",
4681311,"Beautiful, sunny, large 1BD!",75617040353,verified,L & R,Brooklyn,Gowanus,40.66845,-73.99181,United States,US,True,moderate,Entire home/apt,2005,$835 ,$167 ,5,11.0,6/16/2019,0.24,1,1,187,,
4681863,Spacious 2 Bedroom apartment in Washington Heights,91292165162,verified,Matthias,Manhattan,Washington Heights,40.83729,-73.94372,United States,US,True,flexible,Entire home/apt,2008,$848 ,$170 ,30,10.0,6/30/2019,0.28,4,1,238,Parties and smoking are not allowed under any circumstances and incur significant fees. Pets may be considered with pre-approval and an additional pet fee.,
4682416,1A GREAT  APT NEW YORK CITY !!!,34517443969,unconfirmed,Julia,Manhattan,Midtown,40.74439,-73.98329,United States,US,False,moderate,Entire home/apt,2016,$863 ,$173 ,30,39.0,9/29/2018,0.72,1,4,181,"In the building you are my guest, know my name and our unit at all times or they will throw you out.  they don't care if you are from airbnb or the king of England, you don't know who you are here with they toss you.  Don't make a problem for the doorman under any circumstances (being drunk and locked out, call me not him).  He can't get you in.   There are some high rollers in the building, act like you have been there before :) There are some nice common areas, just act like the upstanding business professional you are.",
4682968,"Pvt room in 2br/1bath, Crown Hghts",32312006879,unconfirmed,Farai,Brooklyn,Crown Heights,40.66596,-73.9549,United States,US,False,strict,Private room,2014,"$1,007 ",$201 ,3,3.0,10/8/2018,0.08,4,1,140,,
4683520,Adorable sunny studio great area-For monthly stays,73593845939,unconfirmed,Jolie,Manhattan,Midtown,40.75235,-73.96781,United States,US,True,strict,Entire home/apt,2003,"$1,026 ",$205 ,30,2.0,8/11/2015,0.04,1,5,244,"House Rules  Please treat my home as if it were your own. Be respectful of me, my guests, and anyone you may encounter in the building. Please do NOT mention airbnb and that you are renting the unit.  No smoking (indoors or on the balcony). Please clean up after yourself, especially in the bathroom. Upon leaving, please put your trash in the chute and strip the linens of the bed. If you have any questions, please ask me. No parties or loud noises in the unit after 10 pm but the club lounge is 24 hours and you are welcome to relax and socialize on the 20th (URL HIDDEN) long as your respectful and not overly loud.   PLEASE ALSO BE MINDFUL OF NEIGHBORS.",
4684072,Roomy West Village Studio,56169325402,verified,Victoria,Manhattan,West Village,40.73245,-74.00275,United States,US,True,strict,Entire home/apt,2014,$114 ,$23 ,2,3.0,10/19/2015,0.06,5,1,125,,
4684625,"1 Bedroom - 1 Bathroom MIDTOWN,NYC",66741176072,verified,Eddie,Manhattan,Kips Bay,40.74317,-73.97508,United States,US,False,flexible,Entire home/apt,2007,$599 ,$120 ,1,0.0,,,2,1,370,,
4685177,Private Room in Hell's Kitchen NYC,13979157761,verified,Gaetano,Manhattan,Hell's Kitchen,40.755109999999995,-73.99247,United States,US,True,strict,Private room,2003,$949 ,$190 ,2,188.0,7/3/2019,4.01,5,1,233,Smoking is strictly prohibited. Your pets are welcome but please mind them. NO PARTIES ALLOWED.  EXCESSIVE NOISE IS STRICTLY PROHIBITED,
4685729,"Comfy 4br, 2 full baths, 3 fls, 2 living rooms",9244112212,verified,Hill,Brooklyn,Williamsburg,40.71262,-73.95026,United States,US,False,moderate,Entire home/apt,2004,$718 ,$144 ,2,20.0,6/23/2019,3.3,4,1,113,Strictly no smoking on property. Your pets are welcome but please mind them. NO PARTIES ALLOWED.  EXCESSIVE NOISE IS STRICTLY PROHIBITED,
4686282,Another Large Room in Midtown Apartment,44617030291,verified,Anthony,Manhattan,Kips Bay,40.74156,-73.97968,United States,US,True,flexible,Private room,2016,"$1,149 ",$230 ,30,37.0,12/1/2016,0.68,5,26,62,,
4686834,"Spacious 1 BDR in Astoria, Queens ",91504140760,unconfirmed,Zsuzsanna,Queens,Astoria,40.76457,-73.91205,United States,US,False,flexible,Entire home/apt,2012,$319 ,$64 ,2,2.0,5/24/2015,0.04,4,1,159,"Please treat my home as if it were your own. Be respectful of me, my cleaning lady,and anyone you may encounter in the building. No smoking (indoors or on the balcony). Please clean up after yourself, especially in the bathroom. Upon leaving, please put your trash in the chute and strip the linens off the bed. If you have any questions, please ask me.",
4687386,Charming Upper East Side Studio,13083513427,unconfirmed,Anupam,Manhattan,Upper East Side,40.77613,-73.9462,United States,US,True,moderate,Entire home/apt,2003,"$1,063 ",$213 ,10,12.0,7/20/2016,0.22,4,1,387,,
4687939,One Bed Room Apt In Midtown East,84016106234,unconfirmed,Kenneth,Manhattan,Midtown,40.75456,-73.96625999999999,United States,US,True,moderate,Entire home/apt,2006,$450 ,$90 ,2,11.0,4/24/2016,0.21,2,1,225,"Thank you for your reservation. By placing your reservation online you indicated that you accepted the terms and conditions which have been printed below.  Please review your reservation summary as below - then print, sign and return the agreement to:  (EMAIL HIDDEN) or fax it to (PHONE NUMBER HIDDEN) or  mail it to: Spare Suite, Inc., 119 Braintree Street, Suite 510, Boston, MA 02134, USA Upon receipt, we will send you the welcome document with check in instructions and how to get your keys. ------------------------------------------------------------------------ ------------------------------------------------------------------------ Terms of the Agreement: BOOKING AND REFUND POLICY Once booked your reservation is guaranteed for the check in and check out times and dates specified. All reservations must be paid in advance, in full for the entire period of stay.  All reservations are final, and NON REFUNDABLE UNDER ANY CIRCUMSTANCES.  If you feel you may need to cancel once booked, yo",
4688491,Fabulous bedroom in the heart of BK,87878295942,unconfirmed,Diego Fernando,Brooklyn,Bedford-Stuyvesant,40.68549,-73.94951,United States,US,False,moderate,Private room,2015,$530 ,$106 ,1,0.0,,,5,1,58,"Please no smoking in the house.  As we are working professionals we are hoping you can share this space while you visit and we'd love to chat with you, but no parties please.",
4689043,great location luxury buiding,23676748095,unconfirmed,Rachel,Manhattan,Hell's Kitchen,40.7646,-73.98799,United States,US,True,moderate,Entire home/apt,2007,$408 ,$82 ,1,0.0,,,1,1,122,,
4689595,Sugarhill  Studio,73455182077,verified,Angelina,Manhattan,Harlem,40.82775,-73.94313000000001,United States,US,True,moderate,Entire home/apt,2015,$79 ,$16 ,2,22.0,5/27/2019,0.48,2,1,93,- Check out by 10am,
4690148,Kosher Upper West Side Studio Apt,56209083270,unconfirmed,Chaz,Manhattan,Upper West Side,40.79331,-73.97537,United States,US,False,flexible,Entire home/apt,2013,$537 ,$107 ,4,15.0,4/27/2019,0.3,5,1,140,"Please remember that this is a residential building. The building rules, apartment occupancy restrictions and the year-round tenants must be respected.  Parties, pets and smoking are not allowed under any circumstances and incur significant fees.",
4690700,"Clean, New Private Garden Level Apartment in BKLYN",66692700455,verified,Aron,Brooklyn,Windsor Terrace,40.64865,-73.97946999999999,United States,US,True,flexible,Entire home/apt,2005,$937 ,$187 ,2,186.0,6/30/2019,3.55,5,2,144,Please pick up/drop packet with front desk concierge. ABSOLUTELY NO SMOKING!!,
4691252,"quiet, sunny, floor-through brownstone",79541022886,unconfirmed,David,Brooklyn,Prospect Heights,40.67995,-73.97021,United States,US,False,moderate,Entire home/apt,2012,$391 ,$78 ,3,5.0,5/8/2018,0.11,4,1,45,"Please remember that this is a residential building. The building rules, apartment occupancy restrictions and the year-round tenants must be respected.  Parties and smoking are not allowed under any circumstances and incur significant fees. Pets may be considered with pre-approval and an additional pet fee.",
4691805,Complete 1 bedroom near Columbia U,88150147322,verified,Martin,Manhattan,Harlem,40.80434,-73.95476,United States,US,True,strict,Entire home/apt,2003,$446 ,$89 ,3,9.0,7/16/2016,0.16,5,1,144,#NAME?,
4692357,Midtown East Lovely Nice Studio,14873458720,unconfirmed,Jolie,Manhattan,Midtown,40.75244,-73.96619,United States,US,False,moderate,Entire home/apt,2013,$906 ,$181 ,30,5.0,4/15/2017,0.1,1,5,327,"Some general information about the apartment. Please be respectful to the neighbors during your stay. Try to keep it relatively quite, especially at night. Strict no parties or entertainment policy. No additional guests are allowed outside of reservation. No smoking inside the apartment or hallway. No pets allowed in the apartment. Unfortunately no young children as the house is not equipped for children under 10.   When making a booking - please have a verified email address and phone number on your airbnb account. Respect and treat the apartment as your own and how you would expect others to treat yours. Please communicate with us as soon as possible, should something go wrong during your stay, so we can try to fix it as soon as possible. Once you've confirmed the booking, please respect the apartment and don't hesitate to make it your own. We want you to feel like you are at home, so to sum it all up.. don't do things you wouldn't do at your own place We look forward to welcoming yo",
4692909,Loft Studio Near UN Building-30 days min stay,62742227517,verified,Jolie,Manhattan,Midtown,40.75248,-73.96695,United States,US,True,moderate,Entire home/apt,2018,$958 ,$192 ,30,3.0,3/15/2016,0.06,1,5,112,"Please remember that this is a residential building. The building rules, apartment occupancy restrictions and the year-round tenants must be respected.  Parties and smoking are not allowed under any circumstances and incur significant fees. Pets may be considered with pre-approval and an additional pet fee.",
4693462,"Cozy, CLEAN & SAFE room",38981653284,verified,Cesar,Queens,East Elmhurst,40.76313,-73.88368,United States,US,False,moderate,Private room,2012,$587 ,$117 ,1,55.0,7/7/2019,1.21,2,1,9,"To be helpful to you, I have prepared detailed arrival information and send that to you a few days before you arrive. I ask that you read the info carefully to help you enjoy your stay and ask that you send me a note indicating you have read all the information before your day of arrival. Thanks!",
4694014,Monthly studio-heart of Manhattan,37299328781,verified,Jolie,Manhattan,Midtown,40.75427,-73.96689,United States,US,True,strict,Entire home/apt,2006,$542 ,$108 ,30,2.0,5/8/2019,0.05,4,5,97,"Please remember that this is a residential building. The building rules, apartment occupancy restrictions and the year-round tenants must be respected.  Parties, pets and smoking are not allowed under any circumstances and incur significant fees.",
4694566,Entire Basement + Yard Access.,6177242104,unconfirmed,Jessi,Brooklyn,Bushwick,40.704679999999996,-73.92863,United States,US,False,flexible,Shared room,2018,"$1,007 ",$201 ,1,0.0,,,2,1,252,,
4695118,Cozy 1BD close to Prospect Park,71722067412,verified,Sakina,Brooklyn,Crown Heights,40.67033,-73.95262,United States,US,True,strict,Private room,2012,$960 ,$192 ,1,0.0,,,3,1,63,"Please remember that this is a residential building. The building rules, apartment occupancy restrictions and the year-round tenants must be respected. Parties, pets and smoking are not allowed under any circumstances and incur significant fees.",
4695671,Spacious Sunny Brooklyn Sanctuary,59451423648,unconfirmed,Anna,Brooklyn,Clinton Hill,40.689170000000004,-73.96545,United States,US,True,moderate,Private room,2005,"$1,018 ",$204 ,14,2.0,8/16/2015,0.04,2,1,125,Smoking is strictly prohibited. Your pets are welcome but please mind them. NO PARTIES ALLOWED.  EXCESSIVE NOISE IS STRICTLY PROHIBITED,
4696223,Private Roof 4 bedroom 2.5Baths 15m to Manhattan,26785691947,unconfirmed,Joe,Brooklyn,Bushwick,40.697109999999995,-73.93373000000001,United States,US,False,strict,Entire home/apt,2006,$175 ,$35 ,3,125.0,6/23/2019,3.42,4,1,372,"wash your dishes, turn off the AC and lights when you leave, keep noise to a minimum after 10pm",
4696775,beautiful ROOFTOP apartment,29474620034,verified,Aljosha,Brooklyn,Bushwick,40.688759999999995,-73.90824,United States,US,False,flexible,Private room,2014,"$1,134 ",$227 ,17,0.0,,,3,2,14,Smoking is allowed on balcony and other designated areas. Your pets are welcome but please mind them. NO PARTIES ALLOWED.  EXCESSIVE NOISE IS STRICTLY PROHIBITED.,
4697328,Big & Bright near Park & Museum,72502568630,unconfirmed,Joshua,Brooklyn,Crown Heights,40.6794,-73.9616,United States,US,False,strict,Private room,2013,$182 ,$36 ,4,1.0,7/8/2015,0.02,5,1,240,Smoking is strictly prohibited. Your pets are welcome but please mind them. NO PARTIES ALLOWED.  EXCESSIVE NOISE IS STRICTLY PROHIBITED,
4697880,Times Square Cozy Studio,45514451149,unconfirmed,Jolie,Manhattan,Hell's Kitchen,40.76497,-73.98854,United States,US,True,moderate,Entire home/apt,2020,$102 ,$20 ,30,4.0,6/11/2018,0.11,1,5,363,#NAME?,
4698432,"Private room in cozy, large UWS apt",16777607502,verified,Stephanie,Manhattan,Upper West Side,40.7915,-73.96696999999999,United States,US,False,flexible,Private room,2016,$891 ,$178 ,3,6.0,5/31/2019,0.15,3,1,154,,
4698985,Cozy room in Prospect Heights,18506454010,unconfirmed,David,Brooklyn,Prospect Heights,40.67904,-73.97289,United States,US,False,strict,Private room,2013,$594 ,$119 ,13,8.0,3/13/2019,0.19,4,3,199,,
4699537,EPIC east village room!,54478494530,unconfirmed,Nathan,Manhattan,East Village,40.727709999999995,-73.98549,United States,US,False,strict,Private room,2009,$380 ,$76 ,7,0.0,,,4,1,311,,
4700089,"Quiet retreat, peaceful stay",51790649230,unconfirmed,Wesly/Jessica,Brooklyn,Crown Heights,40.672340000000005,-73.92721,United States,US,False,strict,Private room,2021,$261 ,$52 ,2,50.0,6/5/2019,2.26,5,4,388,,
4700641,affordable and convenient Manhattan studio,78029448387,verified,Leslie,Manhattan,Upper West Side,40.80123,-73.96248,United States,US,False,strict,Entire home/apt,2019,$263 ,$53 ,10,29.0,7/2/2019,0.54,3,1,336,No pets. No smoking.,
4701194,"Elegant NYC, 10mins to Manhattan!",86372264052,verified,Catherine,Queens,Long Island City,40.76308,-73.92843,United States,US,True,flexible,Private room,2018,$957 ,$191 ,4,21.0,10/6/2018,0.41,2,1,12,,
4701746,Amazing Artist Loft,33399153549,unconfirmed,Tanda,Brooklyn,South Slope,40.66442,-73.99047,United States,US,True,moderate,Entire home/apt,2018,$100 ,$20 ,2,8.0,6/16/2019,0.23,3,3,59,Smoking is strictly prohibited. Your pets are welcome but please mind them. NO PARTIES ALLOWED.  EXCESSIVE NOISE IS STRICTLY PROHIBITED,
4702298,Studio Apartment in Midtown,28349632024,verified,Leandro,Manhattan,Hell's Kitchen,40.765570000000004,-73.98745,United States,US,False,flexible,Entire home/apt,2003,$524 ,$105 ,2,16.0,12/21/2016,0.31,4,1,197,,
4702851,Perfect private studio in NYC,2159369263,verified,Kaori,Manhattan,East Harlem,40.7945,-73.94298,United States,US,True,moderate,Entire home/apt,2003,$121 ,$24 ,5,2.0,9/26/2015,0.04,5,1,77,,
4703403,Comfy & Cozy in Best Hood in Bk,21607893784,verified,Alexandra,Brooklyn,Fort Greene,40.68864,-73.97669,United States,US,True,moderate,Private room,2019,$465 ,$93 ,5,47.0,5/6/2019,0.85,5,2,372,The home is not suitable for pets or children under 11,
4703955,A Mini Home Away From Home,41659613110,unconfirmed,Wendy,Brooklyn,Bedford-Stuyvesant,40.68383,-73.95298000000001,United States,US,False,moderate,Private room,2012,$148 ,$30 ,3,5.0,1/6/2016,0.09,2,1,338,,
4704508,Lofty Brownstone Floor-Through,629188137,unconfirmed,Danny,Brooklyn,Cobble Hill,40.686170000000004,-73.99632,United States,US,False,flexible,Entire home/apt,2006,$938 ,$188 ,10,1.0,5/6/2016,0.03,4,1,110,,
4705060,1 BR in Spacious 4 BR duplex,69047382570,unconfirmed,Aaron,Brooklyn,Bushwick,40.70295,-73.91354,United States,US,True,flexible,Private room,2015,$490 ,$98 ,1,1.0,4/2/2016,0.03,5,1,58,"First and foremost, treat this house like you would like your guests to respect and treat yours. No shoes in the house (slippers will be provided to you upon your arrival). Clean up after yourself & turn lights off whenever leaving a space, specially on our roof deck.  There is no smoking in the apartment or on the roof deck. Guests are not allowed to have other guests come over.",
4705612,Sunny & Cozy 1 Bedroom Apartment,17251019882,unconfirmed,Sophia,Brooklyn,Bedford-Stuyvesant,40.68675,-73.93749,United States,US,True,strict,Entire home/apt,2006,$750 ,$150 ,2,3.0,9/18/2015,0.06,4,1,79,Be courteous to neighbors. No parties. No smoking. No pets. No hanging around on front porch.,
4706164,Room in Airy Williamsburg Apt,19178297982,unconfirmed,Jennifer,Brooklyn,Williamsburg,40.70816,-73.94244,United States,US,True,flexible,Private room,2009,$556 ,$111 ,1,7.0,5/31/2016,0.13,3,1,98,,
4706717,"Amazing 2BR (5) UES, (MIN 30 DAYS)",97799541168,unconfirmed,Elem,Manhattan,Upper East Side,40.77427,-73.95325,United States,US,False,moderate,Entire home/apt,2014,$376 ,$75 ,30,8.0,4/23/2019,0.28,5,15,259,"1. Only the ORIGINAL OCCUPANTS at the time of booking are allowed to stay in the property overnight and secondly no additional guest will be brought in without prior authorization. 2. Excessive NOISE & DISTURBANCES, specifically on work nights (Sunday thru Thursday) are to be kept to a minimum after 10pm. On other nights of the week we ask that noise is kept to a controlled, restrained and respectable level do to the nature of this being a shared space.  3. SMOKING is not permitted in any of the inside premises, this includes the guest room, condo unit and building. You may smoke outside on the sidewalk. 4. DAMAGES to the property and it's contents (within the bedroom and the condo itself) will be subject to reinstitution in accordance to airbnb rules and regulations and may lead to the immediate dismissal from the property. 5. WASHER & DRYER is available for use by the guest free of charge, but under the condition that we (the host) are present at the time of use. In an effort to cons",
4707269,NYC Duplex + Terrace in East 60s,25642074147,verified,Lindsay,Manhattan,Upper East Side,40.761720000000004,-73.96074,United States,US,False,moderate,Entire home/apt,2008,$477 ,$95 ,3,7.0,7/24/2016,0.13,5,1,343,"* Guest booking room, must be the person staying in room. DO NOT book room for somebody else! Thanks! * No smoking and pets are not allowed in the building. Also, only guests listed on the booking are allowed in this house. Sorry, friends and family are not allowed inside the house. For your safety, and mine. :) Lost keys will result in a $75 fee to replace the locks in the house.",
4707821,Cozy room in Brooklyn!!,14157561492,verified,Patrick,Brooklyn,Bedford-Stuyvesant,40.69253,-73.94681,United States,US,False,strict,Private room,2003,$709 ,$142 ,1,0.0,,,5,1,267,,
4708374,Luxury Building $80 per night,47887898797,verified,Brian,Manhattan,Financial District,40.70373,-74.00827,United States,US,False,moderate,Private room,2008,$392 ,$78 ,4,2.0,8/29/2016,0.06,4,1,252,I have no time restraints on Guests. Come and go as you please.,
4708926,Cozy Affordable Room Available In NYC!!,85144816181,verified,Olga,Manhattan,Washington Heights,40.84359,-73.94134,United States,US,True,strict,Private room,2005,$290 ,$58 ,3,23.0,6/29/2019,0.43,1,1,426,"1. Only the ORIGINAL OCCUPANTS at the time of booking are allowed to stay in the property overnight and secondly no additional guest will be brought in without prior authorization. 2. CHECK IN/OUT: We typically follow the standard check in and out times (4 p.m., 11 p.m. respectively) however we're flexible and can accommodate your needs as long as it doesn't impact another renter if you have special check-in or out times. There is a keypad lock and each renter will receive their own passcode so you can come and go as you please and not worry about keys or timing. 3. Excessive NOISE & DISTURBANCES, specifically on work nights (Sunday thru Thursday) are to be kept to a minimum after 10 pm. On other nights of the week we ask that noise is kept to a controlled, restrained and respectable level do to the nature of this being a shared space. 4. SMOKING is not permitted in any of the inside premises, this includes the guest room, condo unit and building. You may smoke outside in the street or",
4709478,Lovely 2 Bedroom Family Apartment Close to City,89590786853,unconfirmed,Karen,Queens,Elmhurst,40.746320000000004,-73.88681,United States,US,False,flexible,Entire home/apt,2021,$923 ,$185 ,2,58.0,6/14/2019,2.1,4,5,3,"1. Only the ORIGINAL OCCUPANTS at the time of booking are allowed to stay in the property overnight and secondly no additional guest will be brought in without prior authorization. 2. CHECK IN/OUT: We typically follow the standard check in and out times (4 p.m., 11 p.m. respectively) however we're flexible and can accommodate your needs as long as it doesn't impact another renter if you have special check-in or out times. There is a keypad lock and each renter will receive their own passcode so you can come and go as you please and not worry about keys or timing. 3. Excessive NOISE & DISTURBANCES, specifically on work nights (Sunday thru Thursday) are to be kept to a minimum after 10 pm. On other nights of the week we ask that noise is kept to a controlled, restrained and respectable level do to the nature of this being a shared space. 4. SMOKING is not permitted in any of the inside premises, this includes the guest room, condo unit and building. You may smoke outside in the street or",
4710031,Perfectly Located UpperWest Futon,32271542970,verified,Isabel,Manhattan,Upper West Side,40.795840000000005,-73.96381,United States,US,True,flexible,Shared room,2006,$164 ,$33 ,2,134.0,5/23/2019,2.48,1,2,361,No outdoor shoes within the apartment and loud noises.,
4710583,Cat-sit in our Awesome Apartment!,39978879455,verified,Kelly,Brooklyn,Bedford-Stuyvesant,40.68235,-73.94634,United States,US,False,moderate,Entire home/apt,2009,"$1,080 ",$216 ,7,3.0,12/30/2015,0.05,5,1,421,To keep house and house items in the same condition that they were when guests arrived,
4711135,Spacious and light-filled Manhattan apartment,44759558921,verified,Florence,Manhattan,Upper West Side,40.79228,-73.97414,United States,US,True,strict,Entire home/apt,2021,$728 ,$146 ,14,0.0,,,4,1,261,"No pets and no smoking (including outside near the entrance, as it sometimes blows back into the building). Please remove your shoes when entering (we have sensitive floors :)). Thank you!",
4711687,Private room for 2 in cool BK apt,57283494414,verified,Phil,Brooklyn,Kensington,40.644690000000004,-73.97086,United States,US,False,moderate,Private room,2007,$342 ,$68 ,14,0.0,,,2,1,171,No smoking or pets allowed and we request that you respect our neighbors by observing quiet hours between 9 p.m. and 8 a.m.  We also request that you do not invite other guests over without our permission.  No shoes allowed in the house.  Please treat our home as you would treat yours!,
4712240,"Big, bright Park Slope 2.5 bedroom!",87680065630,unconfirmed,Ainsley,Brooklyn,South Slope,40.66437,-73.9823,United States,US,False,moderate,Entire home/apt,2017,$318 ,$64 ,3,14.0,7/22/2017,0.25,3,1,222,"Please let me know a head your checking in and checking out  time. I request the guest to be respectable. Only the guest is allowed to stay in the room, pets and smoking not allowed. Please shut off all lights and electrical appliances when you not using the premises.",
4712792,Spacious Apt in Bushwick,86050711739,verified,Daniel,Brooklyn,Bushwick,40.70092,-73.92945,United States,US,True,moderate,Entire home/apt,2016,"$1,056 ",$211 ,1,1.0,1/4/2015,0.02,5,1,366,"Check In/ Check Out: Flexible regarding to check in time, but please give notice ahead of time to make sure your check in goes smoothly. Would like to be there to greet you, but often times are away. If so, will leave you the keys for self check in. Please refer to check out time as 12PM and inquire if you require a different check out time. Parking: There is a dedicated off-street parking spot for ONE car only. More than one car in parking area is strictly prohibited. Any extra vehicles will need to go in a nearby parking garage.  Shoes Off: Please kindly take your shoes off at the entrance. Smoking: There is strictly no smoking in or outside of the house. Bring Home guests: Please inform ahead of time if you would like to bring friends to the house. Kitchen Use: Please keep kitchen use to prepare snacks or coffee/tea. Party/Drinking: Please be responsible if you are to consume alcoholic beverages. Kindly clean up your messes and leave a clean space. Parties are strictly prohibited.",
4713344,Bright Comfy Room in East Village,87030572015,verified,Micheline,Manhattan,East Village,40.72503,-73.97695999999999,United States,US,True,moderate,Private room,2015,$595 ,$119 ,2,5.0,6/8/2017,0.14,2,1,334,"Please, no smoking or parties in the home.",
4713897,Lovley loft in Williamsburg!,15462810605,unconfirmed,Golsana,Brooklyn,Williamsburg,40.7091,-73.94279,United States,US,False,strict,Entire home/apt,2009,$203 ,$41 ,3,18.0,5/29/2019,0.33,4,1,426,Be courteous to neighbors. No parties. No smoking. No pets. No hanging around on front porch.,
4714449,Modern Living,12954936718,unconfirmed,Chi,Brooklyn,Williamsburg,40.707770000000004,-73.94816,United States,US,False,flexible,Private room,2005,$927 ,$185 ,4,3.0,11/9/2018,0.21,2,1,248,"Please, no smoking and /or parties. This is my home, I would like my home to be treated with the utmost care and respect by all the wonderful individuals I host as a member of the Air BnB network. Thank you!",
4715001,Cozy 1 Bedroom Apt In Great Location!,57944559998,unconfirmed,Mel,Manhattan,Upper East Side,40.77493,-73.95874,United States,US,False,moderate,Entire home/apt,2007,$493 ,$99 ,3,130.0,7/1/2019,2.36,5,1,258,,
4715554,Cozy Room in Crown Heights,35247438032,verified,Cristina,Brooklyn,Crown Heights,40.669340000000005,-73.94976,United States,US,False,flexible,Private room,2010,$678 ,$136 ,1,0.0,,,5,1,101,"This is our home, please be respectful, we only accept reservations of those which the profile requesting the room represents. Thank you for your cooperation and respect for our rule.",
4716106,Times Square Midtown Mahattan Room,892500435,unconfirmed,Kai,Manhattan,Kips Bay,40.742459999999994,-73.9767,United States,US,False,strict,Private room,2016,$356 ,$71 ,1,5.0,11/3/2015,0.11,2,1,345,"Please Note: This unit was just gut-renovated in May 2015 and it comfortably accommodates 4 guests, but up to 5 guests are permitted if you so desire (two guests in each bedroom and 1 guest on the available air mattress). Please request an air mattress (if needed) when making a reservation. No smoking, no pets, no parties, and must be 25 years old to book.   For check-out, please ensure: -  All plates and cups are left in the sink or dishwasher -  All trash is left in the kitchen trash can or bagged and left next to the trash can (additional bags are under the sink) -  All windows are closed and locked -  If used, the air mattresses are deflated and put away (please leave used linens for the air mattresses on the floor) -  If furniture was moved during your stay, please return to its original location Please be mindful to our neighbors in the building; quiet hours after 10pm. Please be considerate of our next guests who will be staying after you, if something is broken or needs fixing,",
4716658,2 Bedrooom- near Columbus Circle,79074626152,unconfirmed,Paul,Manhattan,Midtown,40.766090000000005,-73.98038000000001,United States,US,True,moderate,Entire home/apt,2011,$619 ,$124 ,1,0.0,,,2,1,406,"This house is used year round, so please no smoking. Pets are unfortunately not allowed.",
4717210,Bright & Spacious GP/N Williamsburg,85809220085,verified,Phoebe,Brooklyn,Greenpoint,40.731759999999994,-73.95371,United States,US,False,moderate,Private room,2003,"$1,129 ",$226 ,4,6.0,1/1/2017,0.11,5,1,388,To keep the house and house items in the same condition they were when they arrived,
4717763,Spacious Sunny 2 Bedroom Close to the Subway!,71748423405,verified,Lindsey,Brooklyn,Bedford-Stuyvesant,40.68515,-73.91981,United States,US,False,flexible,Entire home/apt,2010,$601 ,$120 ,14,33.0,6/30/2019,0.72,5,1,417,,
4718315,Studio - Midtown East,35025648241,verified,Myles,Manhattan,Murray Hill,40.747679999999995,-73.97561999999999,United States,US,True,flexible,Private room,2014,$199 ,$40 ,1,0.0,,,3,1,201,"Please respect all personal property/possessions on the premises. The house is the primary residence of the owner and his wife: it is not a primary rental space, vacation home, etc.  Smoking: Absolutely NO SMOKING in the house, on the deck, or in the backyard. Any evidence of smoking on the premises will result in the loss of your security deposit. Pets: The house has 2 glass sliders leading out to the deck and private backyard. One of the sliders (it is fixed - do NOT try to slide it) has an installed doggy door, capable of accommodating a small dog (less than 25 pounds) or a cat. You are welcome to have your WELL-BEHAVED, HOUSE-BROKEN small dog or cat stay at the house for a small additional fee ($25/day); however, you must provide more details about your pet's needs PRIOR to renting the house.  Evidence of an unapproved pet stay will result in the loss of your security deposit.  Thank you for your respectful consideration!",
4718867,1BR apartment in the heart of SoHo,77114927696,unconfirmed,Brian,Manhattan,Greenwich Village,40.728120000000004,-73.99983,United States,US,False,strict,Entire home/apt,2016,$495 ,$99 ,2,11.0,5/22/2017,0.22,5,1,350,"We expect guests to be mindful of the neighbors, especially during evening hours.",
4719420,Sunlit Room in Brooklyn Brownstone,94285948397,unconfirmed,Jillian,Brooklyn,Clinton Hill,40.6868,-73.96517,United States,US,False,strict,Private room,2017,$272 ,$54 ,5,1.0,7/7/2016,0.03,4,1,229,,
4719972,"Furnished room with Bed, Closet, TV",90725335218,verified,Subramanian,Queens,Ozone Park,40.683370000000004,-73.8431,United States,US,False,strict,Private room,2007,"$1,024 ",$205 ,1,0.0,,,3,1,56,"I expect guests to treat my home as if it were their own. Be neat and clean, considerate, and respectful of both my home and my neighbors. There is NO additional guests permitted! There is NO smoking in the home, NO pets, NO drugs!!! NO food in the bedroom!! Shoes are to be take off upon entry!!",
4720524,Loft in Brooklyn / Clinton Hill,76353913247,verified,Alex,Brooklyn,Clinton Hill,40.683479999999996,-73.96394000000001,United States,US,True,flexible,Entire home/apt,2020,$304 ,$61 ,5,0.0,,,1,1,159,,
4721077,Charming & sunny studio apartment,74877280319,verified,Michael,Manhattan,Harlem,40.82376,-73.94492,United States,US,False,strict,Entire home/apt,2022,$381 ,$76 ,25,16.0,7/1/2019,0.3,4,1,392,,
4721629,bright and clean! vintage style!,57836246981,verified,Alex,Brooklyn,Red Hook,40.67627,-74.00625,United States,US,True,moderate,Private room,2004,$359 ,$72 ,1,58.0,6/14/2019,1.15,4,1,150,"Mutual respect and low maintenance. If you need to do your own thing and just need a place to crash, I'm totally cool with that - I will not take up any of your time like I know some share-hosts like to do.",
4722181,Cozy Lower East Side Apartment,18883154883,verified,Kelly,Manhattan,Lower East Side,40.72229,-73.98913,United States,US,False,moderate,Entire home/apt,2008,$194 ,$39 ,1,0.0,,,1,1,385,No partying or guests who are not booked in the house. Respect my home and treat it with care. Please remove shoes inside the home. Thanks!,
4722733,Astoria Gem: 15min. From Manhattan,16904369944,unconfirmed,Adreanna,Queens,Astoria,40.76042,-73.92073,United States,US,True,moderate,Entire home/apt,2012,$604 ,$121 ,1,3.0,5/15/2015,0.06,1,1,259,"Please Note: This unit was just gut-renovated in May 2015 and it comfortably accommodates 8 guests (two guests in each bedroom and/or guest(s) on the available air mattresses). Please request an air mattress (if needed) when making a reservation. No smoking, no pets, no parties, and must be 25 years old to book.   For check-out, please ensure: -  All plates and cups are left in the sink or dishwasher -  All trash is left in the kitchen trash can or bagged and left next to the trash can (additional bags are under the sink) -  All windows are closed and locked -  If used, the air mattresses are deflated and put away (please leave used linens for the air mattresses on the floor) -  If furniture was moved during your stay, please return to its original location Please be mindful to our neighbors in the building; quiet hours after 10pm. Please be considerate of our next guests who will be staying after you, if something is broken or needs fixing, please let me know, as I have an arsenal of ",
4723286,Walk everywhere! Soho Charm. Bargain *NOW* Nolita,97013726035,unconfirmed,Maxi,Manhattan,Nolita,40.72351,-73.99627,United States,US,True,moderate,Entire home/apt,2003,$672 ,$134 ,3,0.0,,,5,1,118,"Since this is our permanent residence and not just a house we own to rent out, we very much hope our guests will treat it as it were their own and be kind and respectful of the space and our personal property in the home.  Please no parties or events and be aware that the upstairs neighbors have access to the backyard as that is shared space.  Taking your shoes off in the house keeps the floors and carpets clean.  Small, quiet pets will be considered upon request.",
4723838,HUGE SUNNY SUITE w Private Entrance 3 min to city,33920790248,unconfirmed,T-Po,Brooklyn,Williamsburg,40.71895,-73.95604,United States,US,True,flexible,Private room,2014,$821 ,$164 ,2,39.0,6/13/2019,0.71,2,1,150,,
4724390,Spacious Apt-1 BDRM & Office,29358750951,unconfirmed,Spencer,Manhattan,East Village,40.72999,-73.98764,United States,US,True,strict,Private room,2008,$961 ,$192 ,1,0.0,,,3,1,208,We're flexible on check-in/checkout times,
4724943,Comfortable and Cozy!,8469981782,unconfirmed,Sheila,Manhattan,Harlem,40.828990000000005,-73.95024000000001,United States,US,True,moderate,Private room,2019,"$1,143 ",$229 ,1,9.0,6/30/2019,0.19,2,1,23,"• Check-in time is 5PM. • No parties or events • Not suitable for pets • No smoking •I'd ask guests to respect my privacy and not walk down to the lower level where I stay.  •No parties, this is a quiet building with all working professionals. •You ABSOLUTELY cannot just show up at my property without a reservation. •Please be respectful of noise levels at all times. Do not slam doors, play music loud, yell, etc.. •I also ask guests to pick up after themselves if they want to use the kitchen/dining areas.  •No smoking please.",
4725495,Private bedroom,69821660739,verified,Giorgi,Manhattan,East Harlem,40.78712,-73.95365,United States,US,False,moderate,Private room,2019,"$1,032 ",$206 ,1,39.0,6/16/2017,0.91,5,1,376,We are flexible on check-in/checkout times,
4726047,"Spacious, sunlit room w/balconies by Central Park",92732351908,unconfirmed,Sonam And Roommates,Manhattan,Upper West Side,40.776920000000004,-73.97977,United States,US,True,flexible,Private room,2012,$888 ,$178 ,1,34.0,7/2/2019,0.71,3,1,130,"House Rules: We are seeking responsible and respectful guests for our property, as this is our home when you are not staying.  Please do not smoke in the apartment, no pets and no parties. Please be mindful to our neighbors in the building; quiet hours after 10pm.  Check In/ Check Out:  We are flexible regarding to check in time, but please notice us ahead of time to make sure your check in goes smoothly.  We would like to be home to greet you, however we maybe away or at work. If so, we will leave you the keys for self check in. Please refer check out time as 11AM and kindly inquire if you require a different check out time. For check-out, please ensure: - All plates and cups are left in the sink or dishwasher - All trash is left in the kitchen trash can or bagged and left in the trash can on the back porch (additional bags are under the sink if needed) - All windows are closed - If furniture was moved during your stay, please return to its original location Strict cancellation polici",
4726600,New Large 1 Bedroom East Village,19851286447,unconfirmed,Christopher,Manhattan,Stuyvesant Town,40.72912,-73.97624,United States,US,True,strict,Entire home/apt,2022,$840 ,$168 ,4,0.0,,,1,1,112,No parties No smoking,
4727152,Large private room in the sky,24841104463,unconfirmed,Jun,Brooklyn,Williamsburg,40.71114,-73.94438000000001,United States,US,True,strict,Private room,2015,$930 ,$186 ,1,1.0,5/19/2015,0.02,5,1,279,No smoking. Please respect our unit and our neighbors.,
4727704,Modern fully furnished bedroom,92829536773,verified,Barry,Brooklyn,Bushwick,40.70037,-73.92820999999999,United States,US,True,strict,Private room,2012,"$1,118 ",$224 ,4,2.0,7/2/2018,0.07,4,1,174,• Check-in time is 3PM. Clean and respectable . No party animals,
4728256,"103rd st/lex/clean, Comfort and big  room",47632058493,verified,Mj,Manhattan,East Harlem,40.791129999999995,-73.94792,United States,US,False,moderate,Private room,2020,$69 ,$14 ,5,7.0,5/14/2018,0.22,5,1,399,Please be respectful of our home!,
4728809,Queen Room in Penthouse Fidi Apt,34723026728,unconfirmed,Herbie,Manhattan,Financial District,40.70465,-74.00773000000001,United States,US,True,moderate,Private room,2010,$868 ,$174 ,1,1.0,1/1/2015,0.02,2,1,295,,
4729361,Perfect 2-bedroom in the best part of Williamsburg,25789471557,unconfirmed,Angelina,Brooklyn,Williamsburg,40.71983,-73.96465,United States,US,True,flexible,Entire home/apt,2008,$75 ,$15 ,30,0.0,,,4,1,5,,
4729913,1 Bedroom apartment with Backyard,68624126710,unconfirmed,Oketo,Brooklyn,Bushwick,40.68843,-73.91577,United States,US,False,strict,Private room,2004,"$1,044 ",$209 ,1,0.0,,,5,2,283,"Keep in mind that you are staying in our home with us, this is not a rental property. No smoking. Please be mindful of others in our building with noise and late-night entry. No outside guests aside from those you list as staying with us. ",
4730466,Beautiful Room by Central Park,9215849874,unconfirmed,Lisa,Manhattan,Upper West Side,40.77773,-73.97764000000001,United States,US,True,flexible,Private room,2003,$368 ,$74 ,1,1.0,6/22/2015,0.02,3,1,425,,
4731018,"Super spacious cozy one-bedroom apartment, Astoria",32180662122,unconfirmed,Milena,Queens,Astoria,40.769740000000006,-73.91819,United States,US,False,strict,Entire home/apt,2006,$809 ,$162 ,14,8.0,1/3/2019,0.15,4,1,287,"Please be courteous of our neighbors!  We love them all and hope you do to! On requesting a reservation of the apartment please extend to us a description of your visit, with whom you will be traveling, and your arrival time.  Also, please make certain your picture is uploaded on to your profile.  We give preference for those who have verifications.  On confirmation of your booking, we will email to you the address, entry instructions, and other pertinent instructions.  Airbnb will collect the entire amount at the time of your reservation confirmation including the security deposit (which will be released 48 hours after your checkout date).  Our cancellation policy is strict and any cancellation outside of seven days in advance will allow for a 50 percent refund.   There will be a contract exchange for this property which will include keeping noise to respectful level, no more than six renters at a time (without express permission/acceptance from the hosts).   Guests must have a credit",
4731570,Cozy Queen BR in Hell's Kitchen,19792042730,verified,Rosalia,Manhattan,Hell's Kitchen,40.764509999999994,-73.9882,United States,US,True,strict,Private room,2008,$376 ,$75 ,1,0.0,,,3,1,51,,
4732123,"Chill 2B UWS, close to A,C,E/1,2,3",12903602557,verified,Robert,Manhattan,Upper West Side,40.80107,-73.96065,United States,US,False,flexible,Entire home/apt,2009,$462 ,$92 ,1,1.0,3/16/2016,0.02,3,1,320,- Please respect noise levels after 9pm,
4732675,1 Bedroom Apt. in Nolita/Chinatown,26526055256,unconfirmed,Bobby,Manhattan,Little Italy,40.71763,-73.99753,United States,US,True,strict,Entire home/apt,2003,$126 ,$25 ,2,6.0,4/17/2017,0.12,1,1,411,"1. Only the ORIGINAL OCCUPANTS at the time of booking are allowed to stay in the property overnight and secondly no additional guest will be brought in without prior authorization. 2. Excessive NOISE & DISTURBANCES, specifically on work nights (Sunday thru Thursday) are to be kept to a minimum after 10pm. On other nights of the week we ask that noise is kept to a controlled, restrained and respectable level do to the nature of this being a shared space. 3. SMOKING is not permitted in any of the inside premisses. You may smoke outside on the outdoor patio. 4. DAMAGES to the property and its contents (within the bedroom and the condo itself) will be subject to reinstitution in accordance to airbnb rules and regulations and may lead to the immediate dismissal from the property. 5. NO PETS allowed. 6. ENERGY: We are very energy-conscious, and ask that you turn off lights and other energy-using items when you leave the house for the day. 7. The CLEANING FEE covers the maintenance of the sha",
4733227,"Quiet, Modern Gem in LES w balcony!",63498256136,unconfirmed,Claire,Manhattan,Lower East Side,40.71942,-73.98605,United States,US,True,moderate,Entire home/apt,2008,$95 ,$19 ,2,0.0,,,3,1,97,,
4733779,Spacious Chinatown/LES 2 Bedroom,26457394757,unconfirmed,Mara,Manhattan,Lower East Side,40.7182,-73.99325999999999,United States,US,False,moderate,Entire home/apt,2008,$698 ,$140 ,6,0.0,,,4,1,42,No pets or shoes at home,
4734332,Well-kept Studio/♥ of Chelsea,47505695676,verified,Ra-Ey,Manhattan,Chelsea,40.74583,-74.00405,United States,US,True,moderate,Entire home/apt,2012,$259 ,$52 ,3,7.0,7/12/2017,0.13,1,1,-9,No pets. No smoking.,
4734884,Spacious 1BR By Prospect Park,65219770668,unconfirmed,Oded,Brooklyn,Prospect-Lefferts Gardens,40.662440000000004,-73.95813000000001,United States,US,False,moderate,Entire home/apt,2004,$929 ,$186 ,1,44.0,5/8/2016,0.8,3,1,138,"This is not a house for parties! There are two other units in the town house so noise should be kept controlled at night and in the mornings (especially when out on the deck or entering/exiting the building). Furnishings and construction are only three years old, respect and cleanliness is asked for.",
4735436,"Huge, Sunny Bedroom in Bushwick",39986601551,unconfirmed,Ronnie,Brooklyn,Bushwick,40.690909999999995,-73.91402,United States,US,True,strict,Private room,2015,$359 ,$72 ,4,19.0,11/15/2018,0.35,1,2,221,,
4735989,Cozy Bedroom in hip Williamsburg,62999786306,verified,Javier,Brooklyn,Williamsburg,40.70765,-73.95116,United States,US,True,flexible,Private room,2004,$190 ,$38 ,4,13.0,6/14/2016,0.24,4,2,394,#NAME?,
4736541,2 bed / 2 bath East Village top floor AMAZING,30006163989,verified,Sophie,Manhattan,East Village,40.72551,-73.98541999999999,United States,US,True,flexible,Entire home/apt,2022,$357 ,$71 ,10,4.0,8/31/2018,0.08,5,1,140,"No parties, no extra guests, no pets, no smoking. Please treat this space and our neighbors with respect.",
4737093,Two Bedrooms in Chelsea Apartment,69885602945,verified,Arian,Manhattan,Chelsea,40.74372,-73.99682,United States,US,False,moderate,Private room,2008,"$1,179 ",$236 ,1,0.0,,,2,1,142,"Check-in is after 3PM Some general information about the apartment. Please try to keep it relatively quite, especially at night. Strict no parties or entertainment policy. No additional guests are allowed outside of reservation. No smoking inside the apartment or hallway. No pets allowed in the apartment. Unfortunately no young children as the house is not equipped for children under 10.   When making a booking - please have a verified email address and phone number on your airbnb account. Respect and treat the apartment as your own and how you would expect others to treat yours. Please communicate with us as soon as possible, should something go wrong during your stay, so we can try to fix it as soon as possible. Once you've confirmed the booking, please respect the apartment and don't hesitate to make it your own. We want you to feel like you are at home, so to sum it all up.. don't do things you wouldn't do at your own place We look forward to welcoming you and have a great time in ",
4737646,East Village Beauty,26959094556,verified,Raanan,Manhattan,East Village,40.72829,-73.98071999999999,United States,US,False,moderate,Entire home/apt,2006,"$1,100 ",$220 ,30,8.0,8/14/2018,0.18,4,9,275,"I prefer guests who are in town for a reason (work or sight-seeing, etc) so they are out & about all day & in to the evening, not hanging around the condo all day.  I require my guests to leave for the day by 10AM & not return before 4PM. Please obey check-in (4PM) & check-out times (10AM). I need time to clean up after prior guest to get ready for your stay. No pets. No parties, this is a quiet building with all working professionals. When using the kitchen facilities, I ask that you tidy up after yourself (dishes in dishwasher, wipe counters down, trash in the trash barrel, etc...) and if you spill anything on the floor/furniture, please clean up after yourself.",
4738198,Beautiful Boerum Hill apartment!,23056213813,unconfirmed,Brady,Brooklyn,Boerum Hill,40.688959999999994,-73.98961,United States,US,False,strict,Entire home/apt,2007,$245 ,$49 ,5,2.0,10/12/2015,0.04,4,1,110,,
4738750,Perfect room/Great Safe Location 20mins to TimesSq,84341491148,unconfirmed,Ari,Manhattan,East Harlem,40.78804,-73.94906,United States,US,True,strict,Private room,2010,"$1,056 ",$211 ,1,142.0,6/1/2019,2.81,2,4,276,My unit is one of 3 in the building.  My place is penthouse level so please just be considerate of my neighbors downstairs.,
4739302,Basement apartment in bedstuy,28600985876,unconfirmed,Randy,Brooklyn,Bedford-Stuyvesant,40.68266,-73.95031999999999,United States,US,True,moderate,Entire home/apt,2013,"$1,016 ",$203 ,1,23.0,7/5/2019,1.99,5,15,2,"Internet, cable and central air included in stay. No smoking allowed in the apartment - - may smoke on the deck if cigarettes are appropriately disposed (and not flicked over the deck). Please be considerate of neighbors.  Not a party house! There are 5 other units in the building so noise should be kept controlled at night and in the mornings (especially when out on the deck). All plates and cups should be left in the sink or dishwasher and all trash should be left in the trash can (additional bags are under the sink if you need more space). If furniture is moved during your stay, please return to its original location. Please be considerate of our next guests who will be staying after you, if something is broken or needs fixing, please let me know immediately so that I can replace it.",
4739855,A Crown Heights Holiday,31773256527,unconfirmed,Leanne,Brooklyn,Crown Heights,40.672779999999996,-73.95688,United States,US,True,flexible,Private room,2013,$828 ,$166 ,1,1.0,1/4/2015,0.02,3,2,396,"Check in/out: We typically follow the standard check in and out times (4 p.m., 11 a.m. respectively) however I'm extremely flexible and can accommodate your needs as long as it doesn't impact another renter if you have special check-in or out times.  There is a keypad lock and each renter will receive their own passcode so you can come and go as you please and not worry about keys or timing.   Pets:  I don't have any pets living at the home but I am a dog lover and know it can be difficult to find accommodations for your 4-legged family members.  Pets are welcome but please be respectful of the furniture and floors and clean up after them. Smoking:  There is no cigarette smoking in the home or on the property as there have been concerns with cigarette butts creating a fire hazard on the deck.  Please contact me if you need to discuss for your specific situation. Lock doors/windows at all times:  While the area is safe, it is still an urban environment and doors/windows need to be locke",
4740407,Clinton Hill Guest Room,74203672074,verified,Rudy And Joan,Brooklyn,Clinton Hill,40.689240000000005,-73.96453000000001,United States,US,False,strict,Private room,2009,$506 ,$101 ,3,0.0,,,3,1,44,"Guests will be in my personal residence. I take great pride in my home. I ask that guest treat my home with the highest of respect. Please, no strangers or parties will be allowed! Thank you",
4740959,Cozy 1BR in Brooklyn Heights,53963877088,unconfirmed,Natalie,Brooklyn,Brooklyn Heights,40.69191,-73.99331,United States,US,True,strict,Entire home/apt,2003,$779 ,$156 ,2,1.0,1/3/2015,0.02,2,1,299,"Please Note: This unit was just gut-renovated in May 2015 and it comfortably accommodates 4 guests, but up to 5 guests are permitted if you so desire (two guests in each bedroom and 1 guest on the available air mattress). Please request an air mattress (if needed) when making a reservation. No smoking, no pets, no parties, and must be 25 years old to book.   For check-out, please ensure: -  All plates and cups are left in the sink or dishwasher -  All trash is left in the kitchen trash can or bagged and left next to the trash can (additional bags are under the sink) -  All windows are closed and locked -  If used, the air mattresses are deflated and put away (please leave used linens for the air mattresses on the floor) -  If furniture was moved during your stay, please return to its original location Please be mindful to our neighbors in the building; quiet hours after 10pm. Please be considerate of our next guests who will be staying after you, if something is broken or needs fixing,",
4741512,Spacious Williamsburg Home,70324782196,verified,Agatha,Brooklyn,Williamsburg,40.71411,-73.9495,United States,US,True,moderate,Entire home/apt,2021,$700 ,$140 ,2,9.0,12/28/2017,0.2,4,1,264,,
4742064,Cesco's House,7728300644,verified,Francesco,Brooklyn,Bedford-Stuyvesant,40.68886,-73.95212,United States,US,False,flexible,Entire home/apt,2012,$72 ,$14 ,2,6.0,4/24/2018,0.29,3,1,336,,
4742616,"STUNNING 1BD BRIGHT UNIT, RENOVATED",2074123038,unconfirmed,Mike,Manhattan,Hell's Kitchen,40.76719,-73.98533,United States,US,False,strict,Entire home/apt,2015,$391 ,$78 ,30,6.0,8/9/2017,0.12,3,52,-10,"1. Only the ORIGINAL OCCUPANTS at the time of booking are allowed to stay in the property overnight and secondly no additional guest will be brought in without prior authorization. 2. CHECK IN/OUT: The standard check in and out times are 4 p.m., 12 p.m., respectively. However we're flexible and can accommodate your needs as long as it doesn't impact another renter if you have special check-in or out times. There is a keypad lock and each renter will receive their own passcode so you can come and go as you please and not worry about keys or timing. 3. Excessive NOISE & DISTURBANCES, specifically on work nights (Sunday thru Thursday) are to be kept to a minimum after 10 pm. On other nights of the week we ask that noise is kept to a controlled, restrained and respectable level do to the nature of this being a shared space. 4. SMOKING is not permitted in any of the inside premises, this includes the guest room, condo unit and building. You may smoke outside in the street or on the outdoor ",
4743169,Room for rent in Sheepshead bay,66649213933,verified,Dasha,Brooklyn,Sheepshead Bay,40.584140000000005,-73.95489,United States,US,False,strict,Private room,2022,$140 ,$28 ,2,0.0,,,3,1,117,"Clean, no house parties, no smoking, respectful of owner's home :)",
4743721,Huge Loft In heart of Bushwick,20359838501,unconfirmed,Greg,Brooklyn,Bushwick,40.70516,-73.91946,United States,US,True,moderate,Entire home/apt,2022,$242 ,$48 ,7,2.0,9/27/2015,0.04,1,1,17,,
4744273,Cozy Quiet Apt 10min to Manhattan,41512350572,verified,Andy,Queens,Astoria,40.7643,-73.92636999999999,United States,US,False,strict,Entire home/apt,2015,$756 ,$151 ,7,5.0,10/4/2016,0.1,3,1,189,,
4744825,1 Bedroom in Bushwick APT,34464079902,verified,Sam,Brooklyn,Bushwick,40.701409999999996,-73.91781999999999,United States,US,True,strict,Private room,2022,$925 ,$185 ,1,0.0,,,4,1,127,,
4745378,Charming apt in beautiful Brooklyn!,46254686640,unconfirmed,Paul,Brooklyn,Bedford-Stuyvesant,40.6804,-73.93183,United States,US,True,flexible,Entire home/apt,2007,$188 ,$38 ,7,53.0,10/28/2018,1.12,4,2,68,"Please Note: This unit was just gut-renovated in May 2015 and it comfortably accommodates 2 couples. No smoking, no pets, no parties, and must be 25 years old to book.   For check-out, please ensure: -  All plates and cups are left in the sink or dishwasher -  All trash is left in the kitchen trash can or bagged and left next to the trash can (additional bags are under the sink) -  All windows are closed and locked -  If used, the air mattresses are deflated and put away (please leave used linens for the air mattresses on the floor) -  If furniture was moved during your stay, please return to its original location Please be mindful to our neighbors in the building; quiet hours after 10pm. Please be considerate of our next guests who will be staying after you, if something is broken or needs fixing, please let me know, as I have an arsenal of tools and enjoy fixing things.",
4745930,Currently Not Avail,90246742681,unconfirmed,Agel,Brooklyn,Williamsburg,40.70969,-73.94925,United States,US,False,moderate,Entire home/apt,2007,$685 ,$137 ,1,0.0,,,1,1,284,#NAME?,
4746482,2 Bedroom midcentury Brooklyn Brownstone apartment,19091565585,verified,Ajay,Brooklyn,Crown Heights,40.6776,-73.94918,United States,US,True,flexible,Entire home/apt,2006,$372 ,$74 ,2,15.0,3/24/2019,0.27,4,1,353,#NAME?,
4747035,Comfortable Room in Great Location,57681684226,verified,Cam,Brooklyn,Prospect Heights,40.67935,-73.96911999999999,United States,US,False,flexible,Private room,2004,"$1,080 ",$216 ,3,1.0,9/15/2018,0.1,5,3,98,"Please , no smoking,parties or noise that may disturb the neighbors.",
4747587,Modern & luxurious close to trains,20878589076,unconfirmed,Nick,Queens,Ozone Park,40.685590000000005,-73.8496,United States,US,False,flexible,Entire home/apt,2004,$437 ,$87 ,2,129.0,6/30/2019,2.33,5,1,220,,
4748139,Amazing Brooklyn Heights 2BR+patio,29784492601,verified,Andrei,Brooklyn,Brooklyn Heights,40.69454,-73.99547,United States,US,False,moderate,Entire home/apt,2008,$812 ,$162 ,5,0.0,,,5,1,386,,
4748692,Apartment Downtown New York,63513403924,unconfirmed,Wen,Manhattan,Stuyvesant Town,40.73001,-73.97579,United States,US,False,flexible,Private room,2003,$111 ,$22 ,1,0.0,,,2,1,300,Please be respectful of the driveway and do not park in the driveway or anywhere on Barrett Ave ( as all spots are assigned to residents)  Parking on M street is fine!,
4749244,Cozy UWS room with amazing Hudson view,8948484384,unconfirmed,Corina E.,Manhattan,Upper West Side,40.77904,-73.98899,United States,US,True,flexible,Private room,2016,$284 ,$57 ,1,24.0,5/18/2019,0.46,1,3,394,No smoking inside. Please go in our backyard if you need to smoke. No pets.,
4749796,Cozy Spacious Apartment,71720497044,verified,Christian,Brooklyn,Midwood,40.629709999999996,-73.95069000000001,United States,US,True,strict,Entire home/apt,2010,"$1,126 ",$225 ,3,1.0,1/2/2015,0.02,2,1,86,"There will be no pets, parties or smoking allowed on the premises.",
4750348,"Brooklyn luxury bldg, with rooftop and balcony!",57850249826,verified,Michelle,Brooklyn,Crown Heights,40.6785,-73.96041,United States,US,True,strict,Entire home/apt,2013,$273 ,$55 ,1,7.0,10/30/2016,0.2,1,1,44,No pets. No smoking. Please :),
4750901,Great location with private access & private bath,81166413156,unconfirmed,Corinne,Brooklyn,Bushwick,40.70583,-73.91658000000001,United States,US,True,strict,Private room,2006,$199 ,$40 ,10,4.0,7/13/2018,0.27,5,1,84,,
4751453,Beautiful apartment in Bushwick,2195569636,verified,Arikia,Brooklyn,Bushwick,40.69986,-73.9298,United States,US,False,strict,Entire home/apt,2004,$887 ,$177 ,3,30.0,1/1/2018,0.54,4,1,265,"It's our house. So we'd like no extra visitors unless you ask in advance. Weekdays we like it quiet after 10.  Smoke if you must, but on the back deck please.       Oh yeah, enjoy yourself. That's required.",
4752005,Entire One-Bedroom Apartment Near Columbia Univers,94681988010,verified,John,Manhattan,Morningside Heights,40.80442,-73.96338,United States,US,False,strict,Entire home/apt,2017,$866 ,$173 ,5,3.0,1/2/2016,0.06,4,1,406,I expect guest to be kind and do not party at the house. I am on the other hand would love to provide any advice and conversation what is possible in Boston and how to enjoy the time in South Boston. ,
4752558,Cozy Room - Best Manhattan Location,69785692232,verified,Jeana Paola,Manhattan,Upper East Side,40.762029999999996,-73.96183,United States,US,True,strict,Private room,2015,$780 ,$156 ,1,0.0,,,1,1,40,,
4753110,Entire 1 Bedroom 1 Bath Central Park APT,76460214615,verified,Kathy,Manhattan,Upper West Side,40.7838,-73.97266,United States,US,False,flexible,Entire home/apt,2022,$380 ,$76 ,2,47.0,6/8/2019,0.92,2,1,191,"- No smoking inside the house, we have a porch out back :), no pets",
4753662,Location is Everything!,80596126979,unconfirmed,Shailah,Manhattan,Upper West Side,40.78866,-73.96908,United States,US,True,strict,Private room,2021,$753 ,$151 ,2,157.0,6/23/2019,2.95,3,1,370,* Please be considerate of our neighbors * Loud music and parties are not permitted * No smoking * No pets allowed,
4754215,Happy Brooklyn! Happy Konakolo!,5709990277,unconfirmed,Hanayo,Brooklyn,South Slope,40.66003,-73.98567,United States,US,True,moderate,Entire home/apt,2021,$899 ,$180 ,3,73.0,6/18/2019,1.34,3,1,264,,
4754767,Huge Classic Williamsburg 2BR loft,3921945043,verified,Shuang,Brooklyn,Williamsburg,40.72104,-73.96034,United States,US,False,flexible,Entire home/apt,2014,$162 ,$32 ,2,75.0,6/17/2019,1.5,2,1,116,,
4755319,Beautiful light cozy apartment,86317654573,verified,Carmen,Queens,Astoria,40.75741,-73.92509,United States,US,True,strict,Entire home/apt,2015,$994 ,$199 ,1,0.0,,,3,1,88,No smoking or pets in the home due to potential allergies of future guests.,
4755871,Large room in Uptown Manhattan near Cloisters,72574072548,unconfirmed,Irina,Manhattan,Inwood,40.866479999999996,-73.92754000000001,United States,US,False,strict,Entire home/apt,2009,$522 ,$104 ,1,5.0,9/1/2016,0.11,5,1,60,,
4756424,NEW LISTING-Great for Traveler! Duplx 3 Bdrm/2 Bth,85361078849,unconfirmed,Quincy,Brooklyn,Bedford-Stuyvesant,40.68662,-73.9479,United States,US,False,strict,Entire home/apt,2020,$110 ,$22 ,2,23.0,7/2/2019,3.47,4,1,240,The apartment is our home 365 days of the year - we rent it only select weekends when we are away so please respect the neighbors in our building and the belongings we love. If you smoke please do so on the street. There is no smoking allowed inside the apartment or on the decks due to fire safety. We cannot accommodate guests with pets.,
4756976,Spacious Studio Apartment,75277802180,verified,Logan,Manhattan,Upper East Side,40.78335,-73.94821999999999,United States,US,False,flexible,Entire home/apt,2006,$187 ,$37 ,1,2.0,10/25/2017,0.09,2,1,15,,
4757528,"Spacious, Cozy 1 Bedroom",5355120971,unconfirmed,Lenore,Brooklyn,Flatbush,40.649190000000004,-73.96129,United States,US,False,strict,Entire home/apt,2011,$588 ,$118 ,1,3.0,6/5/2016,0.07,2,1,119,"Please be respectful of my home and treat the space as if it were your own. No guests No Smoking Always turn off lights when leaving space Please clean up after yourself Always lock door when leaving and after arriving Please observe quiet hours between midnight and 7 am. Upon check-out, please leave sheets + towels on the floor of the bedroom and return key. Check in 3pm: flexible Check out 11am: strict",
4758081,"Cozy room in Queens, 20 min to NYC",7542744068,unconfirmed,Jessica,Queens,Elmhurst,40.745129999999996,-73.8825,United States,US,False,flexible,Private room,2008,"$1,189 ",$238 ,3,12.0,4/28/2019,0.37,2,2,190,"I expect guests to treat my home as if it were their own.  Be neat and clean, considerate, and  respectful of both my home and my neighbors. There is NO additional guests permitted! NO parties! There is NO smoking in the home, NO pets, NO drugs!!! NO food in the bedrooms!! Shoes are to be take off upon entry!!",
4758633,Private Room in Prime Brooklyn Spot,37134049761,verified,Donna And Joaquin,Brooklyn,Boerum Hill,40.68983,-73.99114,United States,US,False,moderate,Private room,2010,$741 ,$148 ,1,168.0,6/30/2019,3.11,2,1,78,"Make yourself at home, and of course, feel free to use anything in the house, but please be respectful of the space and make sure to put things back in their rightful locations. Please wash any pots/pans/dishes that you use.  No guests outside of those identified in your party. We also kindly ask that you keep loud noise to a minimum in the late evening and, needless to say, parties are not permitted.",
4759185,Private room on Upper East Side,48675696923,unconfirmed,Forest,Manhattan,Upper East Side,40.783429999999996,-73.94764,United States,US,False,strict,Private room,2021,$68 ,$14 ,1,51.0,6/11/2019,0.93,1,2,267,,
4759738,"Brooklyn.  Room,  private bath & private entrance",40388872291,unconfirmed,Audrey,Brooklyn,Sunset Park,40.64605,-74.00338,United States,US,True,strict,Private room,2021,"$1,028 ",$206 ,22,16.0,6/2/2019,0.29,5,3,350,,
4760290,2BD loft with 180 Manhattan view,11681371276,verified,Sibin,Brooklyn,Greenpoint,40.72996,-73.95302,United States,US,True,flexible,Entire home/apt,2012,$419 ,$84 ,6,1.0,1/3/2019,0.16,3,1,122,"1. Please let me know  ahead your arrival, checking out time and if you will need a parking spot, so I can plan accordingly. 2. Please keep in mind that the checking in is any time after 4 pm and checking out is by 11 am. Earlier check in and late check out must be arranged with me in advance.  3. I request the guest to be respectable and quiet specially after 10 pm. There's absolutely no parties,pets and smoking not allowed.  Please shut off all lights and electrical appliances including AC when you are not using the premises and be sure that the entry door is locked all the time.",
4760842,Charming Brooklyn Getaway,38962080752,verified,Azza,Brooklyn,Bedford-Stuyvesant,40.692679999999996,-73.95575,United States,US,False,flexible,Private room,2004,"$1,063 ",$213 ,2,6.0,5/20/2019,0.12,3,1,367,,
4761394,"Quite Room, Private Bath Easy Tra!",50305156146,verified,Luis Enrique,Brooklyn,Bedford-Stuyvesant,40.6815,-73.91266999999999,United States,US,True,moderate,Private room,2013,$470 ,$94 ,30,3.0,1/2/2016,0.05,4,5,112,"WHEN BOOKING, PLEASE PROVIDE THE FOLLOWING IN YOUR MESSAGE to me:  - 1. Total number of guests (adults, children, babies)? Are there any elderly or children under 18? If so, what are their ages?  - 2. Arrival Date AND Time of Check In? (Check In between 2 pm and 9 pm with some leniency)  - 3. Departure Date (Check out before 12 pm/noon ideally)  - 4. Please tell me a little about yourselves and the purpose of your trip.  - 5. What Other Needs or Special Requests or Extra Options (please read below for additional options and possible related additional fees).  ------  PLEASE NOTE THE FOLLOWING BEFORE REQUESTING A BOOKING:  * I will reply as soon as possible to let you know if my apartment will be available for ALL your needs.  - 1. We are happy to host Friendly, Neat, Low-Maintainence Adults & Well-Behaved Children.  ---- All cookware and utensils in the kitchen are at your disposal. There will be water (brita) and basic condiments provided for you. We ask that you rinse whatever dishes",
4761947,Sunny apt in heart of The Village!,45379132713,verified,Eric,Manhattan,Greenwich Village,40.729040000000005,-74.00116,United States,US,False,moderate,Entire home/apt,2014,$840 ,$168 ,3,0.0,,,5,1,180,No pets. No smoking. Please :),
4762499,Sunny and Spacious Brooklyn Apt,50474364429,unconfirmed,Ruth,Brooklyn,Crown Heights,40.67006,-73.9553,United States,US,True,flexible,Private room,2020,$185 ,$37 ,1,10.0,1/2/2017,0.18,2,2,128,#NAME?,
4763051,Room in Down town Brooklyn Parkslop,18902701683,verified,Akim,Brooklyn,Boerum Hill,40.6832,-73.98109000000001,United States,US,True,strict,Private room,2013,$79 ,$16 ,1,0.0,,,1,1,395,This is my 2 family house and upstairs in the 2nd apartment I have other tenants who are great. ,
4763604,Gorgeous quiet & central NYC apt!,20911036726,unconfirmed,Tamara,Manhattan,Hell's Kitchen,40.76736,-73.98383000000001,United States,US,True,moderate,Entire home/apt,2011,$288 ,$58 ,2,8.0,9/24/2017,0.15,3,1,74,"1. Only the ORIGINAL OCCUPANTS at the time of booking are allowed to stay in the property overnight and secondly no additional guest will be brought in without prior authorization. 2. Excessive NOISE & DISTURBANCES, specifically on work nights (Sunday thru Thursday) are to be kept to a minimum after 10pm. On other nights of the week we ask that noise is kept to a controlled, restrained and respectable level do to the nature of this being a shared space.  3. SMOKING is not permitted in any of the inside premisses, this includes the guest room, condo unit and building. You may smoke outside in the street or on the outdoor patio. 4. DAMAGES to the property and it's contents (within the bedroom and the condo itself) will be subject to reinstitution in accordance to airbnb rules and regulations and may lead to the immediate dismissal from the property. 5. WASHER & DRYER is available for use by the guest free of charge but under the condition that we (the host) are present at the time of use",
4764156,Beautiful & Cozy true 2 Bedroom in SoHo/Nolita,46980814993,unconfirmed,Vane,Manhattan,Nolita,40.72011,-73.99465,United States,US,False,flexible,Entire home/apt,2021,$169 ,$34 ,3,2.0,1/2/2019,0.08,3,2,83,"1. Only the ORIGINAL OCCUPANTS at the time of booking are allowed to stay in the property overnight and secondly no additional guest will be brought in without prior authorization. 2. Excessive NOISE & DISTURBANCES, specifically on work nights (Sunday thru Thursday) are to be kept to a minimum after 10pm. On other nights of the week we ask that noise is kept to a controlled, restrained and respectable level do to the nature of this being a shared space.  3. SMOKING is not permitted in any of the inside premisses, this includes the guest room, condo unit and building. You may smoke outside in the street or on the outdoor patio. 4. DAMAGES to the property and it's contents (within the bedroom and the condo itself) will be subject to reinstitution in accordance to airbnb rules and regulations and may lead to the immediate dismissal from the property. 5. WASHER & DRYER is available for use by the guest free of charge but under the condition that we (the host) are present at the time of use",
4764708,Private Room - 2 blocks from Central Park,41606389532,unconfirmed,Leandro,Manhattan,East Harlem,40.7951,-73.94716,United States,US,True,flexible,Private room,2014,$290 ,$58 ,2,88.0,5/27/2019,2.03,1,2,406,,
4765261,2 bdrms in 3 Bdrm Lovely Brownstone,39764522495,unconfirmed,Nina,Brooklyn,Bedford-Stuyvesant,40.69627,-73.94371,United States,US,False,moderate,Entire home/apt,2007,$936 ,$187 ,5,9.0,11/24/2018,0.17,3,3,144,,
4765813,Williamsburg Brooklyn Apartment,94476993219,verified,Andrew And Clara,Brooklyn,Williamsburg,40.71396,-73.94021,United States,US,True,flexible,Entire home/apt,2011,$564 ,$113 ,4,9.0,7/18/2016,0.16,3,1,94,"There will be a contract exchange for this property which will include such things as keeping noise to respectful level, no more than six renters at a time, no pets, no smoking.  Must have a credit card to put on file in case of damages.  Must provide copy of license or passport. **All people are counted including infants toward the number in your group *** We will decline alterations that are made after you check in the unit.  We follow the cancelation policy. **** Lost keys will be charged a $200 fee *****No parties",
4766365,Bright Beautiful Spacious 1 bedroom,32340707101,verified,Sara,Brooklyn,Crown Heights,40.66948,-73.95156999999999,United States,US,False,strict,Entire home/apt,2007,$244 ,$49 ,15,0.0,,,2,1,122,,
4766917,"Private room, 10min to Times Square",75807757073,verified,Jonathan,Queens,Long Island City,40.74282,-73.94994,United States,US,True,flexible,Private room,2021,$382 ,$76 ,2,116.0,5/25/2019,2.1,5,1,392,"As this is our personal living space, we request that there be no smoking indoors and that you treat our belongings with respect. Pets are allowed, provided they are well behaved and low shedding :) We own a dog (who will not be on premises during your stay), who does shed, although we will have the place cleaned prior to your arrival. However, anyone with potential allergies should be aware.  If it would be possible, we would greatly appreciate if guests would provide water for our plants a couple of times during their stay. There are only 4 total and they are conveniently located right in the kitchen. Three are herb plants (basil, thyme and aloe) and you are welcome to use any while you are there!",
4767470,"Classic Tenement 1BR, Center of LES",9235551676,unconfirmed,Michael,Manhattan,Chinatown,40.71633,-73.99133,United States,US,False,flexible,Entire home/apt,2006,$679 ,$136 ,1,0.0,,,2,1,348,No smoking.  No pets.,
4768022,2 Bedroom Apt in downtown Brooklyn,67038961770,unconfirmed,Brook,Brooklyn,Fort Greene,40.692029999999995,-73.97088000000001,United States,US,False,flexible,Entire home/apt,2015,"$1,180 ",$236 ,4,0.0,,,2,1,380,"1. Only the ORIGINAL OCCUPANTS at the time of booking are allowed to stay in the property overnight and secondly no additional guest will be brought in without prior authorization. 2. Excessive NOISE & DISTURBANCES, specifically on work nights (Sunday thru Thursday) are to be kept to a minimum after 10pm. On other nights of the week we ask that noise is kept to a controlled, restrained and respectable level do to the nature of this being a shared space.  3. SMOKING is not permitted in any of the inside premisses, this includes the guest room, condo unit and building. You may smoke outside in the street or on the outdoor patio. 4. DAMAGES to the property and it's contents (within the bedroom and the condo itself) will be subject to reinstitution in accordance to airbnb rules and regulations and may lead to the immediate dismissal from the property. 5. WASHER & DRYER is available for use by the guest free of charge but under the condition that we (the host) are present at the time of use",
4768574,Garden Spot in Bushwick,60661230618,verified,Bradley,Brooklyn,Bushwick,40.702529999999996,-73.91889,United States,US,True,flexible,Private room,2007,$311 ,$62 ,4,0.0,,,3,1,383,"Please enjoy your stay while also respecting the apartment. Please no smoking, no guests except those on reservation, and no parties. Thank you and enjoy!",
4769127,Beautiful Apt in Prime NY Location,712744901,unconfirmed,Julie,Manhattan,Hell's Kitchen,40.76332,-73.9863,United States,US,True,strict,Entire home/apt,2007,"$1,179 ",$236 ,2,0.0,,,4,1,410,No pets. No smoking.,
4769679,Bright + Stylish *THREE* Bedroom BK Apt Near Train,58231723653,unconfirmed,Faye + Amiyr,Brooklyn,Bedford-Stuyvesant,40.68175,-73.9153,United States,US,True,strict,Entire home/apt,2014,$370 ,$74 ,3,209.0,6/18/2019,3.79,3,1,112,,
4770231,LUXURY PRIVATE MANHATTAN APARTMENT,48433439952,unconfirmed,Andy,Manhattan,East Harlem,40.807320000000004,-73.93972,United States,US,True,flexible,Entire home/apt,2004,$896 ,$179 ,7,0.0,,,2,1,320,,
4770784,"Sunny, spacious bedroom with a view",27429500489,verified,Hillela,Brooklyn,Gowanus,40.68234,-73.98168000000001,United States,US,True,strict,Private room,2011,$177 ,$35 ,1,2.0,4/25/2015,0.04,5,1,3,,
4771336,Large 1 Bedroom Artist Loft in the Lower East Side,77367896205,verified,Sarah,Manhattan,Lower East Side,40.71951,-73.98449000000001,United States,US,True,moderate,Entire home/apt,2012,$895 ,$179 ,5,131.0,1/1/2019,2.4,5,1,101,"Make yourself at home, and of course, feel free to use anything in the house, but please be respectful of the space and make sure to put things back in their rightful locations. Please wash any pots/pans/dishes that you use.  Please, no smoking in the property whatsoever. Please, no guests outside of those identified in your party. We also kindly ask that you keep loud noise to a minimum in the late evening and, needless to say, parties are not permitted.",
4771888,Artists Home with Large  Sunny Backyard+Parking,94160481169,unconfirmed,Lee,Brooklyn,Williamsburg,40.7077,-73.94785,United States,US,True,flexible,Entire home/apt,2008,$155 ,$31 ,6,8.0,1/2/2019,0.16,3,1,426,"My main rule is mutual respect. Please keep all personal items intact as this is my main residence. There's plenty of space for your comfort. If something breaks or doesn't work, please let me know. It may not be valuable, but I'd like to have it fixed for the next guest. Out of respect to the neighbors, no parties please. There are 3 other units in the condo building and they're all working professionals. Please take care of the hardwood floors and the hallway walls. Don't drag bags across the floors or scuff the hallways. Pets and smoking are not allowed. Must have a credit card to put on file in case of damages. Must provide copy of license or passport, as well as names of all guests. ",
4772440,A writer's den in Nolita ...,55626719096,unconfirmed,Brock,Manhattan,SoHo,40.722190000000005,-73.99741999999999,United States,US,False,strict,Entire home/apt,2015,$547 ,$109 ,1,49.0,7/29/2016,0.94,5,1,129,Guest are to be respectful to the other tenants and keep noise levels down. No smoking in the building or the unit.,
4772993,"Modern, south facing and spacious UWS 1BR",96787352177,verified,Max,Manhattan,Upper West Side,40.77669,-73.97695999999999,United States,US,True,flexible,Entire home/apt,2015,$755 ,$151 ,31,1.0,4/1/2015,0.02,5,1,138,,
4773545,"Spacious,  3 bedrooms, 2 bath",7014284857,verified,Victoria,Manhattan,Inwood,40.864940000000004,-73.92671999999999,United States,US,True,moderate,Entire home/apt,2012,"$1,112 ",$222 ,4,3.0,10/8/2018,0.06,4,2,23,"Please be courteous of our neighbors! We love them all and hope you do to! Sorry but we absolutely cannot have loud parties or excessive drinking in the house. On requesting a reservation of the apartment please extend to us a description of your visit, with whom you will be traveling, and your arrival time. Also, please make certain your picture is uploaded on to your profile. We give preference for those who have verifications. On confirmation of your booking, we will email to you the address, entry instructions, and other pertinent instructions. Airbnb will collect the entire amount at the time of your reservation confirmation including the security deposit. Our cancellation policy is strict and any cancellation outside of 30 days in advance will allow for no refund. There will be a contract exchange for this property which will include keeping noise to respectful level, general house rules, etc. These rules must be signed in order for us to accommodate you. Guests must have a credi",
4774097,LARGE COZY STUDIO BEST LOCATION - PARADISIAC OASIS,74801800053,unconfirmed,Mio,Manhattan,West Village,40.739329999999995,-74.00313,United States,US,False,moderate,Entire home/apt,2007,"$1,042 ",$208 ,4,40.0,6/24/2019,0.83,5,1,84,,
