id,NAME,host id,host_identity_verified,host name,neighbourhood group,neighbourhood,lat,long,country,country code,instant_bookable,cancellation_policy,room type,Construction year,price,service fee,minimum nights,number of reviews,last review,reviews per month,review rate number,calculated host listings count,availability 365,house_rules,license
45737636,1 Bed&Bath in heart of Bushwick (20mintoManhattan),24360475392,verified,Maddie,Brooklyn,Bushwick,40.70565,-73.92492,United States,US,False,moderate,Private room,2005,$597 ,$119 ,2,10.0,11/12/2018,0.4,3,1,18,,
45738188,2 Large Bedroom Apt in quiet Forest Hills,18287573611,unconfirmed,Mike,Queens,Forest Hills,40.72428,-73.85155999999999,United States,US,False,strict,Entire home/apt,2007,$428 ,$86 ,2,0.0,,,1,1,0,"No shoes in the apartment, please",
45738741,1 bedroom apt,21205237321,verified,Andrea,Queens,Astoria,40.76473,-73.91183000000001,United States,US,True,moderate,Entire home/apt,2006,$121 ,$24 ,1,5.0,12/17/2017,0.23,2,1,0,"This is a quiet and primarily owner occupied building, kindly be respectful of the neighbors...and please no smoking!",
45739293,Room in Full Floor East Village Apt!,88641151683,verified,Adonis,Manhattan,East Village,40.72715,-73.98623,United States,US,False,flexible,Private room,2020,"$1,070 ",$214 ,1,39.0,6/2/2019,1.65,5,7,350,#NAME?,
45739845,Your Brooklyn pad,67165616304,verified,Luke,Brooklyn,Bushwick,40.70232,-73.92935,United States,US,False,flexible,Private room,2016,$747 ,$149 ,1,1.0,7/2/2017,0.04,4,1,0,,
45740398,Sun drenched 2br with private backyard!,68608162677,verified,Sivan,Brooklyn,Bushwick,40.69954,-73.93760999999999,United States,US,True,strict,Entire home/apt,2008,$924 ,$185 ,2,60.0,6/30/2019,2.47,1,1,37,,
45740950,Spacious & Cozy 1BR Apartment in Brownstone Bldg,22507482602,unconfirmed,Ramy,Brooklyn,Bedford-Stuyvesant,40.6802,-73.93315,United States,US,False,flexible,Entire home/apt,2008,"$1,008 ",$202 ,1,3.0,6/26/2017,0.12,3,1,0,"No smoking Not suitable for pets No parties or events Check-in is after 3PM Be a good ambassador of your country. :) Due to the fact that the building is purely residential, guests are expected to respect at all times the peace and privacy of the neighbors. Principal Rules: 1) Strictly a non-smoking/ shoe-free apartment. 2) No pets allowed  3) We have zero tolerance disturbance policy, so please do not disturb the residents of the building and avoid any noisy behavior after 9:00 pm and before 9:00 AM. We reserve the right to abort the service without refund if any established complain arrives to us from the neighbors.  4) Guests are not permitted to allow other people into the apartment 5) Any property damage shall be paid in full  6) Please DO NOT send any personal mails/package to the address during your stay. (We had lots of issues from the previous guests) Please Contact us for the further arrangement if you have any mailing request before your trip. We really hope that you enjoy y",
45741502,Sunny Spacious Room + Private Bathroom in Bushwick,1260133006,unconfirmed,Tian,Brooklyn,Bushwick,40.70068,-73.92293000000001,United States,US,True,moderate,Private room,2012,"$1,195 ",$239 ,3,8.0,9/24/2017,0.33,3,1,0,We are young professionals who like to keep our home neat and quiet. We'll likely be working from home at times during your stay and we ask you to respect us the same way we'll respect you. No shoes inside the house.  No smoking. Service pets are ok.,
45742054,"HOTEL ROOM LIKE!!!   WITH AFFORDABLE RATE!!!   ""S”",48428930809,verified,Viviana,Queens,Woodhaven,40.686409999999995,-73.86635,United States,US,True,moderate,Private room,2008,$640 ,$128 ,3,21.0,6/21/2019,0.85,1,9,357,,
45742607,"City Room, City View",26097539158,verified,Ellen,Manhattan,Washington Heights,40.84717,-73.93267,United States,US,False,moderate,Private room,2017,$364 ,$73 ,5,3.0,8/8/2017,0.12,3,2,0,"SEE ABOVE NOTES.   Prefer REPEAT VISITORS, BUSINESS MEETINGS or family obligations, medical needs.  Good for a single or couple, probably not families. Free laundry. GREAT VIEW!",
45743159,Stunning modern artsy 2 bed -steam & rooftop,19680905439,unconfirmed,Abby,Brooklyn,Greenpoint,40.72092,-73.94281,United States,US,False,strict,Entire home/apt,2019,$365 ,$73 ,1,70.0,7/1/2019,3.26,4,1,142,,
45743711,Large bedroom with PRIVATE bathroom and KING Bed,77414123333,verified,Rueben,Brooklyn,Clinton Hill,40.68399,-73.96465,United States,US,True,moderate,Private room,2012,$362 ,$72 ,5,0.0,,,4,1,0,,
45744264,Spacious and Bright 1.5 Bedroom by Prospect Park,71941627183,verified,Jonathan,Brooklyn,Kensington,40.64676,-73.97403,United States,US,True,moderate,Entire home/apt,2011,$807 ,$161 ,13,6.0,2/22/2019,0.25,3,1,37,"Please remember that this is a residential building. The building rules, apartment occupancy restrictions and the year-round tenants must be respected.  Parties, pets and smoking are not allowed under any circumstances and incur significant fees.",
45744816,"MANHATTAN 
near Central Park&
Columbia University",3640617579,unconfirmed,Steven,Manhattan,Morningside Heights,40.80908,-73.95858,United States,US,False,moderate,Entire home/apt,2006,$838 ,$168 ,3,81.0,6/2/2019,3.24,2,1,282,,
45745368,Cute and Comfy Bedroom,62237477362,verified,Meghan,Brooklyn,Bedford-Stuyvesant,40.68719,-73.95298000000001,United States,US,False,strict,Private room,2019,$915 ,$183 ,3,2.0,9/10/2018,0.11,1,2,0,"House Rules 1. All bookings made at least a week before check in are fully refundable if cancelled within 24 hours of booking. After this, you will receive a 50% refund if you cancel at least 7 days before the start of your trip. 2. Check-in time is any time after 4 pm local time. If the unit is ready earlier, we’ll let you know. Check-out is normally 11 am local time, but we’d be happy to extend it as long as we don’t have a cleaning scheduled. Just let us know.  3. All bookings require a security deposit of at least $300. 4. For security measures we require all guests to provide proof of identification through ID verification on our own website. In order to check in, we'll need a photo of your ID.  5. Don’t let $300 go up in smoke. There's no smoking allowed in any Flatbook and a $300 fine for breaking this rule.  6. Unfortunately we don’t allow pets in most of our apartments. 7. Unless you’re staying in one of our specialty apartments, we don’t allow parties or excessive noise. 8. I",
45745921,Spacious Bedroom in Full Floor East Village Apt,2892878629,unconfirmed,Adonis,Manhattan,East Village,40.72717,-73.98643,United States,US,True,strict,Private room,2014,$78 ,$16 ,1,28.0,6/24/2019,1.17,5,7,328,"Make yourself at home! While that means enjoy the amenities in the apartment during your stay, I hope you would also treat my home with respect. Lastly, accidents do happen — I get it :) Just leave me a note about things that are broken or not working. ",
45746473,New Tidy room separate entrance plus paid parking,31459936385,unconfirmed,Jimmy &Cindy,Queens,Flushing,40.75715,-73.81272,United States,US,True,strict,Private room,2019,"$1,150 ",$230 ,2,55.0,6/26/2019,2.19,4,10,361,,
45747025,Midcentury Minimalist 1BR in Prime Williamsburg,8959455604,unconfirmed,Lianne,Brooklyn,Williamsburg,40.715759999999996,-73.96084,United States,US,True,strict,Entire home/apt,2017,$660 ,$132 ,2,5.0,12/18/2017,0.21,3,1,0,,
45747577,Two-story Zen Oasis One Block from Central Park,34810804037,unconfirmed,Peter,Manhattan,Upper West Side,40.77949,-73.98,United States,US,False,strict,Entire home/apt,2022,$492 ,$98 ,30,0.0,,,4,1,0,,
45748130,Beautiful bedroom in Historic Forest Hills Gardens,93464931941,verified,Aaron,Queens,Forest Hills,40.710640000000005,-73.84614,United States,US,False,strict,Private room,2011,$104 ,$21 ,14,0.0,,,5,1,19,May add extra guests (please contact for more info),
45748682,Sunny Brooklyn Two Bedroom,21777858542,verified,William,Brooklyn,Cobble Hill,40.68795,-73.99158,United States,US,False,moderate,Entire home/apt,2020,$640 ,$128 ,30,1.0,8/25/2017,0.04,1,1,12,,
45749234,Cozy Chelsea Apartment/ Highline/ Whitney Museum,34597959267,verified,Maria,Manhattan,Chelsea,40.74195,-74.00052,United States,US,False,moderate,Entire home/apt,2011,$890 ,$178 ,7,41.0,6/15/2019,1.66,3,1,13,No smoking and no pets please.,
45749787,Small Homey Studio in a Big Noisy City,49537585809,unconfirmed,Alyssa,Manhattan,Harlem,40.817029999999995,-73.93691,United States,US,True,flexible,Entire home/apt,2006,$847 ,$169 ,2,3.0,6/28/2017,0.12,2,1,0,Not too loud. No 'house rules' necessary as long as general nice manners are followed.,
45750339,Charming One Bedroom in Brooklyn Heights,61175752363,verified,Evan,Brooklyn,Brooklyn Heights,40.69357,-73.99489,United States,US,True,strict,Entire home/apt,2018,$97 ,$19 ,20,0.0,,,2,1,0,Respectable,
45750891,Blue Moon,84969938228,verified,Sonche,Queens,Sunnyside,40.74694,-73.9194,United States,US,False,moderate,Entire home/apt,2004,$888 ,$178 ,5,0.0,,,5,1,0,"Please remember that this is a residential building. The building rules, apartment occupancy restrictions and the year-round tenants must be respected.",
45751444,Harlem Garden Oasis in  New York City Brownstone,2144627198,unconfirmed,Mark And Josephine,Manhattan,Harlem,40.82287,-73.94509000000001,United States,US,False,moderate,Entire home/apt,2010,$368 ,$74 ,31,96.0,5/25/2019,3.93,5,2,186,"Please remember that this is a residential building. The building rules, apartment occupancy restrictions and the year-round tenants must be respected.  Parties and smoking are not allowed under any circumstances and incur significant fees. Pets may be considered with pre-approval and an additional pet fee.",
45751996,You'll never find studio with this price(Allyours),85134205672,unconfirmed,Lilian,Brooklyn,Bedford-Stuyvesant,40.67759,-73.90888000000001,United States,US,False,flexible,Entire home/apt,2014,$755 ,$151 ,2,26.0,3/31/2018,1.08,1,1,0,,
45752548,Nicki and Tim's place,56550373478,unconfirmed,Nicki,Brooklyn,Flatbush,40.64707,-73.96278000000001,United States,US,False,strict,Entire home/apt,2003,$447 ,$89 ,5,2.0,1/1/2018,0.09,4,1,0,"This is a quiet building of professionals (no student renters allowed), so those looking for a place to host large parties, please consider other options.",
45753100,Luxurious Designer brownstone with backyard,30858739491,unconfirmed,Christine & James,Brooklyn,Clinton Hill,40.69556,-73.96611,United States,US,False,flexible,Entire home/apt,2009,"$1,091 ",$218 ,4,38.0,7/2/2019,1.74,5,3,262,"You are my guest - please behave as such!  This is where I live. - No neighbor-disturbance-level noise past 11:00PM - No pets of any kind - No smoking - Use the kitchen, not the food (it is ours) - Clean up spills and dishes - No illegal drugs or substances",
45753653,Hidden Treasure in Bed-Sty,57028185929,verified,Ben,Brooklyn,Bedford-Stuyvesant,40.6953,-73.93567,United States,US,True,moderate,Private room,2005,"$1,124 ",$225 ,2,1.0,7/25/2017,0.04,5,1,0,,
45754205,Oceanfront vacation home on Rockaway Beach,40584578344,verified,Jill,Queens,Arverne,40.58781,-73.79316999999999,United States,US,True,strict,Entire home/apt,2003,$700 ,$140 ,3,0.0,,,3,1,342,,
45754757,Spacious Village 1 bedroom - 5 star rated host,97015118377,unconfirmed,Abigail,Manhattan,Greenwich Village,40.72954,-74.00206,United States,US,True,strict,Entire home/apt,2008,"$1,058 ",$212 ,4,6.0,12/17/2017,0.24,4,1,0,"Please remember that this is a residential building. The building rules, apartment occupancy restrictions and the year-round tenants must be respected.",
45755310,Relaxing Room in a Spacious Artist Apartment,68123508038,unconfirmed,Gigi,Bronx,Morrisania,40.8329,-73.89608,United States,US,False,moderate,Private room,2007,$231 ,$46 ,5,4.0,7/29/2018,0.16,5,1,175,,
45755862,Cozy luxurious & private 1 1/2 bedroom in Brooklyn,34963169073,verified,Aldric,Brooklyn,Bedford-Stuyvesant,40.68153,-73.9538,United States,US,False,moderate,Entire home/apt,2007,$845 ,$169 ,7,8.0,5/26/2019,0.33,3,2,355,"Before checking out, please: 1. Take out trash (basement level, back door - red dumpsters) 2. Wash dishes and put in dishrack 3. Return keys to the lockbox by 12 noon (unless we made other arrangements)",
45756414,Oasis Carriage House Apartment in Williamsburg,50541707641,unconfirmed,New,Brooklyn,Williamsburg,40.70851,-73.94197,United States,US,True,moderate,Entire home/apt,2019,$905 ,$181 ,4,0.0,,,2,1,0,,
45756967,Private Apt Renovated 2BR by Central Park & Cafés,28883860391,unconfirmed,Ali,Manhattan,Harlem,40.80079,-73.95798,United States,US,False,flexible,Entire home/apt,2008,$471 ,$94 ,3,71.0,6/9/2019,3.52,2,1,9,,
45757519,Spacious and Modern 1BR in Heart of West Village,79579055558,verified,Matthew,Manhattan,West Village,40.731429999999996,-74.00816999999999,United States,US,True,strict,Entire home/apt,2019,$885 ,$177 ,5,0.0,,,5,1,0,,
45758071,Rainbow Guesthouse,62424019734,unconfirmed,Igor,Brooklyn,Midwood,40.61359,-73.95983000000001,United States,US,True,moderate,Shared room,2020,$379 ,$76 ,1,8.0,6/30/2019,0.32,1,4,21,,
45758623,LARGE PRIVATE ROOM IN ASTORIA,30750013915,unconfirmed,Sofia,Queens,Astoria,40.77415,-73.93125,United States,US,True,strict,Private room,2020,$824 ,$165 ,1,14.0,12/29/2018,0.76,5,2,6,This home is very clean and well kept. No shoes inside please!,
45759176,"Steps away from Grand Central, cute & cozy!",46357924759,unconfirmed,Christian,Manhattan,Midtown,40.75334,-73.97278,United States,US,False,moderate,Entire home/apt,2021,$163 ,$33 ,2,5.0,10/1/2017,0.2,2,1,0,,
45759728,Quintessential loft location on Bond Street.,45063406070,verified,Alison,Manhattan,NoHo,40.72681,-73.99346,United States,US,True,strict,Entire home/apt,2015,$501 ,$100 ,4,15.0,1/1/2019,0.63,2,1,13,,
45760280,One Bedroom Walk Up in Hell's Kitchen,82497212544,unconfirmed,Noel,Manhattan,Hell's Kitchen,40.76227,-73.99035,United States,US,True,moderate,Entire home/apt,2018,"$1,006 ",$201 ,2,6.0,11/25/2017,0.24,5,1,0,,
45760833,Modern Beautiful Bedford Stuyvesant Brownstone,39660687199,verified,Giovanni,Brooklyn,Bedford-Stuyvesant,40.6861,-73.93997,United States,US,True,moderate,Entire home/apt,2021,"$1,088 ",$218 ,2,146.0,7/7/2019,5.82,4,5,88,#NAME?,
45761385,"Sunny quiet room + living room, 22m to Man. J,M,L",1206760671,unconfirmed,Talha Can,Brooklyn,Bushwick,40.694390000000006,-73.92008,United States,US,True,strict,Private room,2017,"$1,101 ",$220 ,25,3.0,2/28/2019,0.13,4,1,36,,
45761937,Hells kitchen crash pad with half bath!,13997665266,verified,James,Manhattan,Hell's Kitchen,40.76283,-73.9897,United States,US,True,strict,Private room,2014,$56 ,$11 ,4,0.0,,,5,1,0,"Please remember that this is a residential building. The building rules, apartment occupancy restrictions, and the year-round tenants must be respected. There is no smoking allowed in the apartments and significant fees will apply if this rule is broken.",
45762490,1 bedroom apt with private terrace on UWS.,70904991751,verified,Ilona,Manhattan,Upper West Side,40.7765,-73.97914,United States,US,False,moderate,Entire home/apt,2018,"$1,094 ",$219 ,5,0.0,,,5,1,0,,
45763042,"Room in a Beautiful, Spacious Home",56511742070,unconfirmed,Jillian,Brooklyn,Bushwick,40.684709999999995,-73.90906,United States,US,True,strict,Private room,2016,$722 ,$144 ,2,27.0,6/28/2019,1.08,4,2,104,,
45763594,Astoria home 2 living rooms/ 1 bedroom/1 bath,45397344170,verified,Bella,Queens,Astoria,40.76634,-73.90872,United States,US,True,moderate,Entire home/apt,2003,$231 ,$46 ,3,30.0,8/29/2018,1.24,4,1,0,,
45764146,Luxurious Country Beach Surf Loft,36667926565,verified,David,Queens,Neponsit,40.569309999999994,-73.86121999999999,United States,US,True,strict,Entire home/apt,2020,"$1,141 ",$228 ,2,34.0,6/9/2019,1.37,2,1,315,- Please call / send message to arrange meeting for check in - Check in 3 pm - 11 pm - Check out by 11 am on last day,
45764699,Bright and spacious private room in Hells Kitchen,46681252244,unconfirmed,Braden,Manhattan,Hell's Kitchen,40.76463,-73.9877,United States,US,True,flexible,Private room,2013,$285 ,$57 ,6,2.0,1/3/2018,0.08,3,1,0,,
45765251,Bed-study Best!,45571560560,verified,Hanan,Brooklyn,Bedford-Stuyvesant,40.68358,-73.95458,United States,US,False,strict,Private room,2004,"$1,110 ",$222 ,3,27.0,5/11/2019,1.09,5,1,78,,
45765803,"Luxury Condo-gym,pool,sundeck,sauna in bldg",36322907003,verified,Christina,Manhattan,Murray Hill,40.75075,-73.9752,United States,US,False,strict,Entire home/apt,2010,$527 ,$105 ,2,8.0,4/22/2018,0.32,5,1,0,,
45766356,"Private Bedroom, 10 Minutes to Lower Manhattan",46531832773,verified,David,Brooklyn,Williamsburg,40.70717,-73.94949,United States,US,True,moderate,Private room,2005,$850 ,$170 ,1,5.0,7/4/2017,0.2,4,1,0,,
45766908,Spacious & bright room in Upper West near Columbia,88502170066,unconfirmed,Allen,Manhattan,Morningside Heights,40.80477,-73.96486,United States,US,False,flexible,Private room,2015,$543 ,$109 ,2,11.0,2/4/2018,0.45,3,1,0,,
45767460,A Brooklyn retreat. 25M subway to the city.,64188441061,verified,Jen,Brooklyn,Bedford-Stuyvesant,40.68203,-73.92472,United States,US,True,moderate,Private room,2017,$265 ,$53 ,2,,5/19/2019,0.52,4,1,179,,
45768013,studio in UES,40333808015,verified,Abc,Manhattan,Upper East Side,40.7685,-73.95698,United States,US,True,flexible,Entire home/apt,2017,$213 ,$43 ,1,0.0,,,3,1,363,#NAME?,
45768565,Charming -One bedroom -Williamsburg,84281530683,verified,Schimpff,Brooklyn,Williamsburg,40.71886,-73.95695,United States,US,False,flexible,Private room,2016,"$1,137 ",$227 ,2,1.0,6/22/2017,0.04,4,1,0,,
45769117,♛ Private & Beautiful West Village Townhouse 2BR,77751787486,unconfirmed,Colleen,Manhattan,West Village,40.7316,-74.00211999999999,United States,US,True,flexible,Entire home/apt,2003,$730 ,$146 ,5,53.0,7/2/2019,2.27,2,1,148,"No smoking, no parties, very quiet building with friendly neighbors close by",
45769669,Top of the Heights Harlem Duplex!,11482264046,unconfirmed,Joseph,Manhattan,Harlem,40.82798,-73.95201999999999,United States,US,True,moderate,Entire home/apt,2019,$913 ,$183 ,3,40.0,5/19/2019,1.69,3,1,65,,
45770222,Astoria Two Bed and Kitchen Minutes from subway,67571622414,verified,Vik,Queens,Ditmars Steinway,40.77458,-73.92195,United States,US,False,strict,Entire home/apt,2013,$990 ,$198 ,3,61.0,6/8/2019,2.46,3,5,62,,
45770774,Beautiful Greenpoint Apartment W/ Outdoor space,39162092138,unconfirmed,Nick,Brooklyn,Greenpoint,40.728120000000004,-73.95619,United States,US,True,flexible,Entire home/apt,2019,$354 ,$71 ,5,7.0,1/1/2019,0.29,4,1,4,"no smoking, no pet, keep clean",
45771326,Extra Large 1br in the heart of Astoria!,29877552776,verified,Kristin,Queens,Astoria,40.76272,-73.92656,United States,US,False,strict,Entire home/apt,2022,"$1,167 ",$233 ,7,1.0,9/12/2017,0.05,5,1,0,"Please remember that this is a residential building. The building rules, apartment occupancy restrictions and the year-round tenants must be respected.  Parties and smoking are not allowed under any circumstances and incur significant fees. Pets may be considered with pre-approval and an additional pet fee.",
45771879,LARGE 1 BR IN DOORMAN BUILDING w ROOFTOP + GYM,22501437008,unconfirmed,Keely,Brooklyn,Bushwick,40.69477,-73.92931,United States,US,True,strict,Entire home/apt,2018,$153 ,$31 ,3,8.0,5/25/2019,0.32,3,1,0,,
45772431,Great Empty Apartment for you.,68813020016,unconfirmed,Jimmy,Brooklyn,Windsor Terrace,40.6526,-73.97366,United States,US,True,moderate,Entire home/apt,2010,"$1,073 ",$215 ,1,5.0,7/1/2017,0.2,2,1,0,"Please remember that this is a residential building. The building rules, apartment occupancy restrictions and the year-round tenants must be respected.",
45772983,2A,96841863490,unconfirmed,Nina,Manhattan,Midtown,40.75077,-73.9814,United States,US,True,flexible,Entire home/apt,2021,$224 ,$45 ,30,4.0,11/30/2018,0.18,1,14,207,Please clean up before checking out. Any major clean-up service required may be deducted from the deposit.  No Loud / Large Parties . This is a smoke free enviroment. very quiet building with friendly neighbors,
45773536,Stellar Washington Heights Room Near Major Subways,51030030741,verified,Chris,Manhattan,Washington Heights,40.84191,-73.9356,United States,US,False,strict,Private room,2004,"$1,051 ",$210 ,3,6.0,12/24/2018,0.31,2,1,0,,
45774088,Airy and bright floor in East Village townhouse,1042597937,unconfirmed,Joy,Manhattan,East Village,40.72784,-73.98883000000001,United States,US,True,moderate,Entire home/apt,2020,$896 ,$179 ,2,99.0,6/21/2019,4.03,4,1,176,"Please leave the apartment neat as you found it.  Put your sheets and towels in the hamper in the guest closet. If you've prepared food and there are leftovers, be sure to place them in the trash. Better yet, bring the trash and recyclable items downstairs and put them into the appropriate containers in the driveway out back.  Thank you, Deborah",
45774640,Sunny Room with Private Bath; Prime LES/Chinatown,65801317602,verified,Tara,Manhattan,Chinatown,40.71418,-73.99238000000001,United States,US,False,flexible,Private room,2015,$467 ,$93 ,1,105.0,6/15/2019,4.19,4,2,87,"Please, no smoking indoors. Do not climb onto the fire escape because the police who routinely walk around will fine you $350.  If you're unsure about anything, just ask! I'm here to help :)",
45775192,Cozy gem in the  heart of TriBeca!!,4329774736,verified,Luis,Manhattan,Tribeca,40.71863,-74.0117,United States,US,True,moderate,Entire home/apt,2012,"$1,105 ",$221 ,2,76.0,6/26/2019,3.04,2,1,127,#NAME?,
45775745,Sun-filled Williamsburg room for an artist/travelr,14022789375,verified,Tiasha,Brooklyn,Williamsburg,40.70928,-73.94882,United States,US,False,moderate,Private room,2017,$355 ,$71 ,4,6.0,11/22/2018,0.41,4,1,7,No smoking! No party!,
45776297,Homely Private Room with Queen Sized Bed,2549807381,verified,Narmeen,Brooklyn,Crown Heights,40.675940000000004,-73.9261,United States,US,True,flexible,Private room,2007,"$1,164 ",$233 ,1,1.0,6/24/2017,0.04,4,1,0,,
45776849,Williamsburg Modern Two-Floor 1 bedroom 1.5 baths,75708800864,verified,Leidy,Brooklyn,Williamsburg,40.71617,-73.95283,United States,US,False,strict,Entire home/apt,2003,$420 ,$84 ,2,3.0,11/5/2017,0.14,5,1,0,No pets,
45777402,"ACintheroom!35minutestodowntown Manhattan,QUEENbed",61557925119,unconfirmed,Robianddebbie,Brooklyn,East New York,40.669059999999995,-73.87805,United States,US,False,strict,Private room,2015,$711 ,$142 ,7,15.0,5/1/2019,1.33,3,3,318,"Please remember that this is a residential building. The building rules, apartment occupancy restrictions and the year-round tenants must be respected.  Parties and smoking are not allowed under any circumstances and incur significant fees. Pets may be considered with pre-approval and an additional pet fee.",
45777954,East Village / Gramercy Apartment with Yard,93468692905,verified,Michael,Manhattan,Gramercy,40.73408,-73.98163000000001,United States,US,True,strict,Entire home/apt,2015,"$1,114 ",$223 ,3,39.0,7/2/2019,1.79,4,1,345,No excess noise Smoking Allowed Drinking Allowed Respect your room mates  No Drugs Respect your neighbours,
45778506,Backpacker’s Studio( Spring Deal!!),78332221156,verified,Chuck,Manhattan,Upper East Side,40.78179,-73.95209,United States,US,False,strict,Entire home/apt,2014,$176 ,$35 ,3,38.0,6/1/2019,3.37,5,2,5,,
45779059,"Modern, Clean 1 bedroom Apartment in Bushwick",89226757781,verified,Y,Brooklyn,Bushwick,40.68911,-73.91581,United States,US,True,flexible,Entire home/apt,2022,$808 ,$162 ,2,166.0,6/22/2019,6.79,3,1,52,,
45779611,Room 12,42199888556,unconfirmed,Justine,Bronx,University Heights,40.85771,-73.90899,United States,US,False,flexible,Private room,2019,$430 ,$86 ,3,31.0,6/28/2019,1.26,4,5,362,Quiet time in our building is from 10pm-8am.,
45780163,"Private room in midtown Manhattan曼哈顿中心 位于地狱厨房,位置棒棒",67475292767,verified,Laura,Manhattan,Hell's Kitchen,40.75743,-73.99638,United States,US,False,flexible,Private room,2007,$537 ,$107 ,3,80.0,6/12/2019,3.7,3,2,16,,
45780715,Fold-out futon on East Village/LES border!,80806080017,unconfirmed,George,Manhattan,Lower East Side,40.72195,-73.98861,United States,US,False,strict,Shared room,2012,$712 ,$142 ,15,11.0,5/25/2019,0.44,2,3,347,Please do not play any of the guitars in the room.,
45781268,West Village Getaway,191490859,unconfirmed,Adam,Manhattan,West Village,40.73697,-74.00223000000001,United States,US,True,moderate,Entire home/apt,2009,"$1,085 ",$217 ,2,29.0,3/10/2019,1.17,2,1,0,Always lock the front door and the apartment door. Always enter/exit through the front door. Don't smoke in the house. Don't leave dirty dishes.  Tidy the kitchen when done and leave dishes ti dry in the dishwasher rack.  Feel free to use the dishwasher.  Detergent is under the sink.,
45781820,"Beautiful, Sunny,  & Spacious 3 Bedrooms at Subway",34576502717,unconfirmed,Heather,Manhattan,Harlem,40.82452,-73.94499,United States,US,False,moderate,Entire home/apt,2008,$317 ,$63 ,30,0.0,,,5,2,95,"When you arrive, the keys will be in a lock box outside. Please return keys to that lock box upon your departure.",
45782372,Clean&Simple (45 minutes to Manhattan),84727884628,unconfirmed,Cynthia,Queens,Jamaica,40.68875,-73.78786,United States,US,False,flexible,Entire home/apt,2009,$929 ,$186 ,1,120.0,7/3/2019,5.37,2,2,56,,
45782925,"Artist Hostel in Bedstuy, Brooklyn",96718540531,unconfirmed,Brian,Brooklyn,Bedford-Stuyvesant,40.69454,-73.94868000000001,United States,US,False,flexible,Shared room,2003,$793 ,$159 ,2,3.0,1/1/2019,0.13,3,3,343,,
45783477,Artist Hostel II in Bedstuy Brooklyn,27429812266,unconfirmed,Brian,Brooklyn,Bedford-Stuyvesant,40.69502,-73.94711,United States,US,False,flexible,Shared room,2014,"$1,114 ",$223 ,2,0.0,,,4,3,348,No Smoking,
45784029,"Cozy and Artsy Bedrooms in Prime BedStuy, BK",30543677252,verified,Julie,Brooklyn,Bedford-Stuyvesant,40.68274,-73.9261,United States,US,False,moderate,Private room,2018,$360 ,$72 ,3,3.0,7/9/2017,0.12,1,2,0,"Please remember that this is a residential building. The building rules, apartment occupancy restrictions and the year-round tenants must be respected.  Parties, pets and smoking are not allowed under any circumstances and incur significant fees.",
45784582,Convenient Midtown Private 1 Bedroom,76442629046,verified,Mel,Manhattan,Hell's Kitchen,40.75544,-73.99406,United States,US,False,flexible,Entire home/apt,2007,$547 ,$109 ,1,13.0,2/17/2019,0.52,5,1,0,No loud house parties. Please be respectful of others living in the building in other units.,
45785134,Beautiful Large 1 BD Park Slope Historic District,28782398762,verified,Cassandra,Brooklyn,Park Slope,40.67027,-73.97874,United States,US,False,moderate,Entire home/apt,2022,$309 ,$62 ,2,57.0,6/26/2019,2.32,3,1,127,,
45785686,Beautiful Room in Manhattan- Great location,22257719362,verified,Gabriella,Manhattan,Morningside Heights,40.81454,-73.96101999999999,United States,US,False,flexible,Private room,2013,"$1,089 ",$218 ,2,4.0,4/23/2019,0.24,1,1,0,"Please remember that this is a residential building. The building rules, apartment occupancy restrictions and the year-round tenants must be respected.",
45786238,Charming Brooklyn House on a Quiet Block,27301556678,unconfirmed,Holly,Brooklyn,Windsor Terrace,40.65193,-73.97743,United States,US,False,strict,Entire home/apt,2013,$958 ,$192 ,3,1.0,11/25/2017,0.05,5,1,194,"Please remember that this is a residential building. The building rules, apartment occupancy restrictions and the year-round tenants must be respected.  Parties, pets and smoking are not allowed under any circumstances and incur significant fees.",
45786791,Big sunny room in Williamsburg,67278184479,verified,Tom,Brooklyn,Williamsburg,40.71112,-73.95796999999999,United States,US,False,moderate,Private room,2020,$122 ,$24 ,14,0.0,,,2,1,0,,
45787343,Stay in the heart of Little Italy/Chinatown!,18170628543,verified,Mohammad,Manhattan,Little Italy,40.71913,-73.9968,United States,US,False,strict,Shared room,2011,$583 ,$117 ,2,0.0,,,1,1,0,"Please remember that this is a residential building. The building rules, apartment occupancy restrictions and the year-round tenants must be respected.  Parties and smoking are not allowed under any circumstances and incur significant fees. Pets may be considered with pre-approval and an additional pet fee.",
45787895,Super Lux 2BR in Downtown Manhattan,91699911277,verified,Derek,Manhattan,Battery Park City,40.70725,-74.01741,United States,US,True,moderate,Entire home/apt,2021,$398 ,$80 ,2,0.0,,,1,1,0,,
45788448,Sunny beautiful large bedroom in Williamsburg,21515949381,verified,Luis,Brooklyn,Williamsburg,40.71635,-73.94238,United States,US,True,flexible,Private room,2013,$833 ,$167 ,3,9.0,5/11/2018,0.38,2,1,0,,
45789000,Private entry apartment on stunning Park Block,20163788309,verified,Ann,Brooklyn,Park Slope,40.6704,-73.97431999999999,United States,US,False,moderate,Entire home/apt,2003,$809 ,$162 ,3,105.0,6/30/2019,4.23,5,1,72,,
45789552,2br/1bth Garden Townhouse Apartment,39078650617,verified,Carmelo,Brooklyn,East Flatbush,40.650420000000004,-73.94842,United States,US,False,flexible,Entire home/apt,2010,$355 ,$71 ,1,6.0,7/1/2019,0.25,2,2,152,Like they are in their own home!!! Please respect! This is not a hotel! Be neat & clean,
45790105,Cute Room in Renovated Spacious LES/Chinatown Apt,75853326339,verified,Andrew,Manhattan,Lower East Side,40.714529999999996,-73.98679,United States,US,True,strict,Private room,2009,"$1,178 ",$236 ,5,72.0,6/24/2019,2.93,5,2,316,We expect guests to respect our neighbors and not be overly loud. No parties please. Absolutely no smoking.,
45790657,Small and Cozy Private Room in Downtown,40673399120,verified,Cici,Manhattan,Lower East Side,40.71391,-73.98938000000001,United States,US,False,flexible,Private room,2016,$951 ,$190 ,5,8.0,4/23/2019,0.65,2,3,50,The only thing i would have to say is not playing music too loud past 11 o clock.,
45791209,BestofBrooklyn,72617133754,unconfirmed,Georgi And Alisa,Brooklyn,Crown Heights,40.675779999999996,-73.95606,United States,US,False,strict,Entire home/apt,2004,$748 ,$150 ,5,9.0,11/11/2018,0.47,2,1,0,,
45791761,3 Floors for over 16 guests minutes from NYC!,4892456721,unconfirmed,Omar And Kareema,Brooklyn,Bushwick,40.68845,-73.91985,United States,US,True,strict,Entire home/apt,2017,$378 ,$76 ,4,4.0,5/8/2019,0.28,2,3,221,,
45792314,Sunny Chic Crown Heights One Bedroom,755223323,verified,Nneya,Brooklyn,Crown Heights,40.6735,-73.95322,United States,US,True,flexible,Entire home/apt,2011,$260 ,$52 ,13,12.0,6/1/2019,0.58,3,1,74,,
45792866,Studio in Sunny Sanctuary,40154413099,unconfirmed,Chelsea,Brooklyn,Bushwick,40.70385,-73.92513000000001,United States,US,True,flexible,Private room,2013,$691 ,$138 ,2,3.0,9/24/2017,0.12,1,1,0,"Please, be conscious of other residents in the building. Refrain from loud noises in the evening. Thank you!",
45793418,The Heart of Williamsburg,40775597348,verified,Jack And Rachel,Brooklyn,Williamsburg,40.715920000000004,-73.9562,United States,US,True,moderate,Private room,2007,$938 ,$188 ,3,22.0,6/7/2019,0.88,4,1,46,-No shoes (leave at the entrance door) -No loud noises after 10 pm -No bike -NO SMOKERS/SMOKING/DRUG USE,
45793971,Luxury building studio,62135872335,unconfirmed,Ryan,Manhattan,Financial District,40.70476,-74.01579,United States,US,False,moderate,Entire home/apt,2018,"$1,076 ",$215 ,2,0.0,,,1,1,0,Please take care of and respect the apartment as if it were your own home. We expect guests to be courteous of the other residents of the building. Both the building and apartment are strictly non-smoking. No pets allowed. Please do not use the hair dryer in the bathroom.,
45794523,Serene brownstone in the heart of Brooklyn,97105374661,unconfirmed,Susan,Brooklyn,Clinton Hill,40.686640000000004,-73.96285999999999,United States,US,True,flexible,Entire home/apt,2005,$862 ,$172 ,5,11.0,8/8/2018,0.46,1,1,10,,
45795075,Bright and Comfortable Chic Chelsea 1-bedroom!,93463656680,verified,Zack,Manhattan,Chelsea,40.739959999999996,-73.99987,United States,US,True,flexible,Entire home/apt,2013,$598 ,$120 ,3,3.0,4/21/2019,0.16,1,1,11,,
45795628,"Cozy 1 bedroom apt, Quiet, Near metro, East side",75042958824,verified,Elena,Manhattan,Upper East Side,40.76873,-73.95328,United States,US,True,flexible,Entire home/apt,2008,$929 ,$186 ,3,0.0,,,3,2,0,"Please remember that this is a residential building. The building rules, apartment occupancy restrictions and the year-round tenants must be respected.",
45796180,"Madison Ave BR Steps from Central Park, east 60s",72343432400,verified,Camilla,Manhattan,Upper East Side,40.76892,-73.96906,United States,US,False,flexible,Private room,2011,$762 ,$152 ,1,56.0,6/22/2019,3.03,5,1,325,"No shoes in the apartment, please",
45796732,"Most Amazing Location, Midtown 3 Bedroom",45341799823,unconfirmed,Corporate Housing,Manhattan,Midtown,40.75542,-73.96781,United States,US,False,flexible,Entire home/apt,2014,$270 ,$54 ,30,3.0,6/2/2019,0.16,1,91,147,,
45797284,Split 1BR immaculate luxury apt Ft Green,59461649061,unconfirmed,Emma,Brooklyn,Clinton Hill,40.68284,-73.96677,United States,US,False,flexible,Entire home/apt,2013,$601 ,$120 ,7,3.0,9/2/2018,0.13,3,1,189,,
45797837,THE SMALL CHATEAU IN THE TREES,76597011044,unconfirmed,Stefanie Elizabeth,Manhattan,East Village,40.72408,-73.98297,United States,US,True,moderate,Entire home/apt,2003,$221 ,$44 ,1,202.0,6/22/2019,8.16,1,1,217,#NAME?,
45798389,"Sunlit, Mid-Century 1 BR 10 minutes to city #10226",13579121190,unconfirmed,G,Brooklyn,Greenpoint,40.72925,-73.95645,United States,US,True,moderate,Entire home/apt,2018,$505 ,$101 ,2,23.0,7/5/2019,0.94,5,1,30,,
45798941,1.5 Bedrooms in Greenpoint Williamsburg Apt for 5,91991953554,verified,Edyta,Brooklyn,Greenpoint,40.724059999999994,-73.95044,United States,US,True,moderate,Entire home/apt,2019,$97 ,$19 ,30,3.0,6/1/2019,0.16,1,4,261,,
45799494,Nest in Nolita,51745497939,unconfirmed,Lee,Manhattan,Nolita,40.721779999999995,-73.99509,United States,US,True,strict,Entire home/apt,2017,$262 ,$52 ,3,0.0,,,4,1,0,,
45800046,Spacious Modern Brooklyn Apt!,57637971270,verified,Ellis,Brooklyn,Crown Heights,40.66943,-73.96024,United States,US,False,flexible,Private room,2015,$649 ,$130 ,5,0.0,,,5,1,0,#NAME?,
45800598,All Yours! Entire Spacious Bright Modern Loft!,62511609353,unconfirmed,Douglas,Brooklyn,Williamsburg,40.71289,-73.96354000000001,United States,US,False,strict,Entire home/apt,2010,$226 ,$45 ,14,13.0,4/26/2019,0.52,2,1,31,I expect my guests to treat the space as  if it was their own house. Please keep it clean and organized when you leave the way it was.,
45801151,Beautiful Spacious 1 Bedroom Apt. in New York City,26254659576,verified,John,Manhattan,Harlem,40.823609999999995,-73.93885999999999,United States,US,False,flexible,Entire home/apt,2016,$650 ,$130 ,5,78.0,6/14/2019,3.14,2,1,281,"Please remember that this is a residential building. The building rules, apartment occupancy restrictions and the year-round tenants must be respected. ",
45801703,Large 1 BR / Creative Space - Marble Hill,15171217879,verified,Chad,Manhattan,Marble Hill,40.8753,-73.9116,United States,US,True,flexible,Entire home/apt,2019,$715 ,$143 ,5,0.0,,,2,1,0,,
45802255,Quiet Sunny Studio in Roosevelt Island,32674167221,unconfirmed,Zheliang,Manhattan,Roosevelt Island,40.76119,-73.94914,United States,US,False,flexible,Entire home/apt,2015,$421 ,$84 ,5,3.0,7/1/2018,0.12,4,1,0,,
45802807,Luxury 1 Bed Apartment with GYM,70579218439,verified,Fabiana,Manhattan,Financial District,40.707159999999995,-74.01035999999999,United States,US,True,strict,Entire home/apt,2008,$317 ,$63 ,1,8.0,8/31/2018,0.34,3,1,54,,
45803360,Room for the mighties !! Air conditioner /CPark,5247855694,verified,Dalina,Manhattan,East Harlem,40.79031,-73.94688000000001,United States,US,True,moderate,Private room,2016,$416 ,$83 ,1,12.0,9/13/2017,0.48,1,2,90,,
45803912,"Artsy, Cozy 1 bedroom in Flatbush",60930152929,verified,Nia,Brooklyn,East Flatbush,40.640409999999996,-73.95133,United States,US,True,strict,Entire home/apt,2012,$197 ,$39 ,2,21.0,5/13/2019,0.85,3,1,0,,
45804464,"Cozy Room, on a Park-themed-Iike Island",24228196806,verified,Ladi,Manhattan,Roosevelt Island,40.76178,-73.94889,United States,US,True,flexible,Private room,2004,$960 ,$192 ,3,24.0,5/26/2019,1.13,5,2,190,,
45805017,20m to Manhattan - 2 Floors + Express Subway,39271527883,unconfirmed,Mari,Brooklyn,Crown Heights,40.67476,-73.93016,United States,US,False,flexible,Entire home/apt,2008,$272 ,$54 ,1,6.0,5/22/2019,0.25,5,1,249,,
45805569,Romantic art-filled apartment with private yard,69286529118,unconfirmed,Natalie,Brooklyn,Crown Heights,40.67139,-73.94842,United States,US,True,moderate,Private room,2018,$904 ,$181 ,3,0.0,,,4,2,0,,
45806121,"Luxurious, delightful 2-bedroom in Prime LES!",91700254410,unconfirmed,Isak,Manhattan,Lower East Side,40.72141,-73.98855,United States,US,True,strict,Entire home/apt,2013,$131 ,$26 ,2,5.0,1/1/2018,0.2,4,1,0,,
45806674,Private Room in East Village Apartment,56393335207,unconfirmed,Michelle,Manhattan,East Village,40.727059999999994,-73.98583,United States,US,False,moderate,Private room,2006,$68 ,$14 ,1,0.0,,,4,1,0,,
45807226,Prolonged Traveler's Dream(a month first & more),11668586415,verified,Ikkyukim,Bronx,Hunts Point,40.81227,-73.88871,United States,US,True,moderate,Private room,2009,$638 ,$128 ,30,5.0,9/30/2018,0.37,4,6,329,"Please remember that this is a residential building.  All building rules, hotel occupancy restrictions and year-round tenant must be respected.",
45807778,Awesome Williamsburg Apartment,88577867758,verified,Carlos,Brooklyn,Williamsburg,40.70857,-73.94501,United States,US,False,moderate,Private room,2022,$579 ,$116 ,1,2.0,9/18/2017,0.09,5,2,64,,
45808330,Home Sweet Home,3307953965,verified,Tammie,Queens,Flushing,40.755320000000005,-73.81074,United States,US,True,moderate,Entire home/apt,2015,$807 ,$161 ,3,37.0,8/28/2018,1.51,4,4,0,NO Smoking,
45808883,Cozy studio apartment close to trains 111 st/2 av,70049566433,unconfirmed,Adam,Manhattan,East Harlem,40.79313,-73.94154,United States,US,False,moderate,Entire home/apt,2020,$221 ,$44 ,2,14.0,6/30/2019,1.22,1,1,36,No Smoking,
45809435,"Bedroom, Queen bed, 4 train stops to Manhattan",29203314290,verified,Ralph,Brooklyn,Bushwick,40.69905,-73.93831,United States,US,True,strict,Private room,2007,$629 ,$126 ,2,39.0,6/23/2019,1.66,2,1,76,,
45809987,Peaceful room:an AlmostEmpty Apartment of your own,17573656032,unconfirmed,Alex,Brooklyn,Williamsburg,40.711420000000004,-73.96566999999999,United States,US,True,strict,Private room,2016,$593 ,$119 ,1,7.0,10/13/2018,0.71,3,1,0,"Please remember that this is a residential building. The building rules, apartment occupancy restrictions and the year-round tenants must be respected.",
45810540,Lovely 2 Bedroom in Flushing Chinatown,59949687500,unconfirmed,Alan,Queens,Flushing,40.7593,-73.82329,United States,US,True,moderate,Entire home/apt,2012,"$1,022 ",$204 ,30,4.0,11/12/2018,0.22,3,15,319,"No smoking, no pets. No jumping on bed or couch.  Used toilet paper, paper towel , and sanitary napkins need to be disposed in trash can not in toilet. Thank you for  treating my home with respect .",
45811092,Immaculate and Sweet Carroll Gardens 1 Bedroom,30108031938,unconfirmed,Sylvia,Brooklyn,Carroll Gardens,40.67777,-73.99893,United States,US,False,flexible,Entire home/apt,2020,$366 ,$73 ,2,72.0,6/23/2019,3.2,4,1,236,,
45811644,Large Top Floor Apartment,34477245288,unconfirmed,Luka,Manhattan,Kips Bay,40.740629999999996,-73.98205,United States,US,False,moderate,Entire home/apt,2004,$312 ,$62 ,30,155.0,6/19/2019,6.22,3,1,240,,
45812197,Private room on quiet street in Fort Greene,24928941621,unconfirmed,Brette,Brooklyn,Fort Greene,40.69546,-73.97303000000001,United States,US,False,strict,Private room,2014,"$1,170 ",$234 ,4,0.0,,,2,1,0,The bldg is business people. quiet. courteous. Check out is at Noon.  Check in is at 3pm. It's pretty strict except for leaving baggage. Strict cancellation.,
45812749,Private room near Columbia University,80092375984,verified,Joseph,Manhattan,Morningside Heights,40.81237,-73.95985,United States,US,False,strict,Private room,2015,$182 ,$36 ,1,39.0,7/6/2019,1.56,3,1,13,"Please remember that this is a residential building. The building rules, apartment occupancy restrictions, and the year-round tenants must be respected. There is no smoking allowed in the apartments and significant fees will apply if this rule is broken.",
45813301,Sunlit Private Room & Balcony in Trendy Bushwick,19551703438,verified,Le Roux,Brooklyn,Bushwick,40.70541,-73.91878,United States,US,True,strict,Private room,2005,"$1,191 ",$238 ,299,0.0,,,2,1,0,"Please remember that this is a residential building. The building rules, apartment occupancy restrictions and the year-round tenants must be respected.  Parties, pets and smoking are not allowed under any circumstances and incur significant fees.",
45813853,Jazz guesthouse,77609963975,verified,Keith,Brooklyn,Canarsie,40.64076,-73.88298,United States,US,True,moderate,Entire home/apt,2015,"$1,050 ",$210 ,3,44.0,6/26/2019,1.82,4,1,126,,
45814406,Sunny + Magic Full Apartment in Bushwick,37049035602,unconfirmed,Bibi,Brooklyn,Bushwick,40.70111,-73.92676999999999,United States,US,True,strict,Entire home/apt,2022,$739 ,$148 ,2,0.0,,,4,1,66,,
45814958,The hipster apartment in the hipster borough,71356214130,verified,Jon,Brooklyn,Fort Greene,40.69211,-73.97224,United States,US,True,moderate,Private room,2016,$320 ,$64 ,4,0.0,,,3,1,0,"* AGAIN FOR EMPHASIS ***** we aren't supposed to smoke in the building, but I do, and I don't mind if you do, too. ******* Folks with emotional or physical or psychosocial sensitivities or preconceptions surrounding tobacco use may wish to find different accommodations. The floor plan is fairly open and ventilation is good, but I'm sure it smells like smoke to those people who simply cannot stand the smell of smoke, and I don't want to hear it. This is a young neighborhood, and you may encounter some instances of behavior that could be construed as ""party"", I.e loud music, drinking, incoherent girls stumbling barefoot down the sidewalk while their dates retrieve their footwear and attempt to steer them towards home... The street has it's own security people and they don't take kindly to loiterers . They are, however, quite helpful in emergencies (most of the time).",
45815510,Big & Sunny Brooklyn Room | TV/AC/Private Bath,74766763510,verified,Colin,Brooklyn,Bushwick,40.6883,-73.91383,United States,US,True,moderate,Private room,2005,"$1,112 ",$222 ,5,5.0,9/25/2017,0.2,1,3,0,,
45816063,"Exposed Brick, Cozy West Village Apartment",94803348999,unconfirmed,Jason,Manhattan,West Village,40.73808,-74.00254,United States,US,False,strict,Entire home/apt,2019,$484 ,$97 ,30,3.0,5/29/2018,0.16,2,1,83,,
45816615,Harlem's House of the Rising Sun,54674843675,verified,Toby Steven,Manhattan,Harlem,40.80979,-73.94289,United States,US,True,moderate,Private room,2017,$61 ,$12 ,3,2.0,9/17/2018,0.16,3,2,24,"This is a quiet, long-standing residential community.  Guests need to be respectful and gentle. ",
45817167,Charming Newly Renovated Brownstone,9304764648,unconfirmed,Jaime And Stephen,Brooklyn,Crown Heights,40.6746,-73.94651999999999,United States,US,False,moderate,Private room,2016,"$1,071 ",$214 ,1,5.0,9/19/2018,0.22,1,1,365,,
45817720,Lovely Williamsburg Refuge ~  fresh & refined,57691717641,unconfirmed,Courtney,Brooklyn,Williamsburg,40.71835,-73.94498,United States,US,True,moderate,Entire home/apt,2018,$909 ,$182 ,2,16.0,6/23/2019,0.65,1,1,0,"Please be respectful of other guests.  Keep the common areas clean and pick up after your self.  No loud music after 10 pm.  No pets. It is a safe neighborhood but please, keep doors locked for safety No smoking in the house (smoking is allowed on the front or back decks).",
45818272,Spacious Garden Apartment with Patio,89365906708,verified,Michele,Brooklyn,Bedford-Stuyvesant,40.68523,-73.92738,United States,US,False,flexible,Entire home/apt,2018,$377 ,$75 ,4,61.0,7/1/2019,2.53,1,1,82,Absolutely no smoking/drugs Keep the place as clean as you found it Keep the noise down at night,
45818824,"Sunny, Spacious Apartment in Manhattan",56622013631,unconfirmed,Chloe,Manhattan,Washington Heights,40.85678,-73.92696,United States,US,True,moderate,Private room,2020,$287 ,$57 ,7,0.0,,,3,1,0,"No more than 2 guests will be staying in the apartment. We appreciate  clean and responsible guests.  Party is not allowed since this condo is mainly occupied by family home owners. But there are plenty of bars and restaurants to hangout in this neighborhood! Please check out the section for restaurant/bar recommendations. Smoking in the apartment is strictly prohibited, but you can smoke outside the main entrance of the building. Tuxie (a 5-month old black kitten) is the co-owner of this property. Only consider this place if you are a cat lover! You are more than welcome to pet him and play with him.  Although I love animals, but my cat Tuxie is likely to stressed out by other pets in the property. So unfortunately, bringing your pet is not allowed.",
45819376,Private Room Avail.  Now- Aug 20 Clinton/BedStuy,33219011730,unconfirmed,Shannon,Brooklyn,Bedford-Stuyvesant,40.6914,-73.95993,United States,US,False,flexible,Private room,2011,$576 ,$115 ,10,0.0,,,3,1,0,"This is a smoke-free house. Otherwise, we just ask you to be respectful and considerate of others.",
45819929,Modern Upper East Side Apartment near Central Park,42101577304,unconfirmed,Shaun,Manhattan,Upper East Side,40.77412,-73.95695,United States,US,False,flexible,Entire home/apt,2005,$102 ,$20 ,1,143.0,6/15/2019,5.91,4,1,300,"No cigarettes, parties or pets. If you're looking to stay longer than a week, please contact me before instant booking. Treat others how you want to be treated. :)",
45820481,Spacious private BR-PRIME BUSHWICK. Roof access!,53727734252,unconfirmed,Daria,Brooklyn,Bushwick,40.7016,-73.91974,United States,US,True,moderate,Private room,2011,"$1,145 ",$229 ,2,2.0,5/17/2018,0.09,5,1,0,,
45821033,"City Retrieve3. Twin bed, lovely, simple",35160036716,verified,Jana,Manhattan,Harlem,40.82419,-73.94639000000001,United States,US,True,flexible,Private room,2004,$814 ,$163 ,31,0.0,,,4,4,78,"- It is just the couch you will be sleeping on, but you will have access to the rest of the house i.e bathroom and kitchen. 3 of us live here and are very friendly! But as you can see from the pictures, our place is spacious. - We are not allowed to make extra copies of keys so you just need to coordinate with one us when you need to be let in. We are flexible and willing to accommodate you. Our place is meant for short visits, a few days tops so you don't have to pay crazy Boston hotel prices. -We provide clean sheets, a pillow, and blankets to make your stay as comfortable as possible -New Rule 7/27: I didn't realize how many bookings I would get, so I ask that you check in and check out before or at 10:00 AM on the days of your reservation. If other accommodations are needed, please contact me! If not, I will plan for a 10:00 AM arrival and a 10:00 AM departure. I'm very flexible and can wake up early or late to let you in, but I just need to know in advance!",
45821586,Brooklyn Brownstone (gray bedroom - single bed),77599220726,verified,Julie,Brooklyn,South Slope,40.662420000000004,-73.98103,United States,US,True,moderate,Private room,2021,$360 ,$72 ,5,10.0,6/30/2019,0.43,5,2,23,"Please be respectful of other guests.  Keep the common areas clean and pick up after your self.  No loud music after 10:00PM.  It is a safe neighborhood but please, keep doors locked for safety No smoking in the house (smoking is allowed on the front or back decks).",
45822138,Private bed/bath / great views / Upper East Side,24824612718,verified,Hao,Manhattan,Upper East Side,40.76801,-73.96085,United States,US,False,flexible,Private room,2011,$459 ,$92 ,1,15.0,12/17/2017,0.61,1,1,0,,
45822690,"Room in spacious, light-filled Brownstone",19339966056,verified,William,Brooklyn,Bedford-Stuyvesant,40.69092,-73.93094,United States,US,False,strict,Private room,2005,$960 ,$192 ,3,5.0,4/20/2018,0.32,2,1,0,,
45823243,Stylish Large Bright Brooklyn Loft!!,10097078209,verified,Piya,Brooklyn,Bushwick,40.699709999999996,-73.93729,United States,US,True,flexible,Entire home/apt,2018,$755 ,$151 ,2,46.0,6/25/2019,1.92,1,1,19,We have two kids. We will be respectful to Guests and expect you to be the same. Its a 3 floor house and we live in the top floor so you will have quiet time. Kids go to Daycare all day.,
45823795,Gorgeous room on the Upper West Side,49130898592,unconfirmed,Erika,Manhattan,Morningside Heights,40.80723,-73.96222,United States,US,True,strict,Private room,2018,"$1,154 ",$231 ,5,18.0,6/16/2019,0.72,5,1,157,Building rule - respect other rooms quiet and private period after 10pm during weekdays and 11pm for weekend,
45824347,"1 bedroom w/ Queen bed, in Manhattan",70588657707,verified,Mauricio,Manhattan,Harlem,40.81375,-73.95268,United States,US,True,strict,Private room,2021,"$1,162 ",$232 ,2,0.0,,,1,1,0,"No pets.  No parties. No smoking. No alcohol consumption above 2 beers or the equivalent per night.  No loud music after 10pm, please, the building is full of Graduate students who study late at night.",
45824899,"Comfortable, private room in heart of Brooklyn!",50713694884,unconfirmed,Janet,Brooklyn,East Flatbush,40.6493,-73.94547,United States,US,False,flexible,Private room,2019,$788 ,$158 ,2,30.0,7/7/2019,1.21,1,1,104,I ask to be respectful to neighbors.  To leave everything as it was when arrived.  Make yourself at home.,
45825452,Sunny private apt 25 min from NYC,58747563398,unconfirmed,Shauna And Sarah,Queens,Woodside,40.7432,-73.91238,United States,US,True,moderate,Entire home/apt,2007,$807 ,$161 ,1,28.0,6/28/2019,1.14,1,1,13,"Please just keep your area reasonably clean and pick up after yourself.  Nothing special.  All the kitchen appliances that are there are available for your use.  Just wash your dishes and pick up any trash you have.   If anything gets dirty, no need to be embarrassed.  Just let us know so we can take care of it as soon as possible.   Also no smoking and no loud parties.  Come, enjoy yourself and have fun.",
45826004,"Cozy, private room in the heart of Fort Greene",72406020079,verified,Lisa,Brooklyn,Fort Greene,40.68287,-73.97117,United States,US,False,moderate,Private room,2003,$898 ,$180 ,3,1.0,7/24/2017,0.04,5,1,0,Please treat my home like your own and as you would expect me to treat yours.  Please smoke outside on the porch.  I do not allow pets.,
45826556,Cyn,5718555328,unconfirmed,Cyn,Brooklyn,Bedford-Stuyvesant,40.6785,-73.91478000000001,United States,US,True,moderate,Private room,2007,$245 ,$49 ,2,1.0,9/10/2018,0.1,5,1,0,"No disturbance When talking on the phone, please do it in your room with door closed Please walk, don't run the stairs Close all doors gently please Recycling/trash put in separate bags (provided) Guest confirms he/she is a non-smoker No smoking anywhere in or out of the house No perfume/cologne, scented laundry detergent allowed Unscented product available No guests/visitors any time, no shared rooms (one person per room) Guests will be liable for any damages they cause Very light kitchen use Please conserve natural resources Stove cooking is not possible Misrepresentation will result in cancellation at your expense",
45827109,Bright Renewed Apartment 1 minute from 1 train,61169247818,verified,Baden,Manhattan,Washington Heights,40.833659999999995,-73.94301999999999,United States,US,False,moderate,Private room,2014,$147 ,$29 ,2,97.0,6/30/2019,4.14,1,1,35,,
45827661,"1 bedroom, East Village Apt.",57442890818,unconfirmed,Bojana,Manhattan,East Village,40.728840000000005,-73.98517,United States,US,True,moderate,Entire home/apt,2020,$191 ,$38 ,25,19.0,6/24/2019,0.88,2,1,92,,
45828213,Designer Exposed Brick East Village Walk Up,76102399171,unconfirmed,Daniel,Manhattan,East Village,40.72746,-73.98781,United States,US,True,moderate,Entire home/apt,2017,$920 ,$184 ,4,11.0,7/6/2018,0.44,4,1,0,"- We're on the top floor of a multi-family dwelling, we know you'll be respectful and kind to the families downstairs! - We love to read and play board games; we'd love to share our books and games with you, just make sure they go back where you found them. - We invite you to use our kitchen and we're happy to share basics like oil and spices but please provide your own groceries - you'll have your own shelf in the refrigerator. - You're welcome to bring friends back to hang out but we ask that no one that we aren't prepared for spend the night! - Please indulge in our living room's mini theatre system - hook up your computer or phone to the monitor and speaker system with our business speed wifi for a great viewing experience.",
45828766,Sunny modern apt w great view- 1 stop to Manhattan,40450260360,verified,Tia,Queens,Long Island City,40.745090000000005,-73.94904,United States,US,False,flexible,Entire home/apt,2019,$58 ,$12 ,5,4.0,1/2/2019,0.32,1,1,7,,
45829318,Crown Heights Brooklyn residential rental!,43476277201,unconfirmed,Esty,Brooklyn,Crown Heights,40.66891,-73.94605,United States,US,True,flexible,Entire home/apt,2022,$542 ,$108 ,3,23.0,6/8/2019,0.93,4,1,120,Clean up after oneself Be respectful Be courteous of neighbors,
45829870,"Spacious room, great college area, 1 blck to train",45404570411,unconfirmed,Yimka,Brooklyn,Clinton Hill,40.69112,-73.96059,United States,US,False,moderate,Private room,2006,"$1,174 ",$235 ,7,3.0,7/30/2017,0.12,2,1,0,"Please just keep your area reasonably clean and pick up after yourself. Nothing special. All the kitchen appliances that are there are available for your use. Just wash your dishes and pick up any trash you have. If something has happened don't feel embarrassed, just let us know and we'll take care of it. Also no smoking and no loud parties. Come, enjoy yourself and have fun.",
45830422,Brooklyn Hot Spot with Best Manhattan Views,21734253413,verified,Kelly,Brooklyn,Greenpoint,40.72627,-73.95943,United States,US,False,flexible,Entire home/apt,2005,$958 ,$192 ,3,0.0,,,2,1,0,Please don't eat the food in the fridge.,
45830975,Cosy quiet nest on a Mulberry tree,88696985644,unconfirmed,Liliya,Brooklyn,Bedford-Stuyvesant,40.68627,-73.94106,United States,US,False,moderate,Entire home/apt,2019,$515 ,$103 ,2,24.0,6/19/2019,1.14,4,1,10,#NAME?,
45831527,Bright & Airy Private Room in the Heart of Harlem,37014169724,verified,Moraa,Manhattan,Harlem,40.801120000000004,-73.95232,United States,US,True,strict,Private room,2016,$607 ,$121 ,14,3.0,12/27/2017,0.12,3,1,0,"No smocking inside, no party, no loud music after 11PM.",
45832079,Sunny Bedroom with Roof access in The East Village,2025535312,verified,Sydnei,Manhattan,East Village,40.726859999999995,-73.97864,United States,US,True,strict,Private room,2014,$956 ,$191 ,20,0.0,,,5,1,0,No smoking indoors (a big porch with seating available for smokers)  Guests are expected to clean up after themselves in the bathroom and in the kitchen.,
45832632,Hideaway Relaxed spot,37789468935,unconfirmed,Courtney,Brooklyn,Kensington,40.63142,-73.97154,United States,US,False,flexible,Private room,2006,"$1,065 ",$213 ,1,0.0,,,2,1,0,,
45833184,Honeycomb hideout,89198463744,verified,Shoshannah,Bronx,Wakefield,40.903909999999996,-73.85311999999999,United States,US,True,flexible,Entire home/apt,2014,$220 ,$44 ,2,34.0,6/22/2019,1.42,5,1,77,Quiet building.,
45833736,One bedroom; private house; great location,74573541143,unconfirmed,Judy,Queens,Whitestone,40.780809999999995,-73.82005,United States,US,True,strict,Private room,2015,$301 ,$60 ,2,0.0,,,3,1,0,"This is my full-time residence, I appreciate that you treat the home as if it is your own. Please note that I have a dog and pets are allowed so if you have any Pet allergies no need to inquire. Please leave locked drawers and closets alone, all non-locked items as they were, and contact me immediately with any question or concerns. Please no open flames, candles, incense, etc. and no smoking.",
45834289,NEWLY RENOVATED flat in doorman building,93905183075,verified,Yana,Manhattan,Lower East Side,40.71992,-73.99251,United States,US,True,strict,Entire home/apt,2004,$742 ,$148 ,5,6.0,7/1/2019,0.24,5,1,45,Welcome to my home. I hope you will treat it as you would your own.,
45834841,"JFK 10mins, LGA 15mins drive, Two Beds in a Room",71109634554,verified,Dr. Shirin,Queens,Briarwood,40.70962,-73.80615999999999,United States,US,True,strict,Private room,2021,$823 ,$165 ,1,32.0,7/1/2019,1.29,5,6,364,,
45835393,new apt for sublet a year,714564107,verified,Sophie,Brooklyn,Vinegar Hill,40.69891,-73.98473,United States,US,False,strict,Entire home/apt,2010,$487 ,$97 ,360,0.0,,,4,1,365,,
45835945,Garden Apartment in Carroll Gardens Townhouse,73374501803,unconfirmed,Sarah,Brooklyn,Carroll Gardens,40.67811,-74.00102,United States,US,True,flexible,Entire home/apt,2008,"$1,089 ",$218 ,2,52.0,6/20/2019,2.16,3,1,9,"We love guests who are respectful, clean up after themselves, and understand that we work from home so although we may be physically present in the home, we might be preoccupied with our work. No smoking or drugs of any kind, even outside. ",
45836498,"2 beds in nice rooms, JFK&LGA 15 minutes",37920491197,unconfirmed,Dr. Shirin,Queens,Briarwood,40.70988,-73.80691,United States,US,False,flexible,Private room,2007,$963 ,$193 ,2,38.0,6/16/2019,1.53,5,6,365,,
45837050,upstairs single with queens bed and all decorative,96169400200,verified,Dr. Shirin,Queens,Briarwood,40.70848,-73.80606999999999,United States,US,False,flexible,Private room,2020,$937 ,$187 ,1,22.0,9/30/2017,0.89,5,6,0,No Tobacco,
45837602,Cute Harlem Bedroom,49006893794,unconfirmed,Jules,Manhattan,Harlem,40.81783,-73.95345999999999,United States,US,True,moderate,Private room,2013,$467 ,$93 ,1,2.0,6/28/2017,0.08,4,1,0,,
45838155,Soho Downtown - Large Sunny Private Room!,98623263620,verified,Louise,Manhattan,SoHo,40.72635,-74.00298000000001,United States,US,True,moderate,Private room,2006,$815 ,$163 ,1,1.0,7/5/2017,0.04,3,1,0,"• No parties or events • No smoking This is a smoke-free house but you are welcome o smoke on the balcony, Pleas keep it clean. If you have a pet please let me know and I would be happy to consider. I hope to make your stay as easy and comfortable as possible. Please email me  anytime if you have any questions!",
45838707,The Sterling Flat,95547927636,unconfirmed,Maxine,Brooklyn,Prospect-Lefferts Gardens,40.661970000000004,-73.9543,United States,US,True,moderate,Entire home/apt,2006,$521 ,$104 ,1,2.0,7/3/2017,0.08,4,1,0,"No smoking, no parties, and no pets, please!",
45839259,Private Room in Great East Village Apartment!,72837308581,verified,Lauren,Manhattan,East Village,40.72036,-73.97889,United States,US,False,flexible,Private room,2003,$741 ,$148 ,1,2.0,7/17/2017,0.08,5,1,0,,
45839812,Crown Heights Guest House 3R,36142094296,unconfirmed,Abraham,Brooklyn,Crown Heights,40.6692,-73.9359,United States,US,True,moderate,Entire home/apt,2019,$958 ,$192 ,3,32.0,7/1/2019,1.36,4,9,72,"Non-smoker only Perfume/cologne/scented product not allowed Mild scent deodorant OK but no sprays If guest cases damages, the host can claim under the law of MA",
45840364,"Bright, Spacious West Village Getaway!",55747617850,verified,Ana,Manhattan,West Village,40.7328,-74.00845,United States,US,False,strict,Entire home/apt,2006,$837 ,$167 ,2,1.0,7/21/2017,0.04,1,1,0,,
45840916,Heart of Chelsea Private room in a serviced 2BD,94532642875,verified,Tala,Manhattan,Chelsea,40.7417,-74.00229,United States,US,False,moderate,Private room,2012,$782 ,$156 ,3,1.0,7/15/2017,0.04,4,1,0,"Please be respectful of other guests.  Keep the common areas clean and pick up after your self.  No loud music after 10:00PM.  It is a safe neighborhood but please, keep doors locked for safety No smoking in the house (smoking is allowed on the front or back decks).",
45841468,"Private room in charming, eclectic Flushing home",70611985171,unconfirmed,Laura,Queens,Flushing,40.754740000000005,-73.82166,United States,US,True,strict,Private room,2017,$187 ,$37 ,1,0.0,,,2,1,0,"- Clean up after yourself, be respectful, and there will be no problems!",
45842021,"Private, Cozy Bedroom in the Upper East",88361520707,unconfirmed,Tim,Manhattan,Upper East Side,40.78119,-73.9462,United States,US,True,moderate,Private room,2004,$384 ,$77 ,22,1.0,12/12/2018,0.14,1,1,0,,
45842573,"Spacious, sunny and private BR in Woodside, Queens",55137465790,unconfirmed,Victoria,Queens,Woodside,40.745090000000005,-73.89649,United States,US,False,strict,Private room,2014,$91 ,$18 ,2,2.0,7/23/2017,0.08,5,1,0,"No drugs, smoking, or guests. Keep the tv volume down when roommates are sleeping. I will only accept offers from guests with previous reviews.",
45843125,Peaceful Private Bedroom in Brownstone with Garden,9645845352,unconfirmed,Mathilde,Brooklyn,Bedford-Stuyvesant,40.692009999999996,-73.95795,United States,US,True,moderate,Private room,2019,$668 ,$134 ,2,3.0,8/24/2017,0.12,1,1,0,,
45843678,"Getaway to the city, 2 blocks from train (C)",20803726299,verified,Silvia,Brooklyn,East New York,40.67392,-73.88892,United States,US,False,strict,Entire home/apt,2015,"$1,200 ",$240 ,3,45.0,6/15/2019,1.82,4,8,356,"Please keep shoes off while inside. Food should be kept in the kitchen/dining area. Be mindful of our great neighbors and keep noise to a reasonable level. No pets or smoking, please!",
45844230,Chelsea Gem,60080589607,unconfirmed,Donna,Manhattan,Chelsea,40.74625,-73.99911,United States,US,True,moderate,Entire home/apt,2015,$768 ,$154 ,5,17.0,7/1/2019,0.88,2,1,15,"This is two bedroom located in the heart of Brighton. It takes you to downtown by T within 20 minutes. The T is super close. The house rules are kind of very simple so please no smoking inside the house. No additional guest ($20 USD will be charged for per person if you have your guests) +Kitchen: If you cook, please clean up after yourself. I will provided everything like pans, pots, dishes, utensils, etc +Bathroom: I will be providing  towels and shampoo. But no toothpaste and toothbrush.  One more thing, time to check in is 3PM and check out time 12PM. Please shoes off in the house.",
45844782,PRIVATE BACK PATIO - light-filled luxury apartment,8068416817,verified,Molly,Brooklyn,Bedford-Stuyvesant,40.692240000000005,-73.95819,United States,US,False,flexible,Private room,2016,$83 ,$17 ,4,1.0,7/1/2017,0.04,1,1,0,"Please keep the apartment clean for the next guest. Remove the trash to the dumpster, take the bed linen off the bed and drop into the laundry basket in the restroom. There's a coin operated laundry on the same floor. $1.75 washer and $0.75 drier. You can find the detergent in the small closet by the front door. feel free to use the laundry room if you need to. Thank you and have a nice stay in Boston",
45845335,"Contemporary, Comfy & Affordable Brooklyn (Rm#2)",47481577422,verified,Charlene,Brooklyn,East Flatbush,40.64156,-73.93177,United States,US,False,strict,Private room,2014,$765 ,$153 ,7,62.0,11/8/2018,2.53,5,4,30,,
45845887,Peaceful Room in the heart of Clinton Hill,80062794819,unconfirmed,Sarah,Brooklyn,Clinton Hill,40.68618,-73.96179000000001,United States,US,False,strict,Private room,2012,$808 ,$162 ,1,6.0,8/13/2017,0.24,2,2,0,"A few totally painless house rules:  - Please take your shoes off once inside the apartment. My apartment is kept very clean and tidy, so taking shoes off is essential to keeping it the same way for you and for me. - Kitchen is available for ""light use"" and ""vegetarian"" food only. You are free to bring in outside cooked food/meat. Please stack the dishes in the dishwasher to the left of the sink. Keep the kitchen and counters clean immediately after use. Food should be consumed only in the dining area and not in the room. - When leaving the apartment, please always lock the top lock on the door, shut off all the lights before you leave, if you open windows, please close and lock them before you leave the apartment. - Quiet time after 10pm. - NO SMOKING IN THE APARTMENT (You can smoke in the balcony area)!  - SADLY NO PETS!! - ABSOLUTELY NO PARTIES!!!",
45846439,"Lovely Room for A Real, Cozy Brooklyn Experience",83863539635,verified,Joe,Brooklyn,Flatbush,40.63609,-73.96687,United States,US,True,moderate,Private room,2008,$959 ,$192 ,2,1.0,8/13/2017,0.04,3,1,0,Please leave shoes at the front door. Guests should wash dishes after using them and clean the stove after each use.  Please keep common areas clean (especially the bathroom).  Do not leave towels lying around (either hang on the rack in the bathroom or in the closet) Do not make noise after midnight.  No additional guests,
45846991,Sun Filled 18ft Ceiling Duplex Noho/East Village,82496493068,unconfirmed,Genevieve,Manhattan,NoHo,40.7291,-73.99246,United States,US,False,strict,Entire home/apt,2004,$558 ,$112 ,2,37.0,5/19/2019,1.5,4,1,5,#NAME?,
45847544,"Bright, Spacious Room in Historical Neighborhood",11357414199,unconfirmed,Charlotte And Mary,Manhattan,Harlem,40.82186,-73.94624,United States,US,False,flexible,Private room,2013,$322 ,$64 ,2,2.0,7/19/2017,0.08,3,2,0,"Please be respectful of other guests.  Keep the common areas clean and pick up after your self.  No loud music after 10:00PM.  It is a safe neighborhood but please, keep doors locked for safety No smoking in the house (smoking is allowed on the front or back decks).",
45848096,Beautiful BRIGHT and SUNNY - BEST location in NYC!,93957325697,unconfirmed,Nancy,Manhattan,East Village,40.72489,-73.98956,United States,US,True,flexible,Entire home/apt,2008,"$1,161 ",$232 ,4,14.0,5/24/2019,0.58,2,1,16,,
45848648,Washington Heights room,93743086707,unconfirmed,Erin,Manhattan,Washington Heights,40.84118,-73.93697,United States,US,False,moderate,Private room,2011,"$1,092 ",$218 ,2,1.0,1/4/2018,0.05,1,1,0,,
45849201,Big furnitured room in UWS for August!,4987853892,verified,Alan,Manhattan,Upper West Side,40.79205,-73.97261999999999,United States,US,True,strict,Private room,2020,$779 ,$156 ,5,0.0,,,1,1,0,"Regular tenant requirements, no noise, do not disturb neighbors.",
45849753,Stylish Share With Exposed Brick In Brooklyn,40281320778,verified,Eden,Brooklyn,Bedford-Stuyvesant,40.68936,-73.94189,United States,US,True,strict,Private room,2017,$384 ,$77 ,14,1.0,7/16/2017,0.04,5,1,0,,
45850305,Your Quiet Refuge in the Heart of Manhattan,53144179366,unconfirmed,Carolina,Manhattan,Civic Center,40.71195,-74.00757,United States,US,True,moderate,Entire home/apt,2008,"$1,150 ",$230 ,3,3.0,4/15/2019,0.13,4,1,19,This is two bedroom located in the heart of Brighton. It takes you to downtown by T within 20 minutes. The T is super close. The house rules are kind of very simple just please no smoking inside the house and no partying. No additional guest ($30 USD will be charged for per person if you have your guests) Shoes off please,
45850858,LUXURY STUDIO ON UPPER EAST SIDE BY CENTRAL PARK,78717671320,unconfirmed,Inna,Manhattan,Upper East Side,40.76833,-73.95581,United States,US,False,moderate,Entire home/apt,2018,$78 ,$16 ,30,9.0,7/1/2019,0.38,3,16,340,,
45851410,Prime Williamsburg Location- Few Steps to Subway,4937566456,unconfirmed,Elisa-Beth,Brooklyn,Williamsburg,40.71487,-73.94524,United States,US,True,flexible,Private room,2018,$246 ,$49 ,5,1.0,2/26/2019,0.23,3,1,33,,
45851962,Sunny & Quaint NYC Loft in Chelsea/Meatpacking,86291847860,verified,Audrey,Manhattan,West Village,40.740120000000005,-74.00364,United States,US,True,flexible,Entire home/apt,2009,$824 ,$165 ,2,1.0,7/31/2017,0.04,2,1,0,Please do not block other cars.,
45852514,Great space for 1 or 2 guests!,19109560386,verified,Zoilo,Queens,Astoria,40.76065,-73.90905,United States,US,True,flexible,Entire home/apt,2005,$434 ,$87 ,4,6.0,9/1/2018,0.48,3,1,0,,
45853067,Two Private Floors in brownstone by Prospect Park,84345585489,unconfirmed,Brandon,Brooklyn,Prospect Heights,40.67602,-73.96593,United States,US,True,flexible,Private room,2003,$991 ,$198 ,5,0.0,,,2,2,1,"Please be respectful of other guests.  Keep the common areas clean and pick up after your self.  No loud music after 10:00PM.  It is a safe neighborhood but please, keep doors locked for safety No smoking in the house (smoking is allowed on the front or back decks).",
45853619,Full floor in Artists Triplex Brownstone,80611261723,unconfirmed,Kateryna & Michael,Brooklyn,Bedford-Stuyvesant,40.687670000000004,-73.95495,United States,US,True,strict,Private room,2013,$452 ,$90 ,2,6.0,6/5/2019,0.91,3,1,52,,
45854171,"Private, Cozy, & Conveniently located Chelsea Room",6639154143,verified,Serena,Manhattan,Chelsea,40.7476,-73.99348,United States,US,False,moderate,Private room,2021,$995 ,$199 ,2,21.0,4/5/2018,0.96,5,1,0,,
45854724,"Bright, clean room in great location",46407228300,verified,Annesofie,Queens,Long Island City,40.74538,-73.94747,United States,US,True,moderate,Private room,2016,$834 ,$167 ,2,17.0,6/3/2018,0.68,1,1,0,No smoke,
45855276,Sun-filled Oasis in Crown Heights,79306700741,verified,Sarah,Brooklyn,Crown Heights,40.666579999999996,-73.95167,United States,US,False,flexible,Entire home/apt,2003,$951 ,$190 ,1,0.0,,,2,1,0,Welcome to my home. I hope you will treat it as you would your own.,
45855828,Spotless Clean room private entrance  paid parking,88404516836,unconfirmed,Jim&Lisa,Queens,Flushing,40.75712,-73.8122,United States,US,False,flexible,Private room,2016,$492 ,$98 ,2,45.0,7/1/2019,1.87,1,6,365,"Absolutely *no* smoking is allowed on the premise of the property. The upstairs tenant suffers from severe asthma. Please note that by violating this rule, you will be forfeiting the entirety of your $250 security deposit.",
45856381,Big Private Bedroom on Roosevelt Island,68938029717,verified,Erik,Manhattan,Roosevelt Island,40.760740000000006,-73.94943,United States,US,True,strict,Private room,2008,$481 ,$96 ,1,12.0,5/22/2019,0.48,1,2,0,,
45856933,"Joy's Place! Cozy, Comfortable and Quaint home",89004053084,unconfirmed,Joy,Brooklyn,Bedford-Stuyvesant,40.68326,-73.92448,United States,US,False,moderate,Entire home/apt,2013,$782 ,$156 ,3,80.0,6/22/2019,3.38,5,1,42,#NAME?,
45857485,Private Room in Modern Loft in Williamsburg,42703836917,unconfirmed,Liz,Brooklyn,Williamsburg,40.71152,-73.93902,United States,US,False,strict,Private room,2019,$588 ,$118 ,3,3.0,1/3/2018,0.14,5,2,269,No smoking.,
45858037,Quiet and Sunny Astoria NYC apt,34154226501,unconfirmed,Jason,Queens,Astoria,40.75636,-73.92699999999999,United States,US,True,strict,Entire home/apt,2020,$775 ,$155 ,30,10.0,8/21/2018,0.41,3,1,3,"Please be respectful of other guests.  Keep the common areas clean and pick up after your self.  No loud music after 10:00PM.  It is a safe neighborhood but please, keep doors locked for safety No smoking in the house (smoking is allowed on the front or back decks).",
45858590,Luxury Central Park Apartment close to everything,27191943525,verified,Bozhena,Manhattan,Harlem,40.80369,-73.94856999999999,United States,US,True,strict,Entire home/apt,2011,$248 ,$50 ,2,143.0,7/5/2019,5.77,3,3,197,"Please be respectful of other guests.  Keep the common areas clean and pick up after your self.  No loud music after 10 pm.  No pets. It is a safe neighborhood but please, keep doors locked for safety No smoking in the house (smoking is allowed on the front or back decks).",
45859142,"Lovely room, close to all!",88999966991,unconfirmed,Maria,Queens,Maspeth,40.73832,-73.90669,United States,US,False,flexible,Private room,2018,"$1,051 ",$210 ,2,41.0,7/1/2019,1.68,1,1,154,,
45859694,Loft in The Heart of Bushwick,23258578789,verified,Camila,Brooklyn,Williamsburg,40.70642,-73.92739,United States,US,True,moderate,Entire home/apt,2015,"$1,135 ",$227 ,8,6.0,7/23/2018,0.25,1,1,0,Pets are not allowed ,
45860247,Ballet Suite,95190985778,unconfirmed,Misha,Manhattan,Washington Heights,40.838029999999996,-73.94421,United States,US,True,strict,Private room,2010,$486 ,$97 ,30,0.0,,,4,1,0,"No smoking --- only smoking on the patio with doors and windows closed is permitted. No parties or extra guests without prior consent.  This is a quiet building with professionals living on each floor. Use of kitchen is permitted, but dishes must be put away (loaded in dishwasher) and pots and pans cleaned before leaving. A VirtuoLine Nespresso makers is available for guest use --- coffee pods are provided for you to enjoy.  Instructions are on-site. Use of washer/dryer is NOT permitted.",
45860799,Cool town house,80855100205,unconfirmed,Mark,Brooklyn,Carroll Gardens,40.68254,-73.99207,United States,US,False,flexible,Entire home/apt,2015,$249 ,$50 ,4,11.0,12/29/2018,0.44,4,1,2,"There are no pets or smoking allowed. Because there is another family living upstairs, loud music and partying is not allowed Please treat my home as if it were yours",
45861351,Bright and Sunny Lower East Side Studio!,50777738869,verified,Elise,Manhattan,Lower East Side,40.72034,-73.98617,United States,US,False,flexible,Entire home/apt,2010,$259 ,$52 ,2,20.0,6/16/2019,0.97,4,1,37,1. Do adjust the heat/central air to your liking. 2. Do feel free to use all the amenities in the kitchen/bathroom. 3. Don't mind the neighbors. 4. Don't use the backyard space. 5. Park on the street - the parking space is for the downstairs neighbor only. 6. Smoke outdoors.,
45861904,"Charming Hotel Alternative 2
Mount Sinai",74508453555,verified,Vivianne,Manhattan,East Harlem,40.79179,-73.94506,United States,US,True,moderate,Private room,2010,$206 ,$41 ,3,21.0,6/16/2019,0.91,5,2,125,"This is a smoke-free house. Otherwise, we just ask you to be respectful and considerate of others.",
45862456,Private studio at a housework with backyard,70678594170,verified,Sherry,Queens,Maspeth,40.73519,-73.90271,United States,US,True,flexible,Entire home/apt,2003,$773 ,$155 ,3,7.0,4/13/2018,0.28,4,1,0,"Please be respectful of other guests.  Keep the common areas clean and pick up after your self.  No loud music after 10:00PM.  It is a safe neighborhood but please, keep doors locked for safety No smoking in the house (smoking is allowed on the front or back decks).",
45863008,Private room with A/C & great bed by Prospect Park,86388891356,verified,John,Brooklyn,Prospect-Lefferts Gardens,40.65653,-73.95786,United States,US,True,flexible,Private room,2022,"$1,082 ",$216 ,1,124.0,6/24/2019,5.02,4,1,24,No pets are allowed in the house.,
45863560,Sunny livingroom in 1 bedroom. Couch only though.,79144071559,verified,Samantha,Manhattan,Washington Heights,40.85471,-73.93016,United States,US,False,moderate,Private room,2015,"$1,134 ",$227 ,1,1.0,7/24/2017,0.04,3,1,0,"House quiet hours are 10PM to 8AM. No smoking, No Pets.",
45864113,Spacious and Clean Private Bedroom in NYC,89495271612,verified,Andy,Manhattan,Upper West Side,40.79503,-73.96715,United States,US,True,moderate,Private room,2019,$620 ,$124 ,1,55.0,5/24/2018,2.23,5,1,0,,
45864665,Duplex   Roof top  in the heart of crown hight,4193880545,unconfirmed,Delton,Brooklyn,Crown Heights,40.67398,-73.92787,United States,US,True,moderate,Entire home/apt,2012,$998 ,$200 ,2,65.0,7/7/2019,2.67,4,1,308,Please be respectful to other tenants.,
45865217,TRUE WEST VILLAGE GROUND FL. WITH GARDEN!!,21173389066,verified,Gillian,Manhattan,West Village,40.73852,-74.00269,United States,US,True,moderate,Entire home/apt,2017,$262 ,$52 ,30,0.0,,,1,1,264,"not smocking in the apt, you can smoke in the porch down stairs parties allowed in the porch downstairs",
45865770,"Great Catch, Don't miss out!",2020013558,verified,Johny,Brooklyn,Bedford-Stuyvesant,40.69257,-73.94657,United States,US,True,strict,Entire home/apt,2015,$908 ,$182 ,3,82.0,6/19/2019,3.3,1,7,247,Please be respectful to the apartment and the other people who live in the space.,
45866322,"New studio in Gowanus, Brooklyn",2264417433,verified,Iván,Brooklyn,Gowanus,40.67835,-73.9908,United States,US,False,strict,Entire home/apt,2005,"$1,173 ",$235 ,10,0.0,,,1,1,0,"No smoking, drugs, or drinking, please.",
45866874,Private bathroom and bedroom for 1 -2 people,20267085332,unconfirmed,Hangi,Manhattan,Hell's Kitchen,40.75548,-73.9951,United States,US,True,strict,Private room,2009,$735 ,$147 ,4,1.0,7/3/2017,0.04,4,1,0,"Treat the home as if it were your own. If you need to smoke, you can smoke on the porch",
45867427,Harlem Get Away,34244702966,verified,Roger,Manhattan,Harlem,40.8101,-73.94021,United States,US,True,strict,Private room,2009,$650 ,$130 ,2,55.0,6/23/2019,2.24,4,1,208,,
45867979,Bright Quiet Airy Tribeca Loft,77511513665,unconfirmed,Victoria,Manhattan,Tribeca,40.72403,-74.00858000000001,United States,US,False,flexible,Entire home/apt,2021,$596 ,$119 ,2,7.0,5/26/2019,0.29,4,1,0,,
45868531,Modern and Artful Home in Manhattan/NYC,93122709033,verified,Marlyn,Manhattan,East Harlem,40.80138,-73.94413,United States,US,False,moderate,Entire home/apt,2007,$490 ,$98 ,4,86.0,6/29/2019,3.68,1,1,1,Clean is a must.. No smoking cigars.,
45869083,Brooklyn's 3 bdrm Honeycomb,638038881,verified,Belinda,Brooklyn,East New York,40.669290000000004,-73.89079,United States,US,True,strict,Entire home/apt,2018,$929 ,$186 ,2,73.0,6/23/2019,2.98,3,2,171,This is a private room with access to a private rooftop deck. The bathroom is shared with one roommate who is at work from 6am-6pm. The kitchen is available for your use. The room has a minifridge with water and cold brewed coffee.  We ask that you don't smoke.,
45869636,Greenpoint top floor w/ sun & views,95614805380,unconfirmed,Blake,Brooklyn,Greenpoint,40.72412,-73.95260999999999,United States,US,True,moderate,Private room,2006,$701 ,$140 ,1,0.0,,,1,1,0,"Please be respectful of other guests.  Keep the common areas clean and pick up after your self.  No loud music after 10:00PM.  It is a safe neighborhood but please, keep doors locked for safety  No smoking in the house (smoking is allowed on the front or back decks).",
45870188,Nice room near Columbia University,21486195431,verified,Jessie,Manhattan,Upper West Side,40.802209999999995,-73.96514,United States,US,True,moderate,Private room,2006,$145 ,$29 ,1,4.0,8/2/2017,0.17,1,1,0, No smoking in house but on the balcony it's ok. No more than 2 people. One real bed and one Murphy's bed (pull-out). Shared bath in the (URL HIDDEN) overnight guests. keep noise level down. Have fun but be respectful of the type of neighborhood that we are in. no pets (URL HIDDEN) more than 3 night stays at a time.,
45870740,Bed-Stuy Brownstone huge sunny room 25mins to LES,93073911495,unconfirmed,Shannon,Brooklyn,Bedford-Stuyvesant,40.6834,-73.92035,United States,US,True,strict,Private room,2007,$820 ,$164 ,2,63.0,6/29/2019,2.53,3,2,102,No Smoking in the Apartment.  Pretty laid back home here with two cats that have free reign.  Not a huge place so don't party here. Social & Respectful w/ cleaning after ourselves.  Respecting quiet at night.,
45871293,"BEAUTIFUL LOFTY APT in the HEART of WBURG, BK",62357159795,verified,Simon & Jessie,Brooklyn,Williamsburg,40.715270000000004,-73.95945999999999,United States,US,False,flexible,Entire home/apt,2018,$67 ,$13 ,7,10.0,5/30/2019,0.43,4,1,83,"Please be respectful of other guests.  Keep the common areas clean and pick up after your self.  No loud music after 10:00PM.  It is a safe neighborhood but please, keep doors locked for safety No smoking in the house (smoking is allowed on the front or back decks).",
45871845,Beautiful Room in Brooklyn with 2 Roommates,97222322781,verified,Saya,Brooklyn,Crown Heights,40.6719,-73.93475,United States,US,False,moderate,Private room,2011,$498 ,$100 ,7,5.0,3/29/2019,0.25,5,1,36,"- Bathroom and kitchen are shared, so please clean up after yourself immediately to respect the other guests!",
45872397,Luxury Secured Building / Chic NYC Studio,18329292796,verified,Daniela,Manhattan,Midtown,40.76064,-73.97066,United States,US,False,strict,Entire home/apt,2008,$648 ,$130 ,4,2.0,9/23/2017,0.08,1,1,178,Absolutely no smoking/drugs Keep the place as clean as you found it Keep the noise down at night,
45872950,Cozy studio in the heart of Chelsea!,93446634272,unconfirmed,Eric,Manhattan,Chelsea,40.7483,-74.00031,United States,US,True,flexible,Entire home/apt,2011,$120 ,$24 ,2,10.0,9/3/2018,0.41,2,1,5,No smoking in the unit ( strict)  No pets (strict)  No bringing guys inside (strict)  No open flame There is a $100 charge for lost key due to the tap system installed in building  Please keep your volume down to respect other neighbors,
45873502,Spacious one bedroom in midtown Manhattan,64696721653,unconfirmed,Stanley,Manhattan,Murray Hill,40.74818,-73.97537,United States,US,True,flexible,Entire home/apt,2005,$468 ,$94 ,30,1.0,1/17/2018,0.06,3,50,342,Guests are encouraged to feel at home but be respectful and gentle.  A welcome sheet is provided in your room with useful information,
45874054,NIce one bedroom in midtown Manhattan,20754537932,verified,Stanley,Manhattan,Murray Hill,40.74843,-73.97715,United States,US,False,moderate,Entire home/apt,2005,$527 ,$105 ,30,1.0,1/31/2018,0.06,5,50,365,No Smoking Please leave all things the way you found them.  No pets allowed. We will leave more detailed guidelines in the apartment.,
45874606,Nice room with terrific skyline view in cosy apt,95971910285,unconfirmed,Coline,Brooklyn,Williamsburg,40.7098,-73.94834,United States,US,True,flexible,Private room,2004,"$1,090 ",$218 ,3,12.0,9/1/2018,0.51,4,1,0,No shoes inside the house,
45875159,Adorable apartment for your stay,69505363779,unconfirmed,Cat,Manhattan,Upper East Side,40.77366,-73.95755,United States,US,False,flexible,Entire home/apt,2020,"$1,157 ",$231 ,7,0.0,,,5,1,0,"I spent a lot of time and effort renovating my property, so I ask that you respect it as your own. Please be cognizant of neighbors - no loud music, no parties, and no people who aren't a part of the reservation should be staying overnight. Please leave all used sheets/towels in the bathroom. * No SMOKING in the unit * No PETS",
45875711,Spacious 2BR APT in Upper Manhattan,45167500640,unconfirmed,Stephanie,Manhattan,East Harlem,40.79749,-73.93336,United States,US,True,moderate,Private room,2006,$362 ,$72 ,1,1.0,12/10/2017,0.05,5,2,177,"House Rules 1. Check-in is 4 pm local time. If the unit is ready earlier, we’ll let you know. Check-out is normally 11 am local time, but we’d be happy to extend it as long as we don’t have a cleaning scheduled. Just let us know.  2. All bookings require a security deposit of at least $300, which will be refunded within 7 days of your check-out. 3. For security measures we require all guests to provide proof of identification through ID verification on our own website. In order to check in we'll need a photo of your ID.  4. Our cancellation policy is as shown on our ad and defined by the site you are booking through.  5. Don’t let $300 go up in smoke. There's no smoking allowed in any Flatbook and a $300 fine for breaking this rule.  6. Unfortunately we don’t allow pets in any of our apartments. 7. Unless you’re staying in one of our specialty apartments, we don’t allow parties or excessive noise. 8. If we find the place very messy, we have to charge an extra $40 for every extra hour o",
45876263,"Quiet, Comfy Room in Unbeatable Wburg Location!",73690833223,unconfirmed,Wes,Brooklyn,Williamsburg,40.71228,-73.9599,United States,US,False,strict,Private room,2018,"$1,084 ",$217 ,2,31.0,6/15/2019,1.26,4,2,5,"Please be respectful of other guests.  Keep the common areas clean and pick up after your self.  No loud music after 10 pm.  No pets. It is a safe neighborhood but please, keep doors locked for safety No smoking in the house (smoking is allowed on the front or back decks).",
45876816,"Spacious, Prime Carroll Gardens, BK Apartment",66079452259,verified,Tim,Brooklyn,Carroll Gardens,40.67507,-73.99805,United States,US,True,strict,Entire home/apt,2020,$905 ,$181 ,2,6.0,8/15/2017,0.24,2,1,0,,
45877368,Sunny Bed-Stuy apartment with rooftop access,46378607891,unconfirmed,Sasha,Brooklyn,Bedford-Stuyvesant,40.69232,-73.93446,United States,US,True,flexible,Private room,2014,$103 ,$21 ,2,3.0,7/16/2017,0.12,4,2,0,"Pets: No pets are allowed in the apartment. There are no exceptions. Smoking: No smoking is allowed in the apartment. There are no exceptions. Parties: Small, quiet gatherings of six to eight people are fine. But large parties in the apartment are strictly off-limits.  Internet: Network name is [provided upon arrival]. Password is [provided upon arrival]. TV: We have cable service through Xfinity. Remote controls are in the TV console. You are free to watch the channels included in our package, but please do not order any movies or shows. Coffee: The coffeepot in the kitchen is a Bunn coffee maker. If you are not familiar with brewing coffee with a Bunn, please read the instructions behind the coffeepot (red pamphlet). If you don’t, you will be sorry because there will probably be coffee all over the counter and floor! Laundry: In the basement there are two washers and two dryers, which you are free to use. Please use the detergent, fabric softener, and dryer sheets in the plastic bin ",
45877920,Two bridges high end studio manhattan,6395375223,unconfirmed,Kyriaki,Manhattan,Two Bridges,40.711090000000006,-73.99616,United States,US,True,moderate,Entire home/apt,2004,$221 ,$44 ,6,42.0,6/15/2019,2.13,1,2,221,,
45878473,2 bedroom flat in Greenwich Village New York,49788860873,unconfirmed,Lydia,Manhattan,West Village,40.73247,-74.00335,United States,US,True,moderate,Entire home/apt,2022,$293 ,$59 ,2,54.0,6/20/2019,2.22,1,1,79,,
45879025,Spacious and airy room in prime South Williamsburg,66271002299,unconfirmed,Andrea,Brooklyn,Williamsburg,40.70928,-73.9659,United States,US,True,strict,Private room,2022,$74 ,$15 ,3,4.0,8/1/2017,0.16,1,1,0,"We expect respect during the workweek as any other working professional would! Otherwise enjoy have fun, go out and enjoy what Boston has to offer. Also for Parties and events we love to have everything pre-cleared with us. Thanks!",
45879577,See for yourself :),82931568765,unconfirmed,Zachary,Brooklyn,Bushwick,40.68663,-73.90720999999999,United States,US,True,moderate,Private room,2005,$747 ,$149 ,3,8.0,9/29/2017,0.32,3,1,0,"House Rules 1. All bookings made at least a week before check in are fully refundable if cancelled within 24 hours of booking. After this, you will receive a 50% refund if you cancel at least 7 days before the start of your trip. 2. Check-in time is any time after 4 pm local time. If the unit is ready earlier, we’ll let you know. Check-out is normally 11 am local time, but we’d be happy to extend it as long as we don’t have a cleaning scheduled. Just let us know.  3. All bookings require a security deposit of at least $300. 4. For security measures we require all guests to provide proof of identification through ID verification on our own website. In order to check in, we'll need a photo of your ID.  5. Don’t let $300 go up in smoke. There's no smoking allowed in any Flatbook and a $300 fine for breaking this rule.  6. Unfortunately we don’t allow pets in most of our apartments. 7. Unless you’re staying in one of our specialty apartments, we don’t allow parties or excessive noise. 8. I",
45880129,"Apartment in Manhattan, Near Express Trains & Park",6563107318,verified,Chloe,Manhattan,Harlem,40.80964,-73.94321,United States,US,True,moderate,Entire home/apt,2006,$952 ,$190 ,2,12.0,4/7/2019,0.5,4,1,0,"No pets, no smoking of any manner or tobacco products allowed.  This is my home and I expect guests to treat it with the same respect and consideration as they would give their own homes.",
45880682,Cozy room in heart of Williamsburg,62053669902,verified,Sally,Brooklyn,Williamsburg,40.71078,-73.95071,United States,US,False,strict,Shared room,2018,$772 ,$154 ,15,4.0,4/30/2018,0.18,4,1,83,"No smoking, no drugs, no partying, no pets. This is not a party pad. We would like you to respect all personal belongings in the apartment and ask you to leave everything the way it was when we gave it to you.  We ask that you water the plants (4 of them) once a week. Please leave the apartment clean and the way we left it, as per AirBnB terms and conditions.",
45881234,Charming Prewar Full Floor Apartment,6494511471,unconfirmed,Kelly,Manhattan,Chelsea,40.74371,-74.00244,United States,US,False,flexible,Entire home/apt,2012,$223 ,$45 ,3,0.0,,,2,1,0,,
45881786,Gorgeous bedroom in the Heart of Bushwick!,9936809809,unconfirmed,Richard,Queens,Ridgewood,40.70234,-73.90815,United States,US,False,moderate,Private room,2003,$390 ,$78 ,6,12.0,5/20/2019,0.49,2,11,65,"Please be respectful of other guests.  Keep the common areas clean and pick up after your self.  No loud music after 10:00PM.  It is a safe neighborhood but please, keep doors locked for safety No smoking in the house (smoking is allowed on the front or back decks).",
45882339,Williamsburg Bedroom,7628740892,unconfirmed,Leo,Brooklyn,Williamsburg,40.71112,-73.95382,United States,US,False,moderate,Private room,2022,$247 ,$49 ,5,3.0,7/14/2017,0.12,3,1,0,,
45882891,1BR - Heart of West Village - 30 Day Min - Unit 2,50766959165,unconfirmed,Marie,Manhattan,West Village,40.73392,-74.00354,United States,US,False,flexible,Entire home/apt,2011,$346 ,$69 ,30,3.0,1/24/2019,0.17,3,6,286,"- No smoking anywhere (non-smokers only) - No cologne/perfume/scented sprays due to allergy (deodorant roll/stick OK, hairspray OK) - Cat in the house, free roaming, please don't feed her - No disturbance - Visitors not permitted - Recycling, conserve resources, reusable shopping bag provided - Please avoid single use plastic bags - NO parking, don't bring a car - Light kitchen use: microwave, refrigerator/freezer, toaster, electric tea pot",
45883443,Entire Apt (1 Bdr) in the Upper East Side 85 St,92490524009,unconfirmed,Heidi,Manhattan,Upper East Side,40.7794,-73.95427,United States,US,True,strict,Entire home/apt,2004,$447 ,$89 ,3,6.0,8/28/2018,0.25,4,1,0,"quiet after midnight, no smoking on premises (smoke on the sidewalk only, cigarette smoke goes into open windows and the building is full of non-smokers), no guests",
45883996,"Girls only, cozy room one block from Times Square",12227963923,verified,Mario,Manhattan,Hell's Kitchen,40.75812,-73.98935,United States,US,True,moderate,Shared room,2003,$360 ,$72 ,1,2.0,6/24/2017,0.08,4,1,0,,
45884548,Terrace Luxury Apartment,79791295439,unconfirmed,Nelle,Brooklyn,Fort Greene,40.69321,-73.98143,United States,US,False,flexible,Entire home/apt,2006,$741 ,$148 ,2,14.0,1/5/2019,0.6,2,1,75,"No loud music after 10:00PM.  It is a safe neighborhood but please, keep doors locked for safety No smoking in the house (smoking is allowed on the front or back decks).",
45885100,Newly renovated studio in Prime Manhattan location,34570384749,verified,Melissa,Manhattan,Chelsea,40.744440000000004,-74.00068,United States,US,True,strict,Entire home/apt,2015,$755 ,$151 ,3,2.0,10/1/2017,0.08,4,1,0,"Have FUN! Wireless Internet is Foster St. Castle and Password is Brighton169171 No smoking inside, but feel free to smoke outside or on the deck! Just please properly dispose of butts. Bigger black remote turns on the TV and Volume, Smaller black remote is for the Blue Ray Player. Comcast remote is for Cable. No loud music after 10:30, but head out on the town!! Uber and Lyft are great for getting cheaper, faster rides. The Buses are usually quicker and cleaner than the T, especially the B line. If taking the T, definitely walk to the C/D in Cleveland Circle. There are awesome fields and parks very close (walking) to the house.  Make sure to pick up after your dog.",
45885652,Stylish Studio in the heart of NYC,64793714462,unconfirmed,Aristides,Manhattan,Theater District,40.76037,-73.98747,United States,US,False,strict,Entire home/apt,2013,$153 ,$31 ,24,1.0,5/29/2018,0.07,5,1,198,,
45886205,Furnished studio in Union Square,65269453637,unconfirmed,Benjamin,Manhattan,Gramercy,40.73557,-73.98589,United States,US,False,moderate,Entire home/apt,2019,$907 ,$181 ,14,1.0,9/4/2017,0.04,1,1,0,,
45886757,Lovely studio in Midtown Manhattan,79248970198,unconfirmed,Stanley,Manhattan,Murray Hill,40.74857,-73.97721999999999,United States,US,False,flexible,Entire home/apt,2012,$198 ,$40 ,30,5.0,2/23/2019,0.26,4,50,344,,
45887309,"Bright, spacious, private room",52858893467,verified,Denise,Brooklyn,Bushwick,40.701190000000004,-73.91154,United States,US,True,flexible,Private room,2015,$252 ,$50 ,2,2.0,7/22/2017,0.08,5,1,0,,
45887862,One Bedroom Apartment in NYC,74507609198,unconfirmed,Javier,Queens,Kew Gardens Hills,40.73307,-73.81868,United States,US,True,moderate,Entire home/apt,2010,$800 ,$160 ,1,16.0,6/28/2019,0.81,2,1,178,"No pets, no smoking. Please remove your shoes upon entering. We have very sensitive floors and would like to keep them looking new ;)",
45888414,"""The Park View"" in Sunset Park",91801035669,unconfirmed,Alejandra,Brooklyn,Sunset Park,40.64667,-74.00187,United States,US,True,flexible,Private room,2009,$713 ,$143 ,2,0.0,,,4,1,0,Please do not smoke. Be respectful of other guests.,
45888966,"Master Bedroom in a Beautiful, Spacious Home",15025465982,unconfirmed,Jillian,Brooklyn,Bushwick,40.68683,-73.90733,United States,US,False,strict,Private room,2015,$976 ,$195 ,3,3.0,10/7/2018,0.23,5,2,0,"- No gatherings/parties for more than 12 people,  - Please keep noise down after 9 pm",
45889519,Alcove studio - Resort style,94134913929,unconfirmed,Anthony,Manhattan,Roosevelt Island,40.77009,-73.9427,United States,US,True,moderate,Entire home/apt,2006,"$1,015 ",$203 ,2,52.0,6/23/2019,2.1,4,1,0,"Three simple rules! No smoking (indoors) or visitors, please. Please remember to lock up when you enter and exit. Please turn off the lights when you are not using them.  Thanks!",
45890071,"Single bed room facing south w/A/C, washer/dryer",45890318656,unconfirmed,Shannon,Brooklyn,Bedford-Stuyvesant,40.681940000000004,-73.91832,United States,US,False,flexible,Private room,2010,$265 ,$53 ,2,86.0,7/6/2019,3.48,3,2,81,No smoking indoors (a big porch with seating available for smokers)  Guests are expected to clean up after themselves in the bathroom and in the kitchen.,
45890623,Clean Room,98570231363,unconfirmed,Meerim,Queens,Woodside,40.74374,-73.90387,United States,US,False,strict,Private room,2016,$143 ,$29 ,1,0.0,,,2,1,0,,
45891175,Huge room in Brooklyn,8514811583,unconfirmed,Amir,Brooklyn,Crown Heights,40.67484,-73.94084000000001,United States,US,False,flexible,Private room,2014,$106 ,$21 ,1,0.0,,,5,1,0,"Please respect the other neighbors. This building contains professionals and is very quiet. Please no smoking, parties, and pets. Must be over 21.",
45891728,Amazing Studio at the Time Square/52C,14361325891,verified,Irina,Manhattan,Hell's Kitchen,40.76174,-73.99228000000001,United States,US,False,strict,Entire home/apt,2019,"$1,140 ",$228 ,30,5.0,2/5/2019,0.22,4,20,333,#NAME?,
45892280,Quiet Manhattan: top floor 1 BR across from park,44966409639,unconfirmed,Joel,Manhattan,Inwood,40.8674,-73.92411,United States,US,True,strict,Entire home/apt,2016,$189 ,$38 ,3,4.0,4/22/2018,0.18,3,1,0,"No smoking anywhere in or out of home (guest must be non-smoker) Cologne/perfume/spray use are not allowed any time anywhere (allergy prevent) Please be aware of your actions and always look back before leaving bathroom to make sure everything is left clean Please cause no disturbance and walk the stairs slower to prevent much noise OK to eat in your room but not in bed, always clean/cover food Keep your room clean during your stay Recycle and use reusable shopping bag (provided, please carry with you) Please do not bring plastic bags from stores Ask for help/assistance/information at any time, we want you to feel comfortable Night time help please call from the same phone number twice or more if the call is not answered Do not give mailing address to anyone (ask me why) If guest breaks rule about mailing address, the charge is $206",
45892832,"luxury, neat, minute fom trains",90884843941,unconfirmed,Ali,Bronx,Williamsbridge,40.882490000000004,-73.86274,United States,US,False,strict,Private room,2012,$749 ,$150 ,1,85.0,7/4/2019,3.43,3,1,328,"Unlike most other Airbnb listings, what we do here is long-term rentals by the year, or by the semester and we can welcome compatible short-term guests.  We try to keep the atmosphere conducive to studying and resting and a couple of house-rules are in place to this end.    1. No smoking on the premises.  2. No loud music or TV etc.   3. Only for one person (no couples, no visitors). We seldom have visitors, let alone overnight guests. We know this will be a major turn-off to many people, but we believe we can find a like-minded roommate who can have fun outside the house.   4. If you re not sure about your check-out date, you can reserve the minimum days and extend your stay at a discounted rate.   5. Check-in time is flexible, but it has to be coordinated at least 24 hours ahead. On arrival, a short registration process with a picture ID is needed in exchange for keys and wifi access.",
45893385,"Beautiful, Stylish 1BR in Heart of Crown Heights",18271189317,unconfirmed,Lin,Brooklyn,Crown Heights,40.673159999999996,-73.95812,United States,US,False,moderate,Entire home/apt,2007,$64 ,$13 ,2,4.0,11/1/2017,0.16,3,1,0,"This is a smoke free home. If parking, please leave space for other cars to get around and in and out of the drive. The fireplace is non-working. The back porch is closed for renovations, but feel free to enjoy the back yard (also being renovated, but still a great place to sit and relax).",
45893937,Cozy Room in Astoria,27919160660,verified,James,Queens,Astoria,40.76488,-73.91813,United States,US,True,strict,Private room,2017,$268 ,$54 ,1,8.0,10/5/2018,0.36,3,1,89,,
45894489,Nice small room NYC (5 min from LaGuardia Airport),3926949593,verified,Jhon,Queens,East Elmhurst,40.765229999999995,-73.86966,United States,US,True,moderate,Private room,2013,"$1,039 ",$208 ,1,16.0,11/20/2017,0.65,1,1,0,"Share our house as a guest, don't worry about cost of snacks or an occasional beer.  No smoking and no pets. Please consult first if travelling with small children.",
45895042,*DISCOUNTED RATES* PERFECT FOR THE WORLD TRAVELER,92705113222,verified,Aj,Queens,Long Island City,40.75132,-73.94236,United States,US,True,moderate,Private room,2003,$378 ,$76 ,3,17.0,12/20/2018,0.7,5,2,90,No shoes inside the house,
45895594,Comfy and private garden bedroom,9925845152,unconfirmed,Jamba-Djang,Brooklyn,Bedford-Stuyvesant,40.69678,-73.94409,United States,US,True,moderate,Private room,2020,$953 ,$191 ,3,0.0,,,5,1,0,"No smoking, no parties. Quiet building. Sorry, no pets.",
45896146,Charming one-bedroom with original tin ceilings,24612784806,verified,Alysse,Brooklyn,Gowanus,40.67002,-73.99158,United States,US,True,flexible,Entire home/apt,2010,$905 ,$181 ,4,14.0,11/14/2018,0.58,2,1,8,,
45896698,Private sanctuary close to Central park,2136043234,verified,Deeksha,Manhattan,Harlem,40.80194,-73.95551,United States,US,True,flexible,Entire home/apt,2006,$60 ,$12 ,1,3.0,7/31/2017,0.12,1,1,0,No smoking please - Please just leave the place as you found it.,
45897251,Artist Hostel III in Bedstuy Brooklyn,36608033377,verified,Brian,Brooklyn,Bedford-Stuyvesant,40.69625,-73.94856999999999,United States,US,True,flexible,Shared room,2007,$650 ,$130 ,2,1.0,8/19/2017,0.04,3,3,138,"- Peanut/Nut Free, Gluten Free house please for the safety of many people including the cleaning crew, myself, and others who wish to stay here in the future do not bring these items (i.e. peanut butter or peanuts) into the house - Please let me know if you plan to bring an animal as I do occassionally have a foster animal here, I'd want to make sure I wasn't fostering at that time, or make other arrangements. - No smoking in doors, it WILL set off the fire alarms in the building, which is loud and causes the entire building to have to evacuate and wait outside (and trust me, it is loud enough and annoying enough it WILL wake you from a dead sleep and you'll be rushing to get out and save your ears from the sound! Also there is a $100-$200 fee for smoking inside or for smoking infront of the building (or either building on each side). But, you are welcome to walk across or down the street a bit or around the block, etc to smoke - You may order movies or anything else On Demand, but ple",
