id,NAME,host id,host_identity_verified,host name,neighbourhood group,neighbourhood,lat,long,country,country code,instant_bookable,cancellation_policy,room type,Construction year,price,service fee,minimum nights,number of reviews,last review,reviews per month,review rate number,calculated host listings count,availability 365,house_rules,license
23038106,Clinton Hill loft,63350703905,unconfirmed,Lionel,Brooklyn,Bedford-Stuyvesant,40.69209,-73.95868,United States,US,True,strict,Entire home/apt,2008,"$1,010 ",$202 ,3,0,,,3,1,364,,
23038658,Spacious & Sunny Bedroom in Bedstuy,19794070975,unconfirmed,Omri,Brooklyn,Bedford-Stuyvesant,40.69255,-73.93915,United States,US,False,flexible,Private room,2021,$681 ,$136 ,1,6,1/20/2019,0.97,5,2,3,,
23039211,Bright & Airy East Village Penthouse w/ Terrace,20976777426,verified,Molly,Manhattan,East Village,40.72391,-73.97698000000001,United States,US,False,flexible,Entire home/apt,2009,$878 ,$176 ,3,7,6/30/2019,1.14,4,1,80,"- Check-in time is 1PM - 12PM. - Earlier than 1pm check-in may be an option, will accommodate when possible.  -When you move in, I will clean the room for you.  - Quiet after 11pm - Please treat the home as you would your own, and treat your hosts as you would like to be treated! - Please let me know If you have any question, I will try my best to help you. - Please try to keep quiet It is okay that you have a child who is more than 7 years to live in, but the price should be discussed.",
23039763,"LaGuardia airport,  JFK airport, citi fields",32490000783,verified,Jing,Queens,Flushing,40.73129,-73.80416,United States,US,False,strict,Entire home/apt,2018,$956 ,$191 ,2,19,7/5/2019,2.95,4,1,57,"Generally, we prefer that guests treat our home as a friends house, rather than a hotel. - Food/snacks left on the island are free to eat - Feel free to cook your own food, but kindly wash and put away your dishes after - Feel free to use the Keurig - No pets - Be respectful of the items in the apartment, and leave the space reasonably clean.",
23040315,Huge Williamsburg Loft,17489210434,verified,Megan,Brooklyn,Williamsburg,40.711729999999996,-73.96486999999999,United States,US,False,moderate,Entire home/apt,2004,$939 ,$188 ,5,0,,,5,1,89,,
23040868,Beautiful,57059716892,verified,Awa,Brooklyn,Bedford-Stuyvesant,40.68054,-73.91775,United States,US,False,strict,Private room,2008,$694 ,$139 ,2,0,,,5,1,365,,
23041420,Spacious Beauty 1 Bedroom Apartment,62409739509,unconfirmed,Adelle,Manhattan,Kips Bay,40.74098,-73.98331,United States,US,False,flexible,Entire home/apt,2012,$931 ,$186 ,2,11,7/6/2019,1.76,5,1,4,,
23041972,Cozy one-bedroom in Astoria!,66652219997,unconfirmed,Christina,Queens,Astoria,40.76412,-73.92055,United States,US,False,moderate,Private room,2015,$87 ,$17 ,2,1,3/21/2019,0.27,2,1,0,,
23042524,Private Room in Bushwick Loft,22512719070,verified,Kate,Brooklyn,Williamsburg,40.70326,-73.9336,United States,US,False,flexible,Private room,2013,$97 ,$19 ,2,5,4/4/2019,1.3,5,1,0,"You're our guest, so please make yourself at home. Be clean! Rachel and I keep a tight ship around the apartment and we'd like our guests to be as clean as us. =) Speak up! Let us know if you need anything.  Party down (if you let us know).  We aren't huge partiers, but if you like to listen to music or watch loud TV, let us know ahead of time.  This is important.",
23043077,Charming 2 bedroom in Soho,69582792934,unconfirmed,Ana,Manhattan,Nolita,40.72316,-73.99577,United States,US,True,flexible,Private room,2012,$203 ,$41 ,3,7,6/1/2019,1.57,4,1,246,,
23043629,SUNLIT OASIS,34731649938,verified,Alex,Brooklyn,Williamsburg,40.71159,-73.96318000000001,United States,US,False,moderate,Private room,2017,$391 ,$78 ,2,4,6/19/2019,0.67,4,3,112,,
23044181,Come feel at home,26654509026,unconfirmed,Leticia,Manhattan,Harlem,40.81734,-73.95428000000001,United States,US,True,strict,Private room,2006,"$1,091 ",$218 ,7,0,,,3,1,365,"• Check-in time is 3PM. This is a non-smoking apartment  No pets No loud music No Party 21+ guests only, unless accompanied by an adult who is 21+",
23044734,"Cozy, clean and quiet room in Bushwick.",67329506834,verified,Sebastian,Brooklyn,Bushwick,40.68991,-73.91349,United States,US,True,moderate,Private room,2010,$127 ,$25 ,2,8,6/25/2019,1.25,2,2,1,Treat our apartment as if it were your own =). 1. No pets please.  2. Smoking outside or on the deck only.  3. Please treat the common amenities with respect.  4. We expect you to clean up after yourself.,
23045286,Luxury on 5th Ave St. Regis 2 King BR Suite 5 Star,73520739482,unconfirmed,Alyssa,Manhattan,Midtown,40.76024,-73.97483000000001,United States,US,True,strict,Entire home/apt,2013,"$1,124 ",$225 ,1,0,,,5,6,365,"Please remember that this is a residential building. The building rules, apartment occupancy restrictions and the year-round tenants must be respected.  Parties, pets and smoking are not allowed under any circumstances and incur significant fees.",
23045838,Charming 1BR by Washington Square Park Heart of NY,59456095478,verified,Alex,Manhattan,West Village,40.73236,-74.00213000000001,United States,US,False,flexible,Entire home/apt,2015,$579 ,$116 ,3,20,7/1/2019,3.02,4,1,155,No Smoking.,
23046391,"Newly Renovated Stylish Luxury 2 bedroom, first fl",67664578708,verified,Roberto,Bronx,West Farms,40.839420000000004,-73.87518,United States,US,True,flexible,Entire home/apt,2020,$529 ,$106 ,2,4,3/17/2019,0.63,5,1,310,"Please remember that this is a residential building. The building rules, apartment occupancy restrictions and the year-round tenants must be respected.  Parties, pets and smoking are not allowed under any circumstances and incur significant fees. ",
23046943,Beautifully Renovated Small Mid Century Bedroom,81268722050,unconfirmed,Alexandra-Katherine,Manhattan,Lower East Side,40.72173,-73.9918,United States,US,False,flexible,Private room,2009,$671 ,$134 ,1,4,7/7/2019,0.79,4,2,165,,
23047495,2nd bedroom still available for the holidays,47258302388,unconfirmed,Joseph,Brooklyn,Bedford-Stuyvesant,40.68098,-73.92229,United States,US,True,flexible,Private room,2005,$893 ,$179 ,1,0,,,5,2,0,Please be honest and respectful. That's it!,
23048047,"Amazing View in luxury building, Time Square",36432942558,unconfirmed,Max,Manhattan,Hell's Kitchen,40.75943,-74.00018,United States,US,True,flexible,Private room,2021,$848 ,$170 ,3,6,5/4/2019,1.02,5,1,5,"We expect our guests to be honest, to treat our property with respect, and to leave the apartment as clean (relatively) as when they arrived.",
23048600,Nice Room Sunnyside 15 min to Times Sq (AC/TV),87834105700,unconfirmed,Grace,Queens,Sunnyside,40.737109999999994,-73.91955,United States,US,True,strict,Private room,2007,$288 ,$58 ,1,37,7/7/2019,5.84,5,2,0,1. No parties. 2. Respect the neighbors.  Noise level needs to stay low. 3. Keep feet on the porch when outside. 4. Clean any dishes you use. Not a good set up for children (0 - 13).,
23049152,1bdr apartment / 2 stops to Manhattan (D/N trains),79034629458,unconfirmed,Anna,Brooklyn,Sunset Park,40.64929,-74.00421999999999,United States,US,False,flexible,Entire home/apt,2016,"$1,041 ",$208 ,2,5,6/5/2019,0.82,3,1,0,"1. Guests should be considerate of the other roommates in the apartment. The other roommates are all great/friendly/easy-going people, so there shouldn't be an issue! 2. I expect guests to clean up after themselves, especially in the kitchen and bathroom since those are communal areas.  3. I would prefer if guests did not invite their own guests or throw any events without the consent of the other roommates 4. Obviously, I would like the guest to be respectful of the furniture and make sure they do not damage/break any property that is not theirs 5. The guest cannot be a smoker or expect to do any illicit drugs while staying the apartment",
23049704,Private Room Best LES Location- Read Description!,82219769486,unconfirmed,Andrea,Manhattan,Chinatown,40.71687,-73.99074,United States,US,False,moderate,Private room,2022,"$1,009 ",$202 ,4,12,7/2/2019,1.89,2,2,72,,
23050257,"Bright, charming Fort Greene studio",49670791398,unconfirmed,Jaclyn,Brooklyn,Fort Greene,40.689409999999995,-73.98098,United States,US,False,flexible,Entire home/apt,2022,$946 ,$189 ,3,4,7/7/2019,0.63,3,1,9,"Please remember that this is a residential building. The building rules, apartment occupancy restrictions and the year-round tenants must be respected.  Parties, pets and smoking are not allowed under any circumstances and incur significant fees.",
23050809,Mother & Daughter bnb-Brooklyn,3498149106,unconfirmed,Mother & Daughter,Brooklyn,East Flatbush,40.638459999999995,-73.92891999999999,United States,US,True,flexible,Entire home/apt,2011,$700 ,$140 ,1,27,7/6/2019,4.26,4,1,185,"HELP US AVOID MAKE-UP STAINS:  Dear Guest, For make-up removal, if needed, kindly use the small face towels, and not our large white towels. Thanks for being considerate!",
23051361,Gorgeous NYC Hideout 20min to Times Square,96762341217,unconfirmed,Konni,Queens,Sunnyside,40.7426,-73.92318,United States,US,True,strict,Entire home/apt,2015,$966 ,$193 ,4,3,3/14/2019,0.56,2,1,12,"Overall please treat the apartment as you would you own home, Keeping it as clean and tidy as you found it.  Please clean up before checking out. Any major clean-up service required may be deducted from the deposit.  No Loud / Large Parties .  Please include the number of people who will be staying before you reserve this apartment. No extra guests other than the maximum 3 allowed who booked  All smoking should be done outside, as this is a smoke free enviroment.",
23051914,Gorgeous Room in Lux Apt: Prime Upper East!,9342326703,verified,James,Manhattan,Upper East Side,40.77564,-73.94551,United States,US,False,strict,Private room,2021,"$1,171 ",$234 ,1,10,3/30/2019,1.69,3,2,0,No Drugs Respect the Neighbourhood No excess Noise Smoking allowed Drinking allowed Pets allowed Keep the house clean Respect your roommates Wash your own utensils if used,
23052466,Spacious Sun-drenched two bedroom APT,60153096861,unconfirmed,Chafiq,Brooklyn,Clinton Hill,40.69303,-73.96195999999999,United States,US,True,flexible,Entire home/apt,2004,$251 ,$50 ,1,19,6/29/2019,2.94,3,1,285,"HELP US AVOID MAKE-UP STAINS: Dear Guest, For make-up removal, if needed, kindly use the small face towels, and not our large white towels. Thanks for being considerate!",
23053018,Share Lg studio rm b2*2 blocks subway *Bronx Zoo,75857886537,unconfirmed,Monica,Bronx,Van Nest,40.841190000000005,-73.87049,United States,US,True,moderate,Shared room,2019,$289 ,$58 ,10,2,6/30/2019,0.32,3,4,114,BUILDING IS RESIDENTIAL. DOCTORS AND NURSES WHO WORK LONG HOURS ARE THE PRIMARY TENANTS OF THIS BUILDING SO RESPECTFUL NOISE LEVELS DURING 10PM-7AM ARE A MUST.,
23053570,Lovely Bushwick Garden Apartment,67454949289,unconfirmed,Marcela,Brooklyn,Bushwick,40.69157,-73.91288,United States,US,True,strict,Entire home/apt,2021,$719 ,$144 ,2,1,6/19/2019,1.0,5,1,10,"73 Melrose House Rules *Be sure to contact us for key instructions* We request that you please be respectful of all furniture, appliances, and all other belongings within the apartment. Please make sure to turn off all lights and appliances, including A/C and Heat when you leave the apartment and follow the trash rules ~ every bit of saving helps us provide affordable and comfortable living space to everyone.  Trash can be put outside in front of the building on the curb  Sunday and Thursday nights at 5 PM  or later it will be picked up early the following mornings. All insurance and liability including accidents - inside or outside the apartment - health, short-term cancellations and / or guest's belongings is the guest's responsibility. The entire building is non - smoking so please no smoking on the property or in any of the units.    62 Melrose General Information We offer digital cable TV, DVD and high speed Internet. We will send internet information in a separate email.   For yo",
23054123,Stunning Penthouse 2 bedrooms full city view,94751975084,unconfirmed,Milan,Manhattan,Hell's Kitchen,40.7685,-73.99128,United States,US,False,moderate,Entire home/apt,2007,$923 ,$185 ,4,17,7/6/2019,2.73,3,1,0,,
23054675,Entire Basement Apartment near LGA,39921409230,verified,Mainul,Queens,East Elmhurst,40.76592,-73.87388,United States,US,False,strict,Entire home/apt,2010,$384 ,$77 ,1,3,7/7/2019,3.0,3,1,50,#NAME?,
23055227,2 BEDROOM/3BED APT/TIME SQUARE/HELLS KITCHEN,51334021510,unconfirmed,Scott,Manhattan,Hell's Kitchen,40.76558,-73.98787,United States,US,True,moderate,Entire home/apt,2021,$577 ,$115 ,3,28,7/4/2019,4.24,5,2,141,#NAME?,
23055780,Center of Astoria,16284245603,unconfirmed,Anup,Queens,Ditmars Steinway,40.775940000000006,-73.90799,United States,US,True,strict,Private room,2016,$604 ,$121 ,2,0,,,2,1,35,,
23056332,Splendid Midtown Studio w/ Gym + Doorman by Blueground,82592751600,unconfirmed,Blueground,Manhattan,Midtown,40.751459999999994,-73.99,United States,US,False,flexible,Entire home/apt,2019,$641 ,$128 ,30,0,,,5,232,2,"Just treat the place like it is your own, not damaging anything, keeping it clean & organized, and not being loud.  NO PARTIES! as this is a private residence.  Other than that, enjoy everything in the house. NO SMOKING inside or outside the building!",
23056884,"Cheery Midtown 1BR w/ Doorman + Gym, near MSG by Blueground",76601840154,unconfirmed,Blueground,Manhattan,Midtown,40.75313,-73.98863,United States,US,True,flexible,Entire home/apt,2012,$821 ,$164 ,30,0,,,2,232,329,"73 Melrose House Rules *Be sure to contact us for key instructions* We request that you please be respectful of all furniture, appliances, and all other belongings within the apartment. Please make sure to turn off all lights and appliances, including A/C and Heat when you leave the apartment and follow the trash rules ~ every bit of saving helps us provide affordable and comfortable living space to everyone.  Trash can be put outside in front of the building on the curb  Sunday and Thursday nights at 5 PM  or later it will be picked up early the following mornings. All insurance and liability including accidents - inside or outside the apartment - health, short-term cancellations and / or guest's belongings is the guest's responsibility. The entire building is non - smoking so please no smoking on the property or in any of the units.    62 Melrose General Information We offer digital cable TV, DVD and high speed Internet. We will send internet information in a separate email.   For yo",
23057437,Modern apt near mall and trains. 25 min from city,65224079197,verified,Javier,Queens,Elmhurst,40.73162,-73.87584,United States,US,False,flexible,Entire home/apt,2009,$605 ,$121 ,1,1,12/22/2018,0.15,2,1,0,No parties or gatherings of more than 8 people. This is a family neighborhood.  Families with kids next to and behind the home go to sleep early - please behave accordingly.,
23057989,Sweet Home,97437473956,unconfirmed,Dj,Brooklyn,Bushwick,40.69142,-73.92472,United States,US,True,flexible,Private room,2018,$569 ,$114 ,1,4,5/26/2019,0.63,3,2,365,No smoking or partying in the apartment.,
23058541,Beautiful and Convenient 2 Bedroom In Flushing,17256360723,unconfirmed,Alan,Queens,Flushing,40.75985,-73.82393,United States,US,False,flexible,Entire home/apt,2007,$314 ,$63 ,30,1,5/2/2019,0.43,4,15,303,"No Smoking, no pets, no late night parties, five people in home only",
23059093,Manhattan modern living by the Chelsea High Line,46989509538,unconfirmed,Irwin,Manhattan,Chelsea,40.74382,-74.00463,United States,US,True,moderate,Entire home/apt,2007,"$1,045 ",$209 ,30,2,1/27/2019,0.34,5,1,233,"73 Melrose House Rules *Be sure to contact us for key instructions* We request that you please be respectful of all furniture, appliances, and all other belongings within the apartment. Please make sure to turn off all lights and appliances, including A/C and Heat when you leave the apartment and follow the trash rules ~ every bit of saving helps us provide affordable and comfortable living space to everyone.  Trash can be put outside in front of the building on the curb  Sunday and Thursday nights at 5 PM  or later it will be picked up early the following mornings. All insurance and liability including accidents - inside or outside the apartment - health, short-term cancellations and / or guest's belongings is the guest's responsibility. The entire building is non - smoking so please no smoking on the property or in any of the units.    62 Melrose General Information We offer digital cable TV, DVD and high speed Internet. We will send internet information in a separate email.   For yo",
23059646,TWO BIG Rooms - a Park Slope Oasis,36514510750,unconfirmed,Tom,Brooklyn,South Slope,40.66617,-73.98862,United States,US,False,flexible,Private room,2005,$962 ,$192 ,2,15,6/18/2019,2.34,5,1,91,"Simply put, just be a good neighbor & guest! No parties or boisterous noise at late hours & please leave the apartment as you found it.",
23060198,Large Bedroom near Central Park and Mt Sinah,78014157450,unconfirmed,Jacqueline,Manhattan,East Harlem,40.79022,-73.9471,United States,US,True,moderate,Private room,2020,$870 ,$174 ,30,0,,,2,1,262,"Please take of your shoes just after entering. Please strip the beds and place towel and sheets in the hamper before you go. You will see additional rules and info once you enter the residence. Parking is permitted and for residents only unfortunately. The best place is the Boston Commons Garage or Revere Hotel. A bedroom is located below our kitchen in our neighbors apartment, please walk softly and be sure to take off shoes. Thank you!",
23060750,Beautiful 2 bed with a balocony,19236653464,unconfirmed,Gad,Brooklyn,Bedford-Stuyvesant,40.678779999999996,-73.94445999999999,United States,US,False,moderate,Entire home/apt,2010,$719 ,$144 ,2,0,,,4,2,89,#NAME?,
23061303,Cute apartment,47370703281,verified,Danica,Queens,Ditmars Steinway,40.77776,-73.91455,United States,US,False,strict,Entire home/apt,2007,$329 ,$66 ,3,1,5/10/2019,0.5,4,2,11,"- No smoking.  - Maximum of 2 people  - Sorry, no children. (I love kids, but this is a very quiet building. It's all young professionals.  - Please be quiet and respectful of others in the building (no loud music/tv,  - Please dispose of baby wipes and/or tampons in the waste basket, not in the toilet. (the pipes are old and clog easily – last time baby wipes had to be removed from the pipes, the plumbing bill was $350!). IF YOU HAVE PROBLEMS GOING UP AND DOWM STAIRS THEN IT IS NOT A PLACE FOR YOU",
23061855,Charming studio close to everything,672355865,verified,Christina,Manhattan,Hell's Kitchen,40.76676,-73.98953,United States,US,False,moderate,Entire home/apt,2018,$981 ,$196 ,6,2,6/18/2019,1.43,2,1,11,"1.The security deposit will be returned to the lessee, without interest, after lessee has vacated the premises and left the premises in clean and reasonable condition.  The security deposit is non-refundable in case of noise violation and damage.   2.Premises may not be sublet. 3.Lessee agrees to leave the unit clean with doors and windows locked.  4.Premises shall be delivered to lessee in good and clean condition with all furnishings.   5.Lessee shall not smoke in the unit nor permit others to do so; no additional guests or pets are allowed.  6.Lessor is not liable for any tenant injury within the building or apartment unit. 7.The lessor can cancel the agreement should the unit be deemed unrentable without financial penalty.",
23062407,Upper West Manhattan Suite - Cozy Private Bedroom,19907890938,unconfirmed,Yao & Rain,Manhattan,Harlem,40.82179,-73.95283,United States,US,False,moderate,Private room,2017,$372 ,$74 ,3,11,6/30/2019,1.76,5,7,1,Please behave no parties or drug use,
23062960,Cozy Room 20 minutes away from the city,29211502628,verified,Saly,Queens,Sunnyside,40.74132,-73.91931,United States,US,True,moderate,Private room,2010,$569 ,$114 ,2,0,,,4,2,341,"Please remember that this is a residential building. The building rules, apartment occupancy restrictions and the year-round tenants must be respected.",
23063512,Columbia Univ Queen-bed in a Cozy Suite 5B,11547134767,verified,Yao & Rain,Manhattan,Harlem,40.821709999999996,-73.95345999999999,United States,US,False,flexible,Private room,2007,$596 ,$119 ,5,7,6/1/2019,1.09,3,7,154,,
23064064,Sunny Boutique Condo on Picturesque Harlem Street,37086788625,unconfirmed,Jerry And Kate,Manhattan,East Harlem,40.807190000000006,-73.94088,United States,US,False,flexible,Entire home/apt,2010,$787 ,$157 ,2,10,4/7/2019,1.54,3,1,0,-Leave the apartment as you found it.  -Quiet time starts at 9pm. -No shoes allowed in the apartment.  -Please respect us and our neighbors by not having any additional guests.  -No parties. -Smoking is strictly prohibited both inside and within 50ft of the outside.  -No pets. -No packages may be sent to the house without host approval.,
23064616,Upper West Manhattan Luxurious Master Bedroom 5C,63365802069,unconfirmed,Yao & Rain,Manhattan,Harlem,40.82343,-73.95469,United States,US,False,strict,Private room,2015,$989 ,$198 ,5,4,5/27/2019,1.11,5,7,237,,
23065169,Upper West Manhattan Spacious Master Bedroom 1C,3136011040,unconfirmed,Yao & Rain,Manhattan,Harlem,40.8222,-73.95416,United States,US,True,strict,Private room,2019,$918 ,$184 ,5,2,2/1/2019,0.33,4,7,314,,
23065721,纽约长岛市最新豪华网红楼王Jackson Park独立卧室出租!(出门就是地铁站!),1017606453,verified,Molly,Queens,Long Island City,40.747820000000004,-73.93836999999999,United States,US,False,moderate,Private room,2015,$673 ,$135 ,13,1,12/24/2018,0.15,2,1,12,Be respectful of neighbors and the property.,
23066273,Upper West Manhattan Spacious Private Bedroom 1D,1022380030,verified,Yao & Rain,Manhattan,Harlem,40.82177,-73.95472,United States,US,True,moderate,Private room,2021,"$1,038 ",$208 ,4,13,7/2/2019,2.29,3,7,299,"- No smoking.  - Maximum of 2 people  - Sorry, no children. (I love kids, but this is a very quiet building. It's all young professionals.  - Please be quiet and respectful of others in the building (no loud music/tv,  - Please dispose of baby wipes and/or tampons in the waste basket, not in the toilet. (the pipes are old and clog easily – last time baby wipes had to be removed from the pipes, the plumbing bill was $350!).",
23066826,Nice apartment with great view on the Hudson River,3822380011,verified,Nourdine,Manhattan,Washington Heights,40.85257,-73.94161,United States,US,False,strict,Entire home/apt,2013,$507 ,$101 ,2,1,1/7/2019,0.16,5,2,0,"Apologies if some of this seems obvious. Keep the property and all furnishings in good order No smoking No pets or animals Prefer if you take shoes off when entering No moving furniture Close and lock front door at all times  Please do not sleep on top of leather couch. If you need an extra bed, the leather couch converts into a queen size bed. Let me know if you plan on hosting parties Only use appliances for their intended uses Close windows if raining and when leaving Leave keys where you found them Homeowner is not responsible or liable for any accidents, injuries, or illness that occurs while on the premises or its facilities. The homeowner is not responsible for the loss of personal belongings or valuables of the guests. By completing this booking, it is agreed that all guests are expressly assuming the risk of any harm or liability arising from their use of the premises or others whom they invite to use the premise.",
23067378,Modern cheap huge 1bd apt next to Central Pk & sub,19528233674,unconfirmed,Helene,Manhattan,Harlem,40.79931,-73.95238,United States,US,False,flexible,Entire home/apt,2014,$791 ,$158 ,1,15,6/22/2019,2.43,5,1,35,"Apologies if some of this seems obvious. Keep the property and all furnishings in good order No smoking No pets or animals Prefer if you take shoes off when entering No moving furniture Close and lock front door at all times  Please do not sleep on top of leather couch. If you need an extra bed, the leather couch converts into a queen size bed. No hosting parties Only use appliances for their intended uses Close windows if raining and when leaving Leave keys where you found them Homeowner is not responsible or liable for any accidents, injuries, or illness that occurs while on the premises or its facilities. The homeowner is not responsible for the loss of personal belongings or valuables of the guests. By completing this booking, it is agreed that all guests are expressly assuming the risk of any harm or liability arising from their use of the premises or others whom they invite to use the premise.",
23067930,Pvt Room in Quiet Home Near JFK 6mi/LGA 10mi Lvdr,27956707698,verified,Kafayat,Queens,St. Albans,40.705220000000004,-73.75063,United States,US,False,moderate,Private room,2006,$438 ,$88 ,2,11,4/14/2019,1.72,4,4,3,Please be gentle with the furniture and appliances. Absolutely no smoking allowed please.,
23068483,Windsor Terrace Warm Artist Pad Prospect Park,86993137918,verified,Oleg,Brooklyn,Windsor Terrace,40.653290000000005,-73.97986999999999,United States,US,True,moderate,Entire home/apt,2019,$950 ,$190 ,2,1,6/25/2019,1.0,4,1,84,Please be gentle with the furniture and appliances. Absolutely no smoking allowed. No parties please.,
23069035,You Will Love Our Beautiful 3 bed 3 Bath Home,45288982153,verified,Gad,Brooklyn,Bedford-Stuyvesant,40.68046,-73.94277,United States,US,True,moderate,Private room,2016,$760 ,$152 ,2,1,2/7/2019,0.2,2,2,89,"Please respect the place as if it was your own. No parties or crazy business.  Pets are not allowed.  Our apartment is also a non-smoking environment.  Our community is very quiet and we have a close relationship with our neighbors. We ask that you respect our neighbor’s privacy and monitor noise levels during the night time. If you need to smoke, please smoke outside the building and dispose of your cigarettes afterward.  We also ask that you keep the place relatively clean when you leave.",
23069587,Espaço acolhedor e limpo próximo a Manhattan!,95793607987,verified,Andressa,Queens,Long Island City,40.75376,-73.94100999999999,United States,US,True,strict,Private room,2004,$602 ,$120 ,3,16,6/21/2019,2.42,2,2,3,--No Smoking.   --Pets allowed with a $500 NON-Refundable Pet Fee (breed and weight restrictions may apply).  ,
23070139,"Come and enjoy ""Brooklyn is the new Manhattan""",63755381395,unconfirmed,Nusrat,Brooklyn,Bedford-Stuyvesant,40.680040000000005,-73.94083,United States,US,False,flexible,Private room,2022,$653 ,$131 ,1,1,1/2/2019,0.16,4,1,0,,
23070692,“Quincy Manor” in the heart of Bedford-Stuyvesant.,19066976565,unconfirmed,David,Brooklyn,Bedford-Stuyvesant,40.68858,-73.94534,United States,US,True,strict,Entire home/apt,2006,$398 ,$80 ,2,20,7/7/2019,3.16,2,1,273,Pets Allowed ( With Fee ) NO Smoking,
23071244,Private Room With a Balcony In a Modern Loft,48152552707,verified,Alex,Brooklyn,Williamsburg,40.70877,-73.94171,United States,US,False,strict,Private room,2020,$709 ,$142 ,6,8,6/15/2019,1.98,5,3,260,,
23071796,PRIVATE ROOM in the heart of MANHATTAN,58049732378,verified,Tom,Manhattan,Hell's Kitchen,40.76769,-73.98649,United States,US,False,moderate,Private room,2011,$444 ,$89 ,2,1,4/9/2019,0.33,3,4,39,"Please plan to check in after 4 PM and check out before 11 AM.  No Smoking, No pets Please No parties and quiet hours after 9 pm Clean dishes   We are not responsible for your belongings. Thank You!",
23072349,GORGEOUS PRIME SOHO 3 BEDROOMS PENTHOUSE,82099090728,unconfirmed,Pirin,Manhattan,SoHo,40.72267,-74.00334000000001,United States,US,True,moderate,Entire home/apt,2003,"$1,105 ",$221 ,2,17,7/1/2019,2.59,5,3,281,"House Rules 1. Check-in is 4 pm local time. If the unit is ready earlier, we’ll let you know. Check-out is normally 11 am local time, but we’d be happy to extend it as long as we don’t have a cleaning scheduled. Just let us know.  2. All bookings require a security deposit of at least $300, which will be refunded within 7 days of your check-out. 3. For security measures we require all guests to provide proof of identification through ID verification on our own website. In order to check in we'll need a photo of your ID.  4. Our cancellation policy is as shown on our ad and defined by the site you are booking through.  5. Don’t let $300 go up in smoke. There's no smoking allowed in any Flatbook and a $300 fine for breaking this rule.  6. Unfortunately we don’t allow pets in any of our apartments. 7. Unless you’re staying in one of our specialty apartments, we don’t allow parties or excessive noise. 8. If we find the place very messy, we have to charge an extra $40 for every extra hour o",
23072901,Sleeper shared rm on subway bronx zoo 30m2NYC,26689168510,unconfirmed,Monica,Bronx,Van Nest,40.84087,-73.8699,United States,US,True,strict,Shared room,2021,$292 ,$58 ,10,3,7/1/2019,0.68,3,4,25,"Please plan to check in after 4 PM and check out before 11AM.  No Smoking, No pets Please No parties and quiet hours after 9 pm Clean dishes   We are not responsible for your belongings. Thank You!",
23073453,Modern 2BR Williamsburg  Loft With a Balcony,94590206455,verified,Alex,Brooklyn,Williamsburg,40.70646,-73.94169000000001,United States,US,False,strict,Entire home/apt,2006,"$1,157 ",$231 ,6,2,5/16/2019,0.45,4,3,242,"House Rules 1. Check-in is 4 pm local time. If the unit is ready earlier, we’ll let you know. Check-out is normally 11 am local time, but we’d be happy to extend it as long as we don’t have a cleaning scheduled. Just let us know.  2. All bookings require a security deposit of at least $300, which will be refunded within 7 days of your check-out. 3. For security measures we require all guests to provide proof of identification through ID verification on our own website. In order to check in we'll need a photo of your ID.  4. Our cancellation policy is as shown on our ad and defined by the site you are booking through.  5. Don’t let $300 go up in smoke. There's no smoking allowed in any Flatbook and a $300 fine for breaking this rule.  6. Unfortunately we don’t allow pets in any of our apartments. 7. Unless you’re staying in one of our specialty apartments, we don’t allow parties or excessive noise. 8. If we find the place very messy, we have to charge an extra $40 for every extra hour o",
23074006,Boutique Brooklyn Loft,53392150332,unconfirmed,Eleanor And Alex,Brooklyn,Bushwick,40.69488,-73.93115,United States,US,True,moderate,Private room,2021,$419 ,$84 ,1,23,6/10/2019,3.77,5,2,28,"Overall please treat the apartment as you would you own home, Keeping it as clean and tidy as you found it.  Please clean up before checking out. Any major clean-up service required may be deducted from the deposit.  No Loud / Large Parties .  Please include the number of people who will be staying before you reserve this apartment. No extra guests other than the maximum 4 allowed who booked  All smoking should be done outside, as this is a smoke free environment.",
23074558,Luxury Bushwick design suite 15 min to Manhattan,39989014376,verified,Ana,Brooklyn,Bushwick,40.69975,-73.93865,United States,US,True,flexible,Private room,2022,"$1,060 ",$212 ,5,0,,,5,1,0,"Please plan to check in after 4 PM and check out before 11AM.  No Smoking, No pets Please No parties and quiet hours after 9 pm Clean dishes   We are not responsible for your belongings. Thank You!",
23075110,Cozy and Bright Bedroom for One or Two,75250165213,verified,Trisha,Queens,Ridgewood,40.7067,-73.91458,United States,US,False,flexible,Private room,2006,$800 ,$160 ,4,1,4/26/2019,0.41,4,1,0,"Please remember that this is a residential building. The building rules, apartment occupancy restrictions and the year-round tenants must be respected.  Parties, pets and smoking are not allowed under any circumstances and incur significant fees.",
23075662,Modern & cozy bedroom in Manhattan,26367697715,unconfirmed,Souha,Manhattan,Harlem,40.82331,-73.95454000000001,United States,US,False,strict,Private room,2022,$647 ,$129 ,2,6,5/22/2019,0.95,2,2,170,,
23076215,Perfect location in Manhattan,95112066157,verified,Roland,Manhattan,Chelsea,40.7463,-73.9911,United States,US,True,moderate,Private room,2015,"$1,048 ",$210 ,1,0,,,2,1,0,"Check in     4 PM  Check out  11 AM No Smoking, No pets Please No parties and quiet hours after 9 pm Clean dishes or leave them in the dishwasher!  We are not responsible for your belongings. Thank You!",
23076767,Beautiful bedroom in Upper Manhattan,96549554415,verified,Souha,Manhattan,Harlem,40.82219,-73.95381,United States,US,False,moderate,Private room,2007,"$1,170 ",$234 ,2,10,6/18/2019,2.01,2,2,127,"- 1.Guest(s) agree to NO PARTIES anywhere on the property. Legal action will be taken for parties that cause damages to the unit, property, reputation, or relationship with building staff or other residents.  2.Smoking of any kind is not permitted in the unit or on the premises. Fee for smoking will be 10 times your total reservation cost. For example, your total reservation cost is $350. Fee for smoking on premises will be $3,500. 3.Guests agree to abide by maximum occupancy of unit, and observe quiet hours between 9pm and 9am  4.Guests are responsible for action of ALL GUESTS occupying their unit at all times.  5.Guests agree to return all keys, remotes. Replacement fees may apply for unreturned items  6.Guests understand that onsite building staff (maintenance and concierge) are not affiliated with AIRBNB. Please contact me directly for any needed items.  7.Guests understand that no pets are to be in the unit.  8.Guests agree to pay replacement cost for any unreturned items, and $23",
23077319,Exposed Brick One Bedroom in the Heart of Soho,46295663338,verified,Zack,Manhattan,Nolita,40.721990000000005,-73.99534,United States,US,True,strict,Entire home/apt,2021,$357 ,$71 ,1,3,6/30/2019,0.46,5,1,12,"Please remember that this is a residential building. The building rules, apartment occupancy restrictions and the year-round tenants must be respected. ",
23077872,Greenwich Village Prewar off Washington Sq Park!,10494485142,verified,Jacob,Manhattan,Greenwich Village,40.72956,-73.9986,United States,US,True,moderate,Entire home/apt,2014,$554 ,$111 ,3,3,1/3/2019,0.45,4,1,0,No smoking. No parties.  No drugs.  No pets.  Please consider our neighbors and be respectful of them. Limit the noise level - especially at night. Thank you in advance!,
23078424,In the heart of midtown manhattan - CONVENIENCE,67411048855,verified,Michael,Manhattan,Midtown,40.75094,-73.98100000000001,United States,US,True,flexible,Entire home/apt,2018,$401 ,$80 ,1,0,,,3,1,365,"- Please bring your own daily essentials, I provide nothing as of now. - Please don't bring any friends over unless they are confirmed guests. - Please keep quiet after midnight. - When booking for a weekend, please book on a Friday and for at least 3 nights, as I will not be around on Saturdays and Sundays to accept bookings. - If neighbors asks, just tell them you're here to visit a friend. Don't tell then your guests from AirBNB. - Please let me know exactly what time you will get to my house, or at least an hour ahead. I am not always at home so I will have to go hand keys to you and I will only have limited time. Thanks!",
23078976,Single Room in the heart of Corona Queens,32369095878,unconfirmed,Clara,Queens,Corona,40.73729,-73.85595,United States,US,True,moderate,Private room,2014,$223 ,$45 ,2,4,5/27/2019,0.63,3,1,0,"Please remember that this is a residential building. The building rules, apartment occupancy restrictions and the year-round tenants must be respected.",
23079529,Cute/Clean Affordable Room Close To Public Transp.,54875054235,unconfirmed,Samuel,Manhattan,Washington Heights,40.83845,-73.9412,United States,US,True,strict,Private room,2015,"$1,027 ",$205 ,1,1,1/5/2019,0.16,4,1,0,,
23080081,Private room in a brand new brooklyn apartment,90908013154,unconfirmed,Jason,Brooklyn,Bedford-Stuyvesant,40.683679999999995,-73.92623,United States,US,True,flexible,Private room,2005,$788 ,$158 ,1,63,6/24/2019,9.64,4,2,47,"Professional building, please be considerate of other residents in the building. This is not a place for parties.",
23080633,"Private Bath, Private Room 2 blocks from NR trains",45809929029,verified,Jason,Brooklyn,Sunset Park,40.65035,-74.00974000000001,United States,US,False,flexible,Private room,2011,$227 ,$45 ,2,2,1/14/2019,0.32,2,1,16,,
23081185,Charming 1 Bedroom in Bushwick 20 min to Manhattan,47620797223,unconfirmed,Nate,Brooklyn,Bushwick,40.69936,-73.91729000000001,United States,US,False,strict,Entire home/apt,2017,$812 ,$162 ,30,0,,,2,1,0,"-Please don't wear shoes inside the apartment (shoes should be removed in the area just inside the door to the apartment). -Please DO wear shoes while out in the courtyard. -Please keep the doors to the apartment locked at all times. -Please recycle -Please don't move/remove the portable A/C from the bedroom window.  -Please ensure that your bedroom windows are closed and securely locked when running the heat or A/C, before leaving the apartment and before going to bed. -Please ensure that the courtyard gate is closed and securely locked before leaving the apartment and before going to bed. -Please rinse off any dishes/flatware that you use and place them into the dishwasher after use. -Please help conserve energy (and my electricity bill!) by doing the following when you going to bed and when you are leaving: turn lights off, turn the thermostat down to between 60-65 degrees F (colder months), turn the A/C up to 75 degrees F or just turn it off entirely (warmer months). -Please NO smo",
23081738,NY EMPIRE STATE DOUBLE DOUBLE ROOM,17451075967,unconfirmed,Hudson River Hotel,Manhattan,Hell's Kitchen,40.75589,-73.99642,United States,US,True,flexible,Private room,2022,$624 ,$125 ,1,13,6/19/2019,2.13,2,8,81,,
23082290,2 bedroom apt in the heart of Bushwick (House),57063903283,verified,Robert,Brooklyn,Bushwick,40.69577,-73.92612,United States,US,False,moderate,Entire home/apt,2009,$293 ,$59 ,2,1,12/30/2018,0.16,5,2,0,"Please be quiet and respectful. Also, limited kitchen access in evenings. No pets or smoking please!",
23082842,Cozy bedroom in spacious Crown Heights apartment!,22877983311,unconfirmed,Aaron,Brooklyn,Crown Heights,40.66527,-73.95729,United States,US,True,moderate,Private room,2016,$415 ,$83 ,1,1,12/31/2018,0.16,3,1,0,"Please remember that this is a residential building. The building rules, apartment occupancy restrictions and the year-round tenants must be respected.",
23083395,Home in the heart of Brooklyn,13558637670,unconfirmed,Karen,Brooklyn,Bedford-Stuyvesant,40.69497,-73.94978,United States,US,True,moderate,Entire home/apt,2013,"$1,004 ",$201 ,30,0,,,2,1,0,No smoking cigarettes inside apartment.,
23083947,"25 minutes from Manhattan, shared room",6764588259,verified,Dan,Brooklyn,Borough Park,40.63892,-73.9974,United States,US,False,strict,Shared room,2019,$325 ,$65 ,2,1,12/30/2018,0.16,5,4,87,,
23084499,ENTIRE One Bedroom Apt Available 7/21-8/16,69936602150,unconfirmed,Maxine,Brooklyn,Prospect-Lefferts Gardens,40.66238,-73.95135,United States,US,False,strict,Entire home/apt,2008,$178 ,$36 ,7,0,,,3,1,14,"Leave the apartment as you found it!  If you used dishes or cups or anything in the kitchen area, you are expected to clean, wash, dry and return the item to its origin.   Act respectful in the neighborhood and inside the halls, other units are in the building so act responsible.   We ask that quiet hours be respected between 11pm and 8am.  Meaning no dance parties, loud noises, or other disturbances that are not emergencies.  We understand sometime guest will like to enjoy themselves until the bars close (2am).  We expect you to be courteous once you return to the property, excessive noise and disturbances reported may result in cancellation of your booking immediately without refund and maybe forcibly removed at my or my agents discretion.   No Smoking No Parties No Drugs No Weapons Only People on Reservation permitted to stay in the apartment. Please keep front door locked and closed at all times. You are expected to leave the apartment as you found it, kitchen clean, fridge empty, ",
23085052,LOFT 108,49580701057,verified,Mike,Brooklyn,Bushwick,40.69832,-73.93544,United States,US,True,flexible,Entire home/apt,2016,$907 ,$181 ,3,12,7/3/2019,1.93,4,1,12,"Overall please treat the apartment as you would you own home,  Keeping it as clean and tidy as you found it.  Please clean up before checking out.  Any major clean-up service required may be deducted from the deposit.  No Loud / Large Parties .  Please include the number of people who will be staying before you reserve this apartment.  No extra guests other than the maximum 4 allowed who booked  All smoking should be done outside, as this is a smoke free environment",
23085604,"Cozy home # 2 In Brooklyn 20 min from N,y,c. 3bed",76381264206,unconfirmed,Freddy,Brooklyn,Borough Park,40.61019,-73.97343000000001,United States,US,False,strict,Entire home/apt,2007,"$1,002 ",$200 ,3,0,,,5,2,325,"Please plan to check in after 4 PM and check out before 11 AM.  No Smoking, No pets Please No parties and quiet hours after 9 pm Clean dishes   We are not responsible for your belongings. Thank You!",
23086156,"Dvine Home,  5 Minutes from JFK, FREE parking",19682689298,verified,Flyn,Queens,Jamaica,40.67546,-73.7974,United States,US,False,flexible,Entire home/apt,2016,$196 ,$39 ,2,27,6/24/2019,4.4,3,1,182,No Smoking Cats Allowed With Fee,
23086708,Premium Times Sqr 2 Bed 2 Bath ~ Rooftop,19163163674,verified,David And Natalia,Manhattan,Hell's Kitchen,40.76102,-73.98874,United States,US,False,moderate,Entire home/apt,2019,$782 ,$156 ,5,21,7/7/2019,3.44,2,1,118,"Please remember that this is a residential building. The building rules, apartment occupancy restrictions and the year-round tenants must be respected.",
23087261,Nice place in Brooklyn .,21866855777,unconfirmed,Leon,Brooklyn,Greenpoint,40.732009999999995,-73.95699,United States,US,True,strict,Private room,2006,$815 ,$163 ,5,0,,,5,1,77,"Please remember that this is a residential building. The building rules, apartment occupancy restrictions and the year-round tenants must be respected.",
23087813,Suíte Tati,13683677316,verified,Tatiane,Brooklyn,Sunset Park,40.64663,-73.9987,United States,US,True,strict,Private room,2010,$595 ,$119 ,7,0,,,2,1,362,,
23088365,Chateau New York!! 2 Bedrooms In BK,72968563219,unconfirmed,Shari,Brooklyn,Bedford-Stuyvesant,40.67795,-73.92145,United States,US,True,moderate,Entire home/apt,2017,$658 ,$132 ,7,1,6/25/2019,1.0,5,1,68,"Please remember that this is a residential building. The building rules, apartment occupancy restrictions and the year-round tenants must be respected.",
23088918,Cozy Shared Studio 10 minutes from Times Square!,77353760388,verified,Ikenna,Manhattan,Harlem,40.80242,-73.94561999999999,United States,US,False,moderate,Shared room,2018,$373 ,$75 ,1,0,,,2,1,7,"Please remember that this is a residential building. The building rules, apartment occupancy restrictions and the year-round tenants must be respected.",
23089470,Room 25 min away from Manhattan 7train/busQ67,27531167593,verified,Ara,Queens,Sunnyside,40.73718,-73.9209,United States,US,True,strict,Private room,2009,"$1,006 ",$201 ,3,8,7/1/2019,1.27,4,2,0,,
23090022,Happy place to be,93998671229,unconfirmed,Dj,Brooklyn,Bushwick,40.69233,-73.92636,United States,US,False,strict,Private room,2021,$312 ,$62 ,7,1,1/1/2019,0.16,5,2,365,Respect the other neighbors and the host. Quiet after 9PM Respect all apartments' belongings by leaving them as you found them. Respect check in and check out time!,
23090575,New York - Upper East side cozy appartment,12869145821,verified,Armel,Manhattan,Upper East Side,40.770179999999996,-73.95501999999999,United States,US,False,strict,Private room,2008,$867 ,$173 ,3,2,6/18/2019,0.3,5,1,0,"-Please don't wear shoes inside the apartment (shoes should be removed in the area just inside the door to the apartment). -Please DO wear shoes while out in the courtyard. -Please keep the doors to the apartment locked at all times. -Please recycle -Please don't move/remove the portable A/C from the bedroom window.  -Please ensure that your bedroom windows are closed and securely locked when running the heat or A/C, before leaving the apartment and before going to bed. -Please ensure that the courtyard gate is closed and securely locked before leaving the apartment and before going to bed. -Please rinse off any dishes/flatware that you use and place them into the dishwasher after use. -Please help conserve energy (and my electricity bill!) by doing the following when you going to bed and when you are leaving: turn lights off, turn the thermostat down to between 60-65 degrees F (colder months), turn the A/C up to 75 degrees F or just turn it off entirely (warmer months). -Please NO smo",
23091127,Cozy private room in Greenwich Village,46718304880,verified,Bobby,Manhattan,Greenwich Village,40.728359999999995,-73.99953000000001,United States,US,True,strict,Private room,2007,"$1,157 ",$231 ,7,3,5/5/2019,0.94,3,1,88,Parties and smoking are not allowed under any circumstances and incur significant fees. Pets may be considered with pre-approval and an additional pet fee.,
23091679,Large Bx condo 3 mins to Subway by Yankee Stadium,87860005794,verified,Will,Bronx,Fordham,40.852140000000006,-73.90294,United States,US,True,strict,Entire home/apt,2009,$733 ,$147 ,2,12,6/17/2019,2.98,5,3,20,,
23092231,Small Deluxe Private room near LGA (Room#01),76028103559,verified,Mili,Queens,East Elmhurst,40.76406,-73.87312,United States,US,False,strict,Private room,2014,$574 ,$115 ,1,65,6/24/2019,10.05,4,5,85,"Please remember that this is a residential building. The building rules, apartment occupancy restrictions and the year-round tenants must be respected.",
23092784,Sunshine Room in Quiet Greenpoint Apartment,12608335213,verified,Paul,Brooklyn,Greenpoint,40.73752,-73.9535,United States,US,False,flexible,Private room,2007,$319 ,$64 ,2,9,5/26/2019,1.42,2,1,0,,
23093336,Cozy room in a area with everything.female only pl,27596520471,verified,Nashwa,Brooklyn,Bay Ridge,40.6334,-74.0212,United States,US,True,strict,Private room,2020,$429 ,$86 ,1,0,,,4,1,342,"Guests must be fit enough to maneuver themselves and any luggage up 3 flights of winding staircase.  Dishes, pots, pans, and appliances are usable but please leave everything in about the same state that you found it.  Apartment is not sound-proof! I like my neighbors, be kind to them. Don't get me in trouble with them. Don't hesitate to ask questions about function or location of something!! Have a great stay!",
23093888,Beautiful Apartment on the Upper West Side,23713934511,verified,Katy,Manhattan,Upper West Side,40.77391,-73.98874,United States,US,True,strict,Entire home/apt,2006,$472 ,$94 ,3,0,,,2,3,0,"Please remember that this is a residential building. The building rules, apartment occupancy restrictions and the year-round tenants must be respected.",
23094441,Cozy room in duplex apartment - terrace with view,94232064416,verified,Alessandro,Brooklyn,Crown Heights,40.67686,-73.93159,United States,US,True,flexible,Private room,2005,$838 ,$168 ,14,0,,,3,1,30,,
23094993,Private room in my apartment.,31823992075,unconfirmed,Naftali,Manhattan,Harlem,40.81425,-73.94549,United States,US,False,strict,Private room,2018,$650 ,$130 ,4,6,4/16/2019,1.05,5,1,0,,
23095545,Private Bedroom in Chinatown/LES,42408887432,unconfirmed,Carolina,Manhattan,Two Bridges,40.71302,-73.99405,United States,US,False,moderate,Private room,2005,$302 ,$60 ,1,6,6/9/2019,1.67,3,2,42,"Please remember that this is a residential building. The building rules, apartment occupancy restrictions and the year-round tenants must be respected.",
23096098,Luxury high floor 1bdrm in prime midtown location!,81400984056,verified,David,Manhattan,Midtown,40.75318,-73.98649,United States,US,True,flexible,Entire home/apt,2022,$201 ,$40 ,3,0,,,5,1,0,• Check-in time is 12PM (noon). • Check-in time is 12PM (noon). Please no smoking and no pets in the apartment,
23096650,Estilo y tranquilidad en un mismo espacio,2540333478,unconfirmed,Yamid,Queens,Jackson Heights,40.74888,-73.87708,United States,US,True,flexible,Private room,2020,$215 ,$43 ,2,29,6/28/2019,4.73,3,1,16,,
23097202,Calm Environment,21392789066,verified,Decidel,Queens,St. Albans,40.69278,-73.76191999999999,United States,US,True,flexible,Entire home/apt,2007,$452 ,$90 ,2,11,6/13/2019,2.31,4,1,313,"Please remember that this is a residential building.  The building rules, hotel occupancy restrictions, and year-round tenants have to be respected.",
23097754,Fun Spacious 3 Bed 2 bath Elevator Building,10453129732,unconfirmed,Yaacov,Manhattan,Upper East Side,40.778929999999995,-73.95221,United States,US,False,flexible,Entire home/apt,2010,$407 ,$81 ,31,1,4/12/2019,0.34,4,33,342,"Please remember that this is a residential building. The building rules, apartment occupancy restrictions and the year-round tenants must be respected.",
23098307,2 BEDROOMS 2 PERSONS EACH,37046112273,verified,Alexis,Manhattan,Harlem,40.82584,-73.95024000000001,United States,US,False,strict,Private room,2007,"$1,129 ",$226 ,1,2,6/14/2019,0.76,4,2,89,,
23098859,Brooklyn's Finest - LL,83118714934,verified,Cathy,Brooklyn,Williamsburg,40.71477,-73.96122,United States,US,False,strict,Entire home/apt,2005,$366 ,$73 ,2,25,7/2/2019,3.99,4,3,261,,
23099411,Room + movie theater/gym/roof - 1 block to subway!,40310092587,unconfirmed,Laura,Brooklyn,Bedford-Stuyvesant,40.69162,-73.95435,United States,US,True,moderate,Private room,2011,$890 ,$178 ,2,9,7/1/2019,1.48,5,2,0,#NAME?,
23099964,长岛豪华公寓单间卧室低价短租交通无敌便利,3693881152,unconfirmed,辣辣,Queens,Long Island City,40.74779,-73.9382,United States,US,True,flexible,Private room,2005,$643 ,$129 ,2,0,,,5,1,0,"Please remember that this is a residential building. The building rules, apartment occupancy restrictions and the year-round tenants must be respected.  Parties, pets and smoking are not allowed under any circumstances and incur significant fees.",
23100516,Blue Modern 93,12448135685,verified,Qing,Queens,Queens Village,40.72218,-73.73396,United States,US,False,moderate,Entire home/apt,2013,$338 ,$68 ,1,59,7/8/2019,9.03,3,2,36,"Please remember that this is a residential building. The building rules, apartment occupancy restrictions and the year-round tenants must be respected.",
23101068,"Luxury Astoria 1BD apt, 15 min from Manhattan",55065140730,verified,Eugene,Queens,Long Island City,40.755759999999995,-73.93070999999999,United States,US,True,strict,Entire home/apt,2014,$939 ,$188 ,3,2,3/18/2019,0.32,2,1,4,"Please remember that this is a residential building. The building rules, apartment occupancy restrictions and the year-round tenants must be respected.",
23101621,Prime East Village 1BR,75676849440,verified,Anish,Manhattan,East Village,40.72435,-73.98715,United States,US,True,moderate,Entire home/apt,2020,"$1,060 ",$212 ,5,2,3/10/2019,0.37,3,1,90,#NAME?,
23102173,Elegant 2 bedroom in Chelsea,85284818153,unconfirmed,Robyn,Manhattan,Chelsea,40.74244,-74.00274,United States,US,True,flexible,Entire home/apt,2013,$908 ,$182 ,2,13,7/3/2019,2.57,2,1,16,,
23102725,"Two BR, entire top floor, 23 Minutes to Manhattan",96767893869,unconfirmed,Margareth,Brooklyn,Bedford-Stuyvesant,40.6828,-73.95303,United States,US,True,flexible,Entire home/apt,2011,$783 ,$157 ,30,1,6/3/2019,0.81,2,3,349,,
23103277,"Terrific Tribeca 2BR, Indoor pool, Gym + Rooftop by Blueground",94719191962,unconfirmed,Blueground,Manhattan,Tribeca,40.71696,-74.00689,United States,US,False,flexible,Entire home/apt,2004,$247 ,$49 ,30,0,,,5,232,259,,
23103830,Studio Apartment in East Village,21523245043,unconfirmed,Steph,Manhattan,East Village,40.73033,-73.98518,United States,US,False,moderate,Entire home/apt,2005,$564 ,$113 ,30,0,,,4,1,246,,
23104382,Village/soho  |  2Br + Skylights,32694581275,unconfirmed,James,Manhattan,Greenwich Village,40.72785,-73.99933,United States,US,True,strict,Entire home/apt,2021,$739 ,$148 ,31,18,6/28/2019,2.87,2,2,7,Please no LOUD music after 2 AM.  The neighbors have recently complained.  Just be reasonable and cool and everything will be OK.  Thank you : ),
23104934,NY MIDTOWN DOUBLE ROOM,85817041335,unconfirmed,Hudson River Hotel,Manhattan,Hell's Kitchen,40.756,-73.99783000000001,United States,US,True,moderate,Private room,2022,$127 ,$25 ,1,20,6/16/2019,3.28,4,8,53,,
23105487,Paradise in New York City 2,80737585005,unconfirmed,Shama,Manhattan,Harlem,40.82269,-73.94969,United States,US,True,moderate,Entire home/apt,2011,$887 ,$177 ,2,24,7/6/2019,4.26,3,2,263,Parties and smoking are not allowed under any circumstances and incur significant fees. Pets may be considered with pre-approval and an additional pet fee.,
23106039,AFFORDABLE LUXURY...ENTIRE APARTMENT @ Its Best!,72988494698,unconfirmed,Festus Atu,Manhattan,Inwood,40.868559999999995,-73.92623,United States,US,False,flexible,Entire home/apt,2014,"$1,153 ",$231 ,1,12,6/16/2019,2.98,2,2,357,,
23106591,Master bedroom in Bedstuy,18323031997,verified,Olabimpe,Brooklyn,Bedford-Stuyvesant,40.69079,-73.93115,United States,US,True,moderate,Private room,2005,$620 ,$124 ,3,11,6/25/2019,1.95,3,4,160,,
23107144,"Huge Apartment & Private Bathroom, Upper East Side",18900736859,verified,Jonathan,Manhattan,Upper East Side,40.765209999999996,-73.96337,United States,US,True,moderate,Private room,2020,$176 ,$35 ,3,14,6/29/2019,3.09,4,1,44,,
23107696,6 minutes from JFK Private Bedroom/Bathroom,15811744289,verified,Lakshmee,Queens,Springfield Gardens,40.6667,-73.78469,United States,US,False,strict,Private room,2022,$989 ,$198 ,1,86,7/5/2019,13.3,5,8,335,"Please remember that this is a residential building. The building rules, apartment occupancy restrictions and the year-round tenants must be respected.",
23108248,HOME AWAY,56135571740,unconfirmed,Ismail,Brooklyn,Crown Heights,40.67637,-73.91351999999999,United States,US,True,strict,Private room,2016,$648 ,$130 ,1,6,6/8/2019,1.5,3,1,327,No Smoking. Cats Allowed With Fee.,
23108800,nice suite available in victorian home.,2748043022,unconfirmed,Davied,Queens,Bayswater,40.611270000000005,-73.76451,United States,US,False,strict,Private room,2013,$59 ,$12 ,5,0,,,3,1,180,,
23109353,Shared Room 4 FEMALE Guests 30mins to Manhattan-3,19911493100,unconfirmed,Abby,Brooklyn,Sheepshead Bay,40.59726,-73.95951,United States,US,False,moderate,Shared room,2011,$869 ,$174 ,3,1,3/16/2019,0.26,3,10,281,,
23109905,1 bedroom spacious and bright apt near SOHO,64511088342,unconfirmed,Steven,Manhattan,Chinatown,40.71744,-73.99559,United States,US,True,moderate,Entire home/apt,2015,$625 ,$125 ,2,10,6/13/2019,1.59,4,1,35,All Renters and Guests must be 25 years of age unless accompanied by a parent or guardian. Parties of any kind are not allowed. There is no smoking allowed in the boat. Use of illegal substances will be cause for immediate termination of the rental and reported to the police. All pets must be on a leash when outside the boat.  Quiet hours are between 9:30pm and 8am.  Noise must be kept to a minimum during this time period. ,
23110457,Times Square 3bedroom,799670315,verified,Chemme,Manhattan,Hell's Kitchen,40.76186,-73.99608,United States,US,True,flexible,Entire home/apt,2003,$859 ,$172 ,2,5,6/20/2019,1.06,2,4,173,NO SMOKING ALLOWED AND NO PETS ALLOWED!,
23111010,Manhattan second unit,72352294125,verified,Sara,Manhattan,Upper West Side,40.77783,-73.98433,United States,US,True,strict,Shared room,2015,$981 ,$196 ,3,0,,,2,2,95,,
23111562,"Luxury, Sunny, Comfy, Gorgeous views, Central Park",37696720393,unconfirmed,Al,Manhattan,Upper East Side,40.764509999999994,-73.96249,United States,US,True,strict,Entire home/apt,2011,$239 ,$48 ,3,0,,,3,1,0,,
23112114,Brooklyn Home,1684042677,verified,Jeonghoon,Brooklyn,Bedford-Stuyvesant,40.6916,-73.95961,United States,US,False,moderate,Private room,2018,$807 ,$161 ,1,0,,,2,1,0,,
23112667,Cozy Sun Drenched Full Apt.  30 mins from City,20396111527,verified,Beverline,Bronx,East Morrisania,40.830259999999996,-73.89102,United States,US,True,moderate,Entire home/apt,2015,"$1,105 ",$221 ,1,26,6/30/2019,4.06,4,3,80,,
23113219,"Elegant & Quiet & Convenient 紐約清雅居,地鐵公車便利,步行3分鐘到超市",39128518648,verified,Jane,Queens,Ozone Park,40.68757,-73.85084,United States,US,False,moderate,Private room,2019,"$1,193 ",$239 ,1,3,5/30/2019,1.55,2,3,119,,
23113771,6 Minutes From JFK Airport Cozy Bedroom,32299697088,unconfirmed,Lakshmee,Queens,Jamaica,40.668,-73.78477,United States,US,False,strict,Private room,2008,$919 ,$184 ,1,98,6/26/2019,15.23,5,8,189,"Enjoy yourself. Soak in the neighborhood street life. Leave enriched and with some new experiences.  No smoking and no pets allowed. There is an outdoor courtyard area accessible from the door next to the stove. To respect the quiet enjoyment of our neighbors, please refrain from loud conversations or cell phone use in the courtyard area because other buildings abut the courtyard and voices carry. Before leaving, please remove all used linens and towels and leave in laundry bag in closet, wash, dry and put away dishes, pots/pans and utensils. Leave keys in unit and lock the door behind you.",
23114323,Awesome 1 bedroom near Flatiron 30 day minimum.,92683868533,unconfirmed,Blanca,Manhattan,Midtown,40.74366,-73.98343,United States,US,True,strict,Entire home/apt,2013,$64 ,$13 ,30,0,,,3,1,151,,
23114876,Comfy room in the Heart of Bushwick,11383161262,verified,John,Brooklyn,Bushwick,40.70304,-73.91694,United States,US,False,moderate,Private room,2013,$873 ,$175 ,1,21,6/13/2019,3.35,3,3,78,"- Please Note: This unit was just renovated in 2016 and it comfortably accommodates four guests, but up to 6 guests are permitted if you so desire (two guests in each bedroom and 2 guests on the two available twin size air mattresses). Please request an air mattress(es) (if needed) when making a reservation.  No smoking, no pets, no parties, and must be 25 years old to book.  For check-out, please ensure: - All plates and cups are left in the sink or dishwasher - All trash is left in the kitchen trash can or bagged and left next to the trash can (additional bags are under the sink) - All windows are closed and locked - If used, the air mattresses are deflated and put away (please leave used linens for the air mattresses on the floor) - If furniture was moved during your stay, please return to its original location  Please be mindful to our neighbors in the building, quiet hours after 10pm is not a must, but a nice gesture.  Please be considerate of our next guests who will be staying a",
23115428,Clean & Nice & Affordable 3-P Room/Private Bath,94321248110,unconfirmed,Ling,Brooklyn,Borough Park,40.635290000000005,-74.00618,United States,US,False,moderate,Private room,2014,$258 ,$52 ,1,2,5/27/2019,0.91,5,7,169,Please no dirty dishes behind. Thank you,
23115980,Luxury Entire 3Bedroom Apartment near Downtown bk.,11707820996,unconfirmed,Gabriel,Brooklyn,Crown Heights,40.6776,-73.95447,United States,US,False,moderate,Entire home/apt,2003,$988 ,$198 ,3,8,6/24/2019,2.0,4,1,283,,
23116533,Sunny Bedstuy apartment,82039234634,verified,Tega,Brooklyn,Bedford-Stuyvesant,40.690329999999996,-73.94848,United States,US,True,moderate,Entire home/apt,2012,$432 ,$86 ,5,1,1/22/2019,0.18,5,1,1,"We expect guests to relax and enjoy themselves, but to be respectful of the space and the community.  Please note: no extra guests allowed and please limit loud noises beyond 10pm (sensitive neighbors).",
23117085,Private room in a quiet apartment,22491719323,unconfirmed,Yemi,Queens,Rosedale,40.65433,-73.73638000000001,United States,US,True,flexible,Private room,2019,$985 ,$197 ,1,3,6/22/2019,0.47,3,3,46,Treat this quaint apartment like it's your own.,
23117637,Quiet One-Bedroom in Williamsburg Close to Subway,74274047281,verified,Ale And Tom,Brooklyn,Williamsburg,40.70627,-73.95484,United States,US,True,moderate,Entire home/apt,2003,$388 ,$78 ,2,11,6/14/2019,1.76,5,1,237,No Smoking on the apartment.  No Ilegal Drugs  No Parties on property. No pets PLEASE TRY  TO BE AS QUIET AS POSSIBLE CONSIDER OTHER NEIGHBORS OR TENANTS. THANK YOU IN ADVANCE!.,
23118190,1 Bedroom/1 Bath Apt in Hudson Yards/Midtown West,35819117054,verified,Kusum&Kannan,Manhattan,Chelsea,40.75286,-73.99693,United States,US,True,moderate,Entire home/apt,2003,$610 ,$122 ,1,1,1/1/2019,0.16,2,1,0,"Smoking is allowed on the patio only. No pets unless discussed with owners Be mindful of the neighbors, this is a residential area.",
23118742,UES WITH VIEW OF EAST RIVER,17708428894,verified,Shelby,Manhattan,East Harlem,40.78591,-73.94234,United States,US,False,strict,Private room,2020,$978 ,$196 ,1,6,1/22/2019,0.95,2,1,0,Respect the neighbors Absolutely no smoking in and around the property. Respect the neighbors Back door is for Emergency Exit only  (clearly marked) Respect the neighbors We love dogs but sorry no pets,
23119294,Super Deluxe Private Room near LGA (Room #02),30410909973,verified,Mili,Queens,East Elmhurst,40.76577,-73.87131,United States,US,False,strict,Private room,2014,"$1,057 ",$211 ,1,56,7/3/2019,9.08,4,5,89,,
23119846,Central Light Filled Studio,91560289812,verified,Yana,Manhattan,Hell's Kitchen,40.76101,-73.99431,United States,US,True,flexible,Entire home/apt,2016,$387 ,$77 ,4,2,5/15/2019,0.39,4,1,0,"PLEASE NOTE THE FOLLOWING BEFORE REQUESTING A BOOKING:  * I will reply as soon as possible to let you know if my apartment will be available for ALL your needs.  - 1. We are happy to host Friendly, Neat, Low-Maintainence Adults & Well-Behaved Children.  ---- All cookware, dishes and utensils in the kitchen are at your disposal ---- There will be basic condiments provided for you, but please ask about food as this is our home. We ask that you rinse whatever dishes you use & place in dishwasher & leave the kitchen as you found it.  - 2. NO UNPAID ADULTS, CHILDREN, OR OVERNIGHT VISITORS PERMITTED  - 3. NO SMOKING  - 4. NO PARTIES  - 5. NO LOUD MUSIC - 6. PETS (decided on a case by case basis, please inquire for more information and additional fees) - 7. PLEASE MAKE REQUESTS EARLY (to ensure availability) FOR ANY EXTRA Special Requests or Needs.  - 8. RATES, AVAILABILITY & AMENITIES ARE SUBJECT TO CHANGE UNTIL A RESERVATION IS FINALIZED, AND WILL DEPEND ON TIME OF YEAR AND WHO REQUESTS A R",
23120399,SIMPLEHOME,4966362064,verified,Alona,Queens,Long Island City,40.75606,-73.93234,United States,US,True,moderate,Entire home/apt,2021,$74 ,$15 ,1,16,6/26/2019,2.45,5,2,181,Check-in time is 1PM. Read the manual after you book - it covers everything INCLUDING check in. This manual should come in the check in,
23120951,Super Big Deluxe Private Room near LGA (Room #03),60265718365,verified,Mili,Queens,East Elmhurst,40.76533,-73.87159,United States,US,True,strict,Private room,2003,"$1,056 ",$211 ,1,74,6/23/2019,11.38,2,5,89,Apartment is located in quiet neighborhood so noise is ok as long as it's not excessive. We have a strict no-pet and no-smoking policy. This is our building policy and also a strongly enforced household policy.,
23121503,Private 2BR w/washer/dryer/balcony in Bushwick,4724269045,unconfirmed,Teddy,Brooklyn,Bushwick,40.694720000000004,-73.92574,United States,US,True,moderate,Entire home/apt,2016,$164 ,$33 ,2,6,6/24/2019,0.98,3,1,0,No smoking No pets  No events or parties Check out by 11am  Check in after 3pm $50 fee for lost keys  Please stay out of the nursery unless you have a baby sleeping in there We can be flexible with check in and check out times depending on the next renter's right to a 3pm check in time.,
23122056,HUGE room in Grammercy,71086321856,verified,Alyona,Manhattan,Kips Bay,40.73885,-73.97938,United States,US,True,strict,Private room,2010,"$1,158 ",$232 ,1,1,5/25/2019,0.67,4,2,157,,
23122608,Humble abode residing 20 minutes away from city,85511701654,verified,Kelsang,Queens,Sunnyside,40.737159999999996,-73.91848,United States,US,True,moderate,Private room,2012,$359 ,$72 ,1,1,1/7/2019,0.16,5,2,0,#NAME?,
23123160,Quarto espaçoso perto de Manhattan!,32438661572,verified,Andressa,Queens,Long Island City,40.75408,-73.94098000000001,United States,US,False,strict,Private room,2007,$792 ,$158 ,2,21,4/24/2019,3.25,2,2,0,,
23123713,East Village Nook,85395583385,verified,Andrew,Manhattan,East Village,40.7279,-73.97797,United States,US,True,flexible,Shared room,2013,"$1,127 ",$225 ,2,0,,,3,1,0,,
23124265,Apartment share close to train station,64307205996,unconfirmed,Anchor,Brooklyn,Bedford-Stuyvesant,40.67862,-73.91233000000001,United States,US,True,moderate,Shared room,2009,"$1,044 ",$209 ,1,4,6/10/2019,0.63,5,17,89,#NAME?,
23124817,Stylish & Spacious Private Room + Bath in Bed-Stuy,8047730998,verified,Alejandra,Brooklyn,Bedford-Stuyvesant,40.68441,-73.94632,United States,US,True,flexible,Private room,2012,$359 ,$72 ,2,0,,,5,1,31,,
23125369,Easy commute apartment next to subway,93943099520,verified,Anchor,Brooklyn,Bedford-Stuyvesant,40.67877,-73.91226999999999,United States,US,True,moderate,Shared room,2018,"$1,169 ",$234 ,1,9,6/9/2019,1.97,2,17,88,"Check in/out: We can meet outside of my building at check-in between 4:00pm-6:00pm.  If you can give me an estimated ETA, that would be helpful!  Please leave your keys in the studio when you check-out Thursday afternoon.  I am very flexible with check-out between 12:00pm-3:00pm. Go up 1 flight of stairs, and it will be the first door to the right.   The door locks automatically, but there is a deadbolt and lock.  You do not have to deadbolt the door every time you leave.  TV – Press and hold the “All On” button to turn on TV Towels are on the top shelf in the bathroom, and the bed is all set!   I do have a portable A/C in the second window on the right.  Since I live on the second floor, it does not get too warm, but if you do need it, please remember to turn it off if you are leaving the building. Trash/recycling days are Sundays and Thursdays. There’s trash bags on the third shelf in the bathroom closet to the left.  When you are checking out on Thursday, please take the trash out r",
23125922,Sunny room in iconic Brooklyn brownstone,36791008183,verified,Lira,Brooklyn,Prospect Heights,40.677820000000004,-73.97076,United States,US,False,strict,Private room,2016,$79 ,$16 ,2,0,,,4,2,0,"- Please make sure to leave the place clean and organized so as to let other guests enjoy the space. - Cleaning fee covers washing of laundry, vacuuming of floors, changing sheets/bedding, etc. It also covers replacement of toiletry and essentials. - Absolutely NO smoking, NO parties, and please take shoes off upon entering the apt. Thank you and I look forward to providing you with an excellent stay! -James",
23126474,Sweet Spot! 2 rooms w/ PRIVATE ENTRANCE in BK!,95512049890,verified,Siji,Brooklyn,East Flatbush,40.64168,-73.95026,United States,US,True,strict,Private room,2020,$246 ,$49 ,2,16,7/6/2019,4.49,4,1,13,"You are our guests and we are so glad to have you here.  For your safety, and ours, we ask that you meet your guests off site.  There is no smoking in the building. There are no animals allowed.  If you arrive, and we are not available to greet you, there is a lock box on the outside of the building to the right of the double front doors. The keys to the building and your guest room are there.  Once you have booked, I will give you the code for it.  In consideration of the other guests that will be sharing the bathroom, please keep your use to 15-20 minutes. There is a clipboard to sign up for a specific time for use. (i.e. to keep flight schedule, meeting etc.) If you have children staying with you, have all food and drinks for them in the common area at a table, please no food or drinks for the kids in the guest rooms, ( and loft area) to avoid spills etc.  Please keep your children in the designated areas mentioned. ( your guest room, common area to the left of the partition, and th",
23127026,Comfortable Classy Apartment,23572720600,unconfirmed,Avi,Brooklyn,Midwood,40.61708,-73.95559,United States,US,True,flexible,Entire home/apt,2006,$794 ,$159 ,1,2,2/17/2019,0.35,4,1,126,All Renters and Guests must be 25 years of age unless accompanied by a parent or guardian. Parties of any kind are not allowed. There is no smoking allowed in the boat. Use of illegal substances will be cause for immediate termination of the rental and reported to the police. All pets must be on a leash when outside the boat.  Quiet hours are between 9:30pm and 8am.  Noise must be kept to a minimum during this time period.,
23127579,Best price-City College-1 train 20 min. Times Sq.,7183040134,verified,Sait,Manhattan,Harlem,40.81818,-73.95506,United States,US,True,moderate,Shared room,2012,$96 ,$19 ,1,27,6/8/2019,5.51,5,1,98,"We lived next door for over five years and recently sold our condo, so please don't be an idiot. We had tenants for three years and never heard them, and they never heard us (even when we had a newborn)... and we would expect the same to be true for you. No pets and no smoking.",
23128131,Three bedrooms house,87954291932,verified,Linda,Staten Island,Arrochar,40.587959999999995,-74.07205,United States,US,False,flexible,Private room,2011,$197 ,$39 ,1,8,7/2/2019,1.37,4,2,362,"Please be considerate of the space and the neighbors.  Sorry, no parties allowed, this is more of a quiet space. Looking for more towels or need an extra pillow? Don't hesitate to text me! Things happen. If something gets broken, please let me know so I can replace it.",
23128683,West Village Apartment,73820722517,unconfirmed,Sarah,Manhattan,West Village,40.72998,-74.00774,United States,US,False,flexible,Entire home/apt,2011,$809 ,$162 ,2,0,,,4,1,0,,
23129236,Entire Luxurious private Studio Near LGA Airport,8164504281,verified,Mili,Queens,East Elmhurst,40.75812,-73.87195,United States,US,False,strict,Entire home/apt,2015,$831 ,$166 ,1,36,6/17/2019,5.71,3,5,150,,
23129788,Cozy Room 2 in Brooklyn,62150359783,unconfirmed,Olabimpe,Brooklyn,Bedford-Stuyvesant,40.689659999999996,-73.92945999999999,United States,US,True,moderate,Private room,2017,"$1,128 ",$226 ,3,5,5/26/2019,0.95,3,4,161,,
23130340,Big Private Room in Manhattan,71429004147,unconfirmed,Poli,Manhattan,Washington Heights,40.8331,-73.94006999999999,United States,US,True,moderate,Private room,2017,$808 ,$162 ,3,0,,,3,1,89,,
23130892,Amazing apartment,28841415692,unconfirmed,Mor,Brooklyn,Williamsburg,40.716590000000004,-73.95071999999999,United States,US,False,strict,Private room,2019,$89 ,$18 ,14,0,,,2,1,0,"You are our guests, we are so glad to have you here. For your safety and ours, we ask that you meet your guests off site.  Thus is a non-smoking building. No pets allowed.  Thank you",
23131445,Astoria Entire apartment,39666000240,verified,Janna,Queens,Ditmars Steinway,40.776379999999996,-73.91308000000001,United States,US,True,flexible,Entire home/apt,2005,$156 ,$31 ,40,2,5/31/2019,0.42,4,2,85,"No Smoking on the apartment.  No Ilegal Drugs  No Parties on property. No pets PLEASE TRY  TO BE AS QUIET AS POSSIBLE CONSIDER OTHER NEIGHBORS OR TENANTS. THANK YOU IN ADVANCE!. Hull st. court apartment rules: 0.  Absolutely NO smoking in the apartment or  building.  Anyhow if you need to, please do go out to Hull street and people watch while smoking. The North end has multiple cigar bars, too! 1.  Most important, please, No Parties = be quiet, use ""indoor voices"" like they taught us in grade school!  Also, keep the stereo at a reasonable level, etc.   If YOU experience trouble with noise try to contact me immediately and I'll do what I can to stop it. 2.  Please be kind to sheets and towels, leave wet ones in the tub, and generally pick up stuff when leaving.  3. Anything at all recyclable put in the blue wheeled bin on the way out of the building on Hull st court.  Put trash in the blue trash can in the kitchen.  If you are staying for more than a few days and have trash in excess o",
23131997,Tribeca Treasure,83372587484,verified,Juliet,Manhattan,SoHo,40.71973,-74.00232,United States,US,False,flexible,Entire home/apt,2007,$930 ,$186 ,3,4,5/9/2019,0.7,2,1,87,No smoking and no parties.,
23132549,幸福小屋,95739029725,unconfirmed,David,Staten Island,South Beach,40.591640000000005,-74.08197,United States,US,True,strict,Private room,2020,"$1,163 ",$233 ,1,10,7/5/2019,7.14,3,1,363,,
23133102,"5 min walk to train,2 min  walk to bus, most shop.",29575232049,verified,Hasan,Queens,Flushing,40.756440000000005,-73.82875,United States,US,True,moderate,Entire home/apt,2022,"$1,035 ",$207 ,2,1,1/1/2019,0.16,3,1,0,,
23133654,HUGE queen bed 1 block away from Prospect Park!,23489045509,unconfirmed,Melissa,Brooklyn,Flatbush,40.65327,-73.96573000000001,United States,US,True,moderate,Private room,2008,$235 ,$47 ,5,2,5/27/2019,0.32,3,1,0,"House Rules Welcome to Boston-Furnished-Rentals. We respectfully request that you take care of all furniture, appliances, and all other belongings in our apartments. Pets are allowed only with prior approval. Please turn off all lights and appliances including the A/C and heat when you leave. We also ask that you follow our trash rules while staying with us. The efforts of all our guests allow us to pass on savings for everyone. We look forward to your visit and thanks for choosing Boston-Furnished-Rentals while enjoying Boston.",
23134206,Modern King-Bed Private room and en-suite Bathroom,16363862586,unconfirmed,April,Brooklyn,Bedford-Stuyvesant,40.69038,-73.95953,United States,US,False,strict,Private room,2010,$802 ,$160 ,1,29,6/22/2019,5.09,2,1,84,"Check Out is at Noon (12:00pm) unless otherwise specified. Cleanliness is next to godliness!  No smoking, no pets, no parties! Please take your shoes off upon entering the apt. Thank you!",
23134759,Yellow submarine,9237986822,verified,Galina,Brooklyn,Bedford-Stuyvesant,40.69032,-73.92437,United States,US,True,flexible,Private room,2003,$179 ,$36 ,2,0,,,5,1,10,"PLEASE  NOTE: • 6.25% MA State Sales Tax is already incorporated into the room rate and extra guest fees. • The total listed as the cleaning fee is comprised of a $119 cleaning fee and a $39 damage protection plan which provides $3,000 worth of coverage for accidental damage to the property during the stay. There is no smoking allowed in the boat. Use of illegal substances will be cause for immediate termination of the rental and reported to the police. All pets must be on a leash when outside the boat.  Quiet hours are between 9:30pm and 8am.  Noise must be kept to a minimum during this time period.",
23135311,Cozy Studio Apartment in the Heart of Williamsburg,3352131740,unconfirmed,Olivia,Brooklyn,Williamsburg,40.71881,-73.95369000000001,United States,US,True,strict,Entire home/apt,2015,$492 ,$98 ,2,0,,,4,1,24,Residential building so no loud gatherings  No noise after 11  Basically treat it like its your place  No cleaning fee charged so please leave kitchen like you found it,
23135863,Cozy room near Prospect Park,94567487466,verified,Zach Williams,Brooklyn,Flatbush,40.65051,-73.95586,United States,US,True,flexible,Private room,2021,$762 ,$152 ,4,7,6/26/2019,1.17,5,1,20,"House Rules Welcome to Boston-Furnished-Rentals. We respectfully request that you take care of all furniture, appliances, and all other belongings in our apartments. Pets are allowed only with prior approval. Please turn off all lights and appliances including the A/C and heat when you leave. We also ask that you follow our trash rules while staying with us. The efforts of all our guests allow us to pass on savings for everyone. We look forward to your visit and thanks for choosing Boston-Furnished-Rentals while enjoying Boston.",
23136415,Beauty In The East-Mins to Subway/JFK/LGA/Manhatta,71548117362,verified,Victoria,Brooklyn,East New York,40.65905,-73.8976,United States,US,True,strict,Entire home/apt,2020,$245 ,$49 ,1,13,7/3/2019,7.36,3,1,89,"House Rules Welcome to Boston-Furnished-Rentals. We respectfully request that you take care of all furniture, appliances, and all other belongings in our apartments. Pets are allowed only with prior approval. Please turn off all lights and appliances including the A/C and heat when you leave. We also ask that you follow our trash rules while staying with us. The efforts of all our guests allow us to pass on savings for everyone. We look forward to your visit and thanks for choosing Boston-Furnished-Rentals while enjoying Boston.",
23136968,Private Room @ Floasis Art Collective in Bushwick!,7961243193,verified,Rachel,Brooklyn,Bushwick,40.697379999999995,-73.92432,United States,US,False,strict,Private room,2018,$276 ,$55 ,2,1,1/1/2019,0.16,3,1,307,"Expect to have our place treated with respect, but don't want guests to feel uncomfortable so if there's a beer(s) in the fridge, feel free, snacks in the drawers, usually fresh fruit in the bowl, up for grabs etc...",
23137520,Astoria 320square feet room!!:),26803693453,verified,Abram,Queens,Astoria,40.776070000000004,-73.92876,United States,US,False,flexible,Private room,2022,$637 ,$127 ,2,0,,,5,2,310,"House Rules Welcome to Boston-Furnished-Rentals. We respectfully request that you take care of all furniture, appliances, and all other belongings in our apartments. Pets are allowed only with prior approval. Please turn off all lights and appliances including the A/C and heat when you leave. We also ask that you follow our trash rules while staying with us. The efforts of all our guests allow us to pass on savings for everyone. We look forward to your visit and thanks for choosing Boston-Furnished-Rentals while enjoying Boston.",
23138072,Private Room with exposed bricks at East Village,20955695364,verified,Gia,Manhattan,East Village,40.7297,-73.97995,United States,US,False,strict,Private room,2009,$95 ,$19 ,3,0,,,4,2,14,"No Smoking on the apartment.  No Ilegal Drugs  No Parties on property. No pets PLEASE TRY  TO BE AS QUIET AS POSSIBLE CONSIDER OTHER NEIGHBORS OR TENANTS. THANK YOU IN ADVANCE!. Reiterating what's below>>> No parties!  No loud noises, please! - realize that there are other guests (and especially residents) like you in the building that may in fact want to get sleep on a regular basis (sometime between the hours of 10pm and 7am, probably!)  During the day, jumping jacks are probably ok. If you have any problems or if neighbors complain call me at (phone number hidden) and mediate over the phone or in person.   Hull st. court apartment rules: 0.  Absolutely NO smoking in the apartment or  building.  Anyhow if you need to, please do go out to Hull street and people watch while smoking. The North end has multiple cigar bars, too! 1.  Most important, please, No Parties = be quiet, use ""indoor voices"" like they taught us in grade school!  Also, keep the stereo at a reasonable level, etc.   I",
23138625,One Bedroom Apartment in the Heart of East Village,33770587450,verified,Maira,Manhattan,East Village,40.73017,-73.98668,United States,US,False,moderate,Entire home/apt,2016,$807 ,$161 ,1,4,5/17/2019,1.46,5,2,120,"No Smoking on the apartment.  No Ilegal Drugs  No Parties on property. No pets** (ask) PLEASE TRY  TO BE AS QUIET AS POSSIBLE CONSIDER OTHER NEIGHBORS OR TENANTS. THANK YOU IN ADVANCE!. Reiterating what's below>>> No parties!  No loud noises, please! - realize that there are other guests (and especially residents) like you in the building that may in fact want to get sleep on a regular basis (sometime between the hours of 10pm and 7am, probably!)  During the day, jumping jacks are probably ok. If you have any problems or if neighbors complain call me at (phone number hidden) and mediate over the phone or in person.   Hull st. court apartment rules: 0.  Absolutely NO smoking in the apartment or  building.  Anyhow if you need to, please do go out to Hull street and people watch while smoking. The North end has multiple cigar bars, too! 1.  Most important, please, No Parties = be quiet, use ""indoor voices"" like they taught us in grade school!  Also, keep the stereo at a reasonable level, ",
23139177,"Beautiful, sunlit bedroom in Brooklyn",6307815257,unconfirmed,Mike,Brooklyn,Greenpoint,40.72663,-73.93819,United States,US,False,moderate,Private room,2018,$236 ,$47 ,7,2,5/16/2019,0.32,2,2,63,"PLEASE  NOTE: • 6.25% MA State Sales Tax is already incorporated into the room rate and extra guest fees. • The total listed as the cleaning fee is comprised of a $119 cleaning fee and a $39 damage protection plan which provides $3,000 worth of coverage for accidental damage to the property during the stay. There is no smoking allowed in the boat. Use of illegal substances will be cause for immediate termination of the rental and reported to the police. All pets must be on a leash when outside the boat.  Quiet hours are between 9:30pm and 8am.  Noise must be kept to a minimum during this time period.",
23139729,Beautiful Brooklyn Home,85701442673,verified,Serena,Brooklyn,Bushwick,40.70267,-73.92751,United States,US,True,flexible,Private room,2008,$803 ,$161 ,2,16,5/13/2019,2.57,5,1,2,,
23140282,10 min subway to Time Square Sunny 1BR,13082169508,verified,Xi,Queens,Long Island City,40.7505,-73.94381,United States,US,True,strict,Entire home/apt,2014,$80 ,$16 ,1,29,6/17/2019,4.86,4,1,148,"Quiet, residential. No smoking. No pets",
23140834,Private Room in 2BR East Village Apartment,18714417799,verified,Chad,Manhattan,East Village,40.723729999999996,-73.97534,United States,US,False,moderate,Private room,2011,$808 ,$162 ,1,17,7/6/2019,3.21,2,1,73,"Please feel to use the kitchen, laundry, etc. I take great pride in keeping my things nice, so please be respectful and we will be all set :)",
23141386,Magnificent 5 Bedroom Brooklyn Townhouse,82362780658,verified,Ilsa,Brooklyn,Prospect Heights,40.68187,-73.97075,United States,US,False,moderate,Entire home/apt,2004,"$1,129 ",$226 ,2,5,7/1/2019,1.65,5,1,358,House rules  1- Since this is a apartment that is lived in at times there are some closets and draws with personal items and I would ask not to use those spaces but there is plenty of space for your stuff. 2- Residential Building so no loud noises or parties especially after 10:30. 3- No overnight company unless approved. 4- Common Courtesy  5-No  or smoking.,
23141938,Beautiful Brooklyn Apartment - The Sunlight Room,44735939535,verified,Nick & D.,Brooklyn,East Flatbush,40.64245,-73.94603000000001,United States,US,False,moderate,Private room,2008,$594 ,$119 ,1,1,4/22/2019,0.38,3,5,0,,
23142491,Sunny Bedroom off Broadway,27101193804,verified,Nina,Manhattan,Morningside Heights,40.80556,-73.96503,United States,US,False,moderate,Private room,2021,$180 ,$36 ,5,0,,,4,1,0,,
23143043,Bright and Cozy Room in Greenpoint!,72200730385,verified,Brandi,Brooklyn,Greenpoint,40.727059999999994,-73.95439,United States,US,True,strict,Private room,2004,$652 ,$130 ,7,2,2/28/2019,0.38,3,1,0,No smoking.   We do allow pets.,
23143595,Brooklyn home with a view,97384849361,unconfirmed,Emilie,Brooklyn,Kensington,40.64029,-73.97265,United States,US,True,flexible,Private room,2007,$763 ,$153 ,1,37,7/4/2019,5.75,2,1,97,,
23144148,Industrialized in the City (1 guest only),87517992724,verified,Leah,Brooklyn,East Flatbush,40.64206,-73.94059,United States,US,False,flexible,Private room,2013,$822 ,$164 ,2,17,6/28/2019,3.57,3,4,318,No smoking. No pets allowed in the building. Quiet hours apply.,
23144700,Studio with Historic Charm in South Harlem,6372557548,unconfirmed,Olga,Manhattan,Harlem,40.804559999999995,-73.95033000000001,United States,US,False,flexible,Entire home/apt,2003,$183 ,$37 ,3,15,6/28/2019,3.21,5,2,116,"This is my apartment that I rent out when I'm away; I ask that you treat my things as you would yours and leave it as you found it.  There is no smoking in the apartment as well as no pets. - Please be quiet in the hallway/stairs - I live in a small apartment building (5 apartments) and all of my neighbors are very quiet and polite so please reciprocate. - No overnight guests that are not on the reservation/have not been agreed upon in advance. - No smoking in the apartment, out the window, etc.   -Please be mindful of shutting off lights when not in use/when leaving the apartment. -If you cook please take care of your dishes (you can use the dishwasher). ",
23145252,"Charming 2Br in the middle of LES, SoHo",21644912462,unconfirmed,Joey,Manhattan,Lower East Side,40.72181,-73.98946,United States,US,False,strict,Entire home/apt,2006,$140 ,$28 ,1,36,6/22/2019,6.17,5,1,10,"Since I actually live here for part of the time, the closet space is off limits. Please no shoes in the house!",
23145805,Private Room With Private En-Suite Bathroom,67031141733,verified,Maria,Brooklyn,Bedford-Stuyvesant,40.68587,-73.95221,United States,US,True,strict,Private room,2009,"$1,172 ",$234 ,3,14,6/26/2019,2.46,4,1,9,Please be respectful of the space and building!  No loud noises or extra guests beyond 10pm.,
23146357,Artists Home and Studio in Gramercy Park 2,32762769490,unconfirmed,E. Adam,Manhattan,Gramercy,40.73583,-73.98037,United States,US,True,flexible,Entire home/apt,2006,$525 ,$105 ,3,18,6/21/2019,3.1,2,1,70,,
23146909,Private House next to JFK,34379464170,verified,Victor,Queens,Ozone Park,40.68695,-73.84101,United States,US,False,strict,Entire home/apt,2020,$688 ,$138 ,2,5,6/23/2019,0.99,3,1,344,,
23147461,2 min walk to Times Square!!!,75564748157,verified,Baha,Manhattan,Hell's Kitchen,40.75982,-73.99065999999999,United States,US,False,flexible,Entire home/apt,2017,"$1,032 ",$206 ,4,1,1/3/2019,0.16,2,1,1,Absolutely no parties are permitted. The apartment is in a multi-unit building so guests must be respectful of other tenants in the building.,
23148014,Master Bedroom in Luxury Building,67812940717,verified,Stivan,Brooklyn,Bushwick,40.699329999999996,-73.92886,United States,US,False,flexible,Private room,2006,$893 ,$179 ,1,14,7/5/2019,2.22,3,1,37,"No Smoking on the apartment.  No Ilegal Drugs  No Parties on property. No pets PLEASE TRY  TO BE AS QUIET AS POSSIBLE CONSIDER OTHER NEIGHBORS OR TENANTS. THANK YOU IN ADVANCE!. Reiterating what's below>>> No parties!  No loud noises, please! - realize that there are other guests (and especially residents) like you in the building that may in fact want to get sleep on a regular basis (sometime between the hours of 10pm and 7am, probably!)  During the day, jumping jacks are probably ok. If you have any problems or if neighbors complain call me at (phone number hidden) and mediate over the phone or in person.   Hull st. court apartment rules: 0.  Absolutely NO smoking in the apartment or  building.  Anyhow if you need to, please do go out to Hull street and people watch while smoking. The North end has multiple cigar bars, too! 1.  Most important, please, No Parties = be quiet, use ""indoor voices"" like they taught us in grade school!  Also, keep the stereo at a reasonable level, etc.   I",
23148566,500 sqft Art Deco Empire State and Hudson  views,65923776376,unconfirmed,Michael,Manhattan,Chelsea,40.7411,-73.99669,United States,US,True,strict,Private room,2005,$872 ,$174 ,4,2,5/5/2019,0.76,5,1,365,We expect from you just to respect the basic rules: no smoking and being careful with the house furniture and things.,
23149118,Luxury Union Square Loft (3000 sq ft),13300197124,unconfirmed,Kyle,Manhattan,Chelsea,40.737320000000004,-73.99033,United States,US,False,moderate,Private room,2007,$391 ,$78 ,1,2,3/11/2019,0.32,3,1,0,"Respect my home, space and belongings.  Absolutely no smoking allowed in the unit.   Please respect my neighbors by keeping the noise levels to a minimum, particularly between the hours of 10pm-7am.  Enjoy your stay in Boston, fall in love with my city and make yourself at home!!",
23149671,Designer Artist Loft in Williamsburg,51175161439,unconfirmed,Laura,Brooklyn,Williamsburg,40.70904,-73.94574,United States,US,True,flexible,Entire home/apt,2011,"$1,089 ",$218 ,2,4,6/16/2019,0.63,2,1,0,"No smoking, no loud music after 11pm.",
23150223,"NYC at your fingertips! Shopping, the Arts & more!",35703041846,verified,Kagle,Brooklyn,Fort Greene,40.68674,-73.97618,United States,US,True,strict,Entire home/apt,2019,$154 ,$31 ,3,0,,,5,1,92,"WHEN BOOKING, PLEASE PROVIDE THE FOLLOWING IN YOUR MESSAGE to me:  - 1. Total number of guests (adults, children, babies)? Are there any elderly or children under 18? If so, what are their ages?  - 2. Arrival Date AND Time of Check In? (Check In between 2 pm and 9 pm with some leniency)  - 3. Departure Date (Check out before 12 pm/noon ideally)  - 4. Please tell me a little about yourselves and the purpose of your trip. - 5. What Other Needs or Special Requests or Extra Options (please read below for additional options and possible related additional fees).  ------  PLEASE NOTE THE FOLLOWING BEFORE REQUESTING A BOOKING:  * I will reply as soon as possible to let you know if my apartment will be available for ALL your needs.  - 1. We are happy to host Friendly, Neat, Low-Maintainence Adults & Well-Behaved Children.  ---- All cookware and utensils in the kitchen are at your disposal, but please ask about food before eating as this is my home and I may be saving something. There will be w",
23150775,Modern 1 Bedroom Escape with River Views,93116177894,unconfirmed,Matt,Manhattan,Hell's Kitchen,40.767920000000004,-73.98453,United States,US,False,moderate,Entire home/apt,2008,$263 ,$53 ,1,12,7/2/2019,3.27,3,1,0,,
23151328,JFK Airport Great place to stay 6 minutes away,55191184523,unconfirmed,Lakshmee,Queens,Jamaica,40.66823,-73.78374000000001,United States,US,True,moderate,Shared room,2012,$243 ,$49 ,1,65,7/6/2019,10.0,5,8,346,"Please remember that this is a residential building. The building rules, apartment occupancy restrictions, and the year-round tenants must be respected. There is no smoking allowed in the apartments and significant fees will take place if occurs.",
23151880,Botanical Bedstuy,30205978299,verified,Phi,Brooklyn,Bedford-Stuyvesant,40.68655,-73.92112,United States,US,True,flexible,Entire home/apt,2013,$936 ,$187 ,2,32,7/6/2019,5.16,4,1,57,No Smoking on the apartment.  No illegal  Drugs  No Parties on property. No pets PLEASE TRY  TO BE AS QUIET AS POSSIBLE CONSIDER OTHER NEIGHBORS OR TENANTS. THANK YOU IN ADVANCE!.,
23152432,Home in Hell's Kitchen,98332643847,verified,Reza,Manhattan,Hell's Kitchen,40.76416,-73.98685,United States,US,False,flexible,Private room,2009,$366 ,$73 ,1,1,2/24/2019,0.22,5,1,0,"Please, no smoking, and treat our home like your home.",
23152984,Totally Renovated Plush loft apartment,76621845792,unconfirmed,Hugo,Brooklyn,Cypress Hills,40.68392,-73.8693,United States,US,True,strict,Entire home/apt,2017,$835 ,$167 ,4,7,6/29/2019,2.47,2,1,136,"No smoking or loud parties inside the apartment. As long as you are respectful, and do not cause any damage to the property or make too much noise to disturb me or the neighbors, you will be fine!",
23153537,Huge Private Room w/ Private Bathroom in Flatiron!,9774552164,unconfirmed,Kim,Manhattan,Midtown,40.74329,-73.98340999999999,United States,US,True,flexible,Private room,2009,$754 ,$151 ,3,9,5/26/2019,1.43,4,1,0,"I only accept clean people , reliable, no smokers. no alchool or drug tollerated.",
23154089,Cozy Room 1 in Brooklyn,28399778195,verified,Olabimpe,Brooklyn,Bedford-Stuyvesant,40.69088,-73.92983000000001,United States,US,False,moderate,Private room,2006,$387 ,$77 ,3,11,6/13/2019,2.73,4,4,164,"-  1.Guest(s) agree to NO PARTIES anywhere on the property. Legal action will be taken for parties that cause damages to the unit, property, reputation, or relationship with building staff or other residents.  2.Smoking of any kind is not permitted in the unit or on the premises. Fee for smoking will be 10 times your total reservation cost. For example, your total reservation cost is $350. Fee for smoking on premises will be $3,500. 3.Guests agree to abide by maximum occupancy of unit, and observe quiet hours between 9pm and 9am  4.Guests are responsible for action of ALL GUESTS occupying their unit at all times.  5.Guests agree to return all keys, remotes. Replacement fees may apply for unreturned items  6.Guests understand that onsite building staff (maintenance and concierge) are not affiliated with AIRBNB. Please contact me directly for any needed items.  7.Guests understand that no pets are to be in the unit.  8.Guests agree to pay replacement cost for any unreturned items, and $12",
23154641,Cozy Modern Getaway 30 mins from Manhattan (1Bdrm),11280511159,unconfirmed,Beverline,Bronx,East Morrisania,40.8296,-73.88971,United States,US,False,moderate,Private room,2022,$842 ,$168 ,1,9,3/25/2019,1.46,2,3,80,Guests only have access to the first floor bedroom and bathroom.  The rest of the house is off limits.  Guests who stay a week or more may use the laundry in the basement for free.  Please do not apply hair or beard dye in the bathroom as it was recently renovated.  Please feel free to send me any special requests and I will try to honor them.,
23155194,A Girls Only Charming living room!!,51699263302,unconfirmed,Vicky,Brooklyn,Kensington,40.63981,-73.97165,United States,US,True,flexible,Shared room,2004,$735 ,$147 ,1,2,5/31/2019,0.6,5,2,22,"This apartment is in a 3 families residential building, there is a no smoking and no drug policy, and the occupants should be concerned with common courtesy and no noises after 9.30-10 pm. No parties are allowed.  We will meet you when you arrive at the building with the keys and will explain anything else you might like to know.  We look forward to meeting you.   ",
23155746,"Massive Manhattan Private Room,15 mins to Times Sq",51303968581,unconfirmed,Nichole,Manhattan,Harlem,40.80696,-73.94931,United States,US,True,moderate,Private room,2020,$950 ,$190 ,6,9,6/3/2019,1.42,2,2,0,,
23156298,"Studio apartment between NYC, JFK and LGA airports",63392179941,verified,Maor,Queens,Kew Gardens Hills,40.72927,-73.82469,United States,US,True,strict,Entire home/apt,2010,$728 ,$146 ,3,8,6/2/2019,1.33,3,1,0,"The usual: no smoking, no parties, no pets (sadly)! Please remove shoes upon entering the apartment, and be mindful of neighbors. It's a quiet building at any hour of the day, so do try to preserve the status quo. Thank you!",
23156851,ONE OF A KIND: HUGE BEAUTIFUL LOFT,34569954645,unconfirmed,Francis,Brooklyn,Bedford-Stuyvesant,40.69232,-73.9534,United States,US,True,strict,Entire home/apt,2022,"$1,178 ",$236 ,5,1,4/25/2019,0.4,5,1,0,,
23157403,Cozy Room 3 in Brooklyn,70943351197,verified,Olabimpe,Brooklyn,Bedford-Stuyvesant,40.68931,-73.93131,United States,US,False,moderate,Private room,2020,$834 ,$167 ,3,9,6/3/2019,1.79,4,4,126,As if it were your own home!,
23157955,1000 Sq Ft HUGE apartment with Empire State views.,21227792202,unconfirmed,Josh,Manhattan,Kips Bay,40.74061,-73.98063,United States,US,True,strict,Entire home/apt,2021,$376 ,$75 ,1,2,3/4/2019,0.32,4,1,89,,
23158507,Prime East Village location! 2 bed/1 bath,36431568212,unconfirmed,Todd,Manhattan,East Village,40.72685,-73.9837,United States,US,False,moderate,Entire home/apt,2021,$119 ,$24 ,3,13,6/23/2019,2.32,4,1,212,#NAME?,
23159060,Spacious North Williamsburg 1 Bedroom w/ Yard,94553644324,verified,Gabe,Brooklyn,Williamsburg,40.7208,-73.96021999999999,United States,US,True,strict,Entire home/apt,2021,$343 ,$69 ,7,0,,,5,1,249,#NAME?,
23159612,Awesome Apartment in Lower East Side,3694270518,unconfirmed,Shawn,Manhattan,Lower East Side,40.71327,-73.99019,United States,US,False,flexible,Private room,2017,$936 ,$187 ,30,0,,,4,1,0,No smoking and no parties,
23160164,Luxurious Boutique Studio Red Hook Brooklyn,58792644756,unconfirmed,Tom,Brooklyn,Red Hook,40.677459999999996,-74.01392,United States,US,False,flexible,Entire home/apt,2004,$655 ,$131 ,1,29,6/28/2019,4.97,3,2,273,"There are still some older people in this neighborhood and it should go without saying it is important to have respect for the locals.  No smoking, & no parties!",
23160717,Pvt Single Room Occupancy Near JFK 6 mi/LGA 10 mi,31413369425,unconfirmed,Kafayat,Queens,St. Albans,40.70541,-73.75036999999999,United States,US,False,flexible,Private room,2003,"$1,058 ",$212 ,2,7,4/30/2019,1.1,5,4,6,"Absolutely, No Smoking, No parties.",
23161269,Pvt Room for Two Near JFK 6 mi/ LGA 10 mi- Olive,74061000027,verified,Kafayat,Queens,Queens Village,40.70533,-73.7485,United States,US,True,flexible,Private room,2021,"$1,140 ",$228 ,2,13,4/27/2019,2.06,3,4,6,No pets and no smoking. Please place all of your dishes in the dishwasher.,
23161821,"Bright, Luxury Executive Studio",23738415357,verified,Sean,Manhattan,Hell's Kitchen,40.761559999999996,-73.99342,United States,US,True,strict,Entire home/apt,2009,$86 ,$17 ,45,1,5/7/2019,0.48,5,1,56,,
23162374,3 bedroom apartment for your perfect stay,29709855272,verified,Sammy,Brooklyn,Midwood,40.62532,-73.96285999999999,United States,US,True,flexible,Entire home/apt,2021,$304 ,$61 ,3,0,,,3,1,101,No pets  No smoking  No loud partying in the space,
23162926,Historic District Brownstone 35 min from Midtown,12318839490,unconfirmed,Eric,Brooklyn,Crown Heights,40.67317,-73.94104,United States,US,True,strict,Private room,2004,$324 ,$65 ,2,14,7/4/2019,2.68,4,2,78,"PLEASE  NOTE: • 6.25% MA State Sales Tax is already incorporated into the room rate and extra guest fees. • The total listed as the cleaning fee is comprised of a $119 cleaning fee and a $39 damage protection plan which provides $3,000 worth of coverage for accidental damage to the property during the stay. There is no smoking allowed in the boat. Use of illegal substances will be cause for immediate termination of the rental and reported to the police. All pets must be on a leash when outside the boat.  Quiet hours are between 9:30pm and 8am.  Noise must be kept to a minimum during this time period.",
23163478,Watson’s Loft,46415657093,unconfirmed,Brandon,Queens,Forest Hills,40.72186,-73.85601,United States,US,False,flexible,Private room,2004,"$1,004 ",$201 ,1,4,6/23/2019,0.65,2,1,134,,
23164030,Brooklyn Retreat,9516074067,unconfirmed,Winston,Brooklyn,East Flatbush,40.65546,-73.92031,United States,US,True,flexible,Entire home/apt,2010,"$1,161 ",$232 ,2,12,4/14/2019,1.95,3,1,352,"Please Note: This unit was just renovated in August 2015 and it comfortably accommodates one to three guests, but up to 4 guests are permitted if you so desire (two guests in the bedroom, 1 guest on the available twin air mattress and 1 guest on the couch). Please request an air mattress (if needed) when making a reservation. No smoking, no pets, no parties, and must be 25 years old to book.   For check-out, please ensure: -  All plates and cups are left in the sink or dishwasher -  All trash is left in the kitchen trash can or bagged and left next to the trash can (additional bags are under the sink) -  All windows are closed and locked -  If used, the air mattresses are deflated and put away (please leave used linens for the air mattresses on the floor) -  If furniture was moved during your stay, please return to its original location Please be mindful to our neighbors in the building; quiet hours after 10pm. Please be considerate of our next guests who will be staying after you, if ",
23164583,Purple Palace,34092087520,verified,Emily,Brooklyn,Bushwick,40.69388,-73.92974,United States,US,False,moderate,Private room,2010,$922 ,$184 ,1,13,5/4/2019,2.15,2,1,89,"Although we understand the wear and tear that little ones make, we expect that all messes will be cleaned up as they happen and you will be respectful of the neighbors.",
23165135,Nice Private Room w/ 2 Beds,21204826458,unconfirmed,Mayra,Manhattan,Washington Heights,40.834140000000005,-73.9438,United States,US,False,flexible,Private room,2018,$762 ,$152 ,3,10,7/5/2019,3.0,2,1,39,"I own a dog, but she will not be present for your stay.",
23165687,Luxury Apartment with Statue of Liberty view,44503948053,verified,Mina,Manhattan,Battery Park City,40.7077,-74.01555,United States,US,False,flexible,Entire home/apt,2009,$591 ,$118 ,1,3,5/17/2019,0.76,4,1,363,"This is our home, so please treat it kindly and respect our personal property.",
23166240,Empire State Building Views in Luxury 1 Bedroom,20474721584,verified,Emma,Manhattan,Midtown,40.75334,-73.98719,United States,US,False,moderate,Entire home/apt,2019,$63 ,$13 ,2,4,6/10/2019,1.12,3,1,0,,
