id,NAME,host id,host_identity_verified,host name,neighbourhood group,neighbourhood,lat,long,country,country code,instant_bookable,cancellation_policy,room type,Construction year,price,service fee,minimum nights,number of reviews,last review,reviews per month,review rate number,calculated host listings count,availability 365,house_rules,license
6800486,Modern Condo in Heart of Harlem,13729419102,unconfirmed,Fma,Manhattan,Harlem,40.80025,-73.95519,United States,US,True,strict,Entire home/apt,2006,$191 ,$38 ,3,32,5/9/2017,0.7,3,2,415,"100% no smoking in the condo itself or in the building. This is a non-smoking building. No pets, no parties of more than four, and no additional overnight guests unless as agreed. Please be respectful of our neighbors and keep the noise low at night.",
6801038,1BR in Prime spot Cozy Stylish Williamsburg Apt,39086175248,unconfirmed,Roman,Brooklyn,Williamsburg,40.71278,-73.96471,United States,US,False,flexible,Private room,2006,$833 ,$167 ,3,7,5/18/2018,0.15,2,1,118,"When you arrive, my place will be clean, neat, organized & very cozy. All I ask is you leave it the same way upon departing.  Also check out time is 11am & check-in time is 4pm. For those arriving, you may check in early & leave your bags / luggage. I will just need to finish cleaning / setting the place up for you just so before handing the place to you. For those departing: 11am check-out time is strict although you may leave your bags / luggage in the apt if you are doing any last minute sight seeing / activities. Otherwise, enjoy the Allston / Boston area,  a great little neighborhood / city combination.",
6801591,Private Sunlight Room in Brownstone Near Subway,15947522406,unconfirmed,Brady,Brooklyn,Bedford-Stuyvesant,40.68929,-73.93079,United States,US,False,strict,Private room,2008,$918 ,$184 ,1,296,6/27/2019,6.37,2,7,304,,
6802143,Private Spring Room in Brownstone Near Subway,58104810904,unconfirmed,Brady,Brooklyn,Bedford-Stuyvesant,40.689170000000004,-73.92900999999999,United States,US,False,flexible,Private room,2008,$853 ,$171 ,1,291,7/1/2019,6.23,1,7,250,,
6802695,Private Autumn Room in Brownstone Near Subway,78187441609,verified,Brady,Brooklyn,Bedford-Stuyvesant,40.69003,-73.93085,United States,US,False,moderate,Private room,2018,$272 ,$54 ,1,284,6/9/2019,6.09,2,7,331,You will see a piece of paper on my kitchen table about my house rules.  No parties please :),
6803248,"SPACIOUS APT, A/C, WIFI, SUBWAY!",34811629697,verified,Vinny,Manhattan,Washington Heights,40.852959999999996,-73.93526999999999,United States,US,True,flexible,Entire home/apt,2020,$907 ,$181 ,7,27,7/4/2019,0.78,5,1,219,1) No Smoking in property!!!  2) Do not slam doors!!! Close lightly Please!!! 3) No Shoes in house (except slippers) 4) Quiet down AFTER 10PM.,
6803800,Private Garden View in Brownstone Near Subway,43522187576,verified,Brady,Brooklyn,Bedford-Stuyvesant,40.690220000000004,-73.93077,United States,US,True,strict,Private room,2007,"$1,006 ",$201 ,1,291,6/29/2019,6.26,5,7,251,,
6804352,Classic Elegance in Brownstone Near Subway,70646005754,unconfirmed,Brady,Brooklyn,Bedford-Stuyvesant,40.68927,-73.93035,United States,US,False,flexible,Private room,2022,"$1,065 ",$213 ,1,327,7/2/2019,7.07,4,7,422,,
6804904,Private Bedroom and Bath in Spacious Duplex,48099042044,unconfirmed,Seth,Brooklyn,Bushwick,40.69702,-73.93167,United States,US,False,flexible,Private room,2013,$632 ,$126 ,2,67,6/29/2019,1.45,3,2,315,,
6805457,Large Bedroom & Private Bath – 15 min fr Manhattan,47533448473,unconfirmed,Amelie & Pascal,Brooklyn,Clinton Hill,40.68352,-73.96348,United States,US,False,strict,Private room,2005,$785 ,$157 ,4,115,6/10/2019,2.47,1,1,162,,
6806009,Private Bedroom in Quiet Brooklyn Neighborhood,44129433641,verified,Joe,Brooklyn,Bushwick,40.7052,-73.91549,United States,US,True,moderate,Private room,2020,"$1,151 ",$230 ,1,107,6/9/2019,3.04,1,1,195,,
6806561,"True Bed-Stuy, Brooklyn, New York",20139589589,unconfirmed,Brigitte,Brooklyn,Bedford-Stuyvesant,40.691320000000005,-73.93866,United States,US,False,moderate,Entire home/apt,2018,$906 ,$181 ,2,81,7/27/2017,1.94,1,1,200,"- Non-smoker only - Cologne/perfumed sprays not allowed - Cat in the house - Do not share mailing address with anyone, and if you do it, you will pay $200 - Please take off street shoes and place them on the rack - Slippers can be provided but please bring your own if you can - Recycle all trash, we will help you to understand it - Food may not be left in your room - No eating in bed - No disturbance: please walk slowly when using stairs and very softly close all doors",
6807114,"Spacious 2 br in Williamsburg, BK",45920631201,unconfirmed,Sue,Brooklyn,Williamsburg,40.71549,-73.94712,United States,US,True,strict,Entire home/apt,2009,$658 ,$132 ,31,8,5/31/2018,0.17,5,1,24,#NAME?,
6807666,Light-filled Brooklyn duplex loft,48590574337,unconfirmed,Rory,Brooklyn,Clinton Hill,40.6854,-73.96741,United States,US,False,moderate,Entire home/apt,2014,$827 ,$165 ,7,0,,,3,1,348,No smoking and no party allowed. We don't want the neighbor to complain.,
6808218,Bright & quiet West Village studio,26407123298,unconfirmed,Irene,Manhattan,West Village,40.7354,-74.00861,United States,US,False,flexible,Entire home/apt,2007,$654 ,$131 ,2,10,1/1/2019,0.22,4,1,86,,
6808771,Large Room Next to Central Park,74302885353,unconfirmed,Tyson,Manhattan,Upper West Side,40.80115,-73.96043,United States,US,False,strict,Private room,2014,$403 ,$81 ,1,0,,,1,1,310,"No smoking inside the house.  No loud parties or disturbing the peace or public nuisance allowed. This is a strictly residential rental NOT commercial.  If holding parties you must first seek owner's permission before inviting anyone other than immediate family.   This is a peaceful family neighborhood and I like to keep it that way.  Clean after yourself, clean the stove and oven and all the appliances.  Leave everything exactly in the condition it is in when you first arrived.  Treat this house as if it is your own with the proper respect and courtesy.  No pets allowed.  Check in is 4PM, Check out 10AM.  On Check out date please leave all the dirty sheets, towels, linens by the washer for the maid.  Please leave the outside trash container for the garbage truck on the night before it arrives.",
6809323,Share A Rustic Forte Greene studio w/ adorable cat,3306020861,verified,Stephanie,Brooklyn,Clinton Hill,40.68667,-73.9676,United States,US,False,moderate,Entire home/apt,2022,$168 ,$34 ,2,15,5/19/2019,0.39,5,2,260,"Non-smoker, no smoking in/out of home No cologne/perfume/sprays. Scent-free house Microwave for light use (not cooking) Respect quiet environment No visitors at any time, one room per person Remove outdoor shoes by the entrance inside, slippers available if you need Ask permission before giving this address to anyone Mailing address may only be used only for personal post (family, friends) No bank, no school, no memberships of any kind, no subscriptions If you break this rule, first charge is $200, and after that,  Each commercial letter that arrives after you depart will be charged $5 life time",
6809875,Private room with queen size bed.,43030919218,unconfirmed,Frank,Brooklyn,Prospect-Lefferts Gardens,40.65603,-73.95798,United States,US,True,flexible,Private room,2007,"$1,135 ",$227 ,2,9,9/11/2016,0.2,1,1,225,,
6810427,Rm @Top Floor of a Luxury Building!,52511873958,verified,Yegor,Brooklyn,Bushwick,40.69955,-73.92225,United States,US,False,flexible,Private room,2022,$172 ,$34 ,3,0,,,4,1,161,,
6810980,Cozy One Bedroom-Lower East Side,19982125588,unconfirmed,Matthew,Manhattan,Lower East Side,40.71373,-73.98465,United States,US,True,flexible,Entire home/apt,2015,"$1,147 ",$229 ,3,16,11/5/2018,0.34,4,1,60,1) No Smoking in property!!!  2) Do not slam doors!!! Close lightly Please!!! 3) No Shoes in house (except slippers) 4) Quiet down AFTER 10PM.,
6811532,Big Bedroom with Private Bathroom,18475671480,verified,Evy,Brooklyn,Williamsburg,40.7079,-73.95598000000001,United States,US,True,strict,Private room,2013,"$1,005 ",$201 ,2,86,6/27/2019,1.9,1,2,421,,
6812084,Clinton Hill Flat,88349398583,verified,John,Brooklyn,Clinton Hill,40.69242,-73.96828000000001,United States,US,True,moderate,Entire home/apt,2013,$142 ,$28 ,2,141,4/28/2019,3.04,4,2,415,,
6812637,Spacious Apt w/ Balcony in Bushwick,47884737905,verified,Scott,Brooklyn,Bushwick,40.69715,-73.92865,United States,US,False,moderate,Entire home/apt,2007,$150 ,$30 ,25,2,11/1/2015,0.04,4,1,225,#NAME?,
6813189,Brooklyn Jeff L Huge Room and yard!,98311833724,unconfirmed,Edward,Brooklyn,Bushwick,40.70343,-73.92538,United States,US,False,moderate,Private room,2017,"$1,081 ",$216 ,10,1,9/16/2015,0.02,1,1,92,,
6813741,Room avail in Bowery neighborhood,11721112813,verified,Josh,Manhattan,Chinatown,40.71743,-73.99372,United States,US,False,moderate,Private room,2017,"$1,143 ",$229 ,6,72,6/16/2019,1.57,2,2,152,,
6814294,Lovely duplex in Williamsburg,11708987590,unconfirmed,Louise,Brooklyn,Williamsburg,40.70803,-73.94868000000001,United States,US,True,flexible,Private room,2013,$77 ,$15 ,3,2,10/11/2015,0.04,1,1,50,,
6814846,Historic Townhouse Apartment,86567004476,unconfirmed,Timur,Manhattan,SoHo,40.727309999999996,-74.00471999999999,United States,US,False,strict,Entire home/apt,2014,$601 ,$120 ,3,74,7/5/2019,1.6,4,1,352,,
6815398,❤️ Beautiful Artistic 2 Level Brownstone ❤️LEGAL❤️,12924070722,unconfirmed,Sarah,Brooklyn,Bedford-Stuyvesant,40.684,-73.93226999999999,United States,US,False,flexible,Entire home/apt,2012,$930 ,$186 ,3,60,6/3/2019,1.29,1,3,188,,
6815950,One floor kitchen and living room,29002857915,unconfirmed,Garvin,Brooklyn,East Flatbush,40.63774,-73.93714,United States,US,False,strict,Private room,2004,$410 ,$82 ,1,0,,,3,1,342,,
6816503,The Manhattan Studio,49888891153,verified,Henri,Manhattan,Midtown,40.75513,-73.96446,United States,US,True,flexible,Entire home/apt,2006,"$1,158 ",$232 ,4,20,7/2/2019,1.46,2,1,166,,
6817055,"Cozy room, great area, near train",80388937216,verified,Rachel,Brooklyn,Williamsburg,40.71982,-73.94409,United States,US,False,strict,Private room,2008,$954 ,$191 ,7,2,8/7/2016,0.04,1,1,59,"Check in 3pm Check out 12pm (Flexible upon requests.) No smoking, No drug, No party in the house. I don't guarantee parking lot. Sorry",
6817607,Upscale Studio Apt in NYC'S Theatre District!,36144700090,verified,Kara,Manhattan,Theater District,40.76145,-73.98555999999999,United States,US,False,flexible,Entire home/apt,2014,$719 ,$144 ,30,0,,,5,121,399,,
6818160,Lavish Studio with Great Amenities in FiDi,51763279977,unconfirmed,Kara,Manhattan,Financial District,40.7055,-74.00811999999999,United States,US,True,flexible,Entire home/apt,2017,$580 ,$116 ,30,4,1/28/2019,0.11,4,121,46,Please do not smoke and be respectful of other guests.,
6818712,2 bedroom Home..2 metro/train stops to NY City,6652779516,unconfirmed,Alexandra,Queens,Long Island City,40.756440000000005,-73.93486,United States,US,False,moderate,Entire home/apt,2017,$402 ,$80 ,3,121,7/2/2019,2.59,1,1,117,,
6819264,"Private room in bright, clean home!",69402423870,unconfirmed,Marie,Manhattan,Harlem,40.80557,-73.94618,United States,US,True,moderate,Private room,2014,"$1,189 ",$238 ,4,14,1/1/2018,0.3,3,2,67,,
6819817,UES Studio Crash Pad,52531516133,verified,Zac,Manhattan,Upper East Side,40.7795,-73.94778000000001,United States,US,True,strict,Entire home/apt,2011,$51 ,$10 ,7,0,,,2,1,-6,"Please treat my place as your own. Turn off the lights, AC, fan, etc when you leave the apartment, and wash any kitchenware and dishes that you've used. Put used towels on the floor, so that I now they've been used.",
6820369,Private Bedroom In Refurbished Apt!,20953302219,verified,Ryan,Brooklyn,Bushwick,40.70111,-73.92935,United States,US,True,strict,Private room,2017,"$1,107 ",$221 ,1,1,9/8/2015,0.02,2,1,202,,
6820921,*COMFORTABLE  bedroom for FEMALE*,51552403393,unconfirmed,Yudu,Manhattan,East Harlem,40.79985,-73.93836,United States,US,True,moderate,Shared room,2006,"$1,159 ",$232 ,120,0,,,5,1,3,"- Non-smoker - No perfume/cologne use - Microwave for light use, not cooking - Very light and fast food prep - Mailing address not to be shared with anyone but family and friends - Take is seriously: If  any of yours not personal mail comes to this mail box, you will be charged $200 and $5 for each letter after that indefinitely - Guest agrees not to write reviews for areas not on amenities list",
6821473,Nicely furnished one bedroom apt,94831926998,unconfirmed,Ersellia,Brooklyn,Greenpoint,40.72218,-73.93894,United States,US,True,flexible,Entire home/apt,2008,$254 ,$51 ,4,18,7/4/2019,0.39,4,1,262,No smoking. Please respect our neighbors.,
6822026,"HUGE Master Suite + Private bath, up to 4 Guests!",74353420930,verified,Natalie,Brooklyn,Bushwick,40.69542,-73.93258,United States,US,False,flexible,Private room,2018,$436 ,$87 ,2,5,11/18/2018,0.11,5,3,21,#NAME?,
6822578,Beautiful Upper East 1 Bedroom,50932202813,verified,Chris,Manhattan,Upper East Side,40.77343,-73.95651,United States,US,False,moderate,Entire home/apt,2006,$577 ,$115 ,1,1,8/31/2015,0.02,1,1,332,,
6823130,[201] 5 min WALK to Times Square,61312631035,unconfirmed,Yasu & Akiko,Manhattan,Hell's Kitchen,40.759890000000006,-73.98899999999999,United States,US,True,strict,Shared room,2019,$205 ,$41 ,1,134,6/7/2019,2.88,2,11,188,Let's talk to get to know each other !,
6823683,Cozy bed in Midtown,88860321100,unconfirmed,Phuong,Manhattan,Midtown,40.74475,-73.98512,United States,US,False,strict,Shared room,2021,$998 ,$200 ,5,32,6/22/2019,0.69,2,3,285,Female first please. Please keep the space quiet and clean.,
6824235,Upper east side townhouse apt 2,76156270594,verified,Anita,Manhattan,Upper East Side,40.76511,-73.96555,United States,US,True,moderate,Entire home/apt,2017,"$1,078 ",$216 ,30,9,12/1/2018,0.2,3,1,407,"Non-smokers, no smoking in or out of home No perfume/cologne use, no other sprays  Deodorant/antiperspirant is OK but not sprays  Recycling, reusable shopping bags No mailing address sharing: first offense $200, and $5 per letter after that LIFE TIME Please don't use ""single use disposable"" plastic bags Mailing address MAY NOT be shared with anyone accept delivery. Reusable foldeable shopping bag (provided, and you may take it with you) Plates, cup, utensils are only in space between refrigerator and sink Please don't keep dirty dishes in your room, but if you must, tide them in plastic bag (green kind, find in bathroom basket) Please keep your room at least reasonably tidy Host may enter the room to collect the trash or fix things if needed All your things are safe in your room Take off street shoes when indoor Washed slippers provided if you don't have your own  Please be respectful, considered, and aware what is left behind you when you are in common areas, and how it will impact th",
6824787,"Modern studio in Queens, NY",29856395612,unconfirmed,Alex,Queens,Sunnyside,40.74674,-73.91881,United States,US,False,moderate,Entire home/apt,2015,"$1,025 ",$205 ,3,0,,,4,1,330,"This is an old house which was built in the 1900s, and may not be sparkingly clean and modern, but we appreciate it if you can clean after yourself, and put things back to where they belong. Garbage day is on Friday, you can simply put your trash into the dumpster and we'll take care of the rest. Please be respectful to other tenants on the second floor. Thank you.",
6825340,Giant Sunny Room at Brooklyn&Breakfast,42105902830,verified,Brooklyn&   Breakfast    -Len-,Brooklyn,Prospect Heights,40.67811,-73.97126,United States,US,True,flexible,Private room,2013,$231 ,$46 ,1,222,6/27/2019,4.98,4,13,144,,
6825892,Beautiful Apt on the UpperWest,36558421010,unconfirmed,Jenn,Manhattan,Upper West Side,40.794940000000004,-73.97221,United States,US,False,strict,Entire home/apt,2006,$242 ,$48 ,1,2,1/6/2016,0.04,4,1,93,1) No Smoking in property!!!  2) Do not slam doors!!! Close lightly Please!!! 3) No Shoes in house (except slippers) 4) Quiet down AFTER 10PM.,
6826444,Cozy Studio Apartment,60910408549,verified,Yessenia,Brooklyn,South Slope,40.66594,-73.98814,United States,US,False,strict,Entire home/apt,2022,$437 ,$87 ,2,10,6/19/2016,0.22,3,1,400,House rules will be provided upon booking.,
6826996,Spacious & sunny 1 bdrm w views,32110742846,unconfirmed,Natasha,Brooklyn,Columbia St,40.68274,-74.00433000000001,United States,US,False,flexible,Entire home/apt,2018,$703 ,$141 ,2,2,9/28/2015,0.04,2,1,398,Respectful of the apartment,
6827549,"Charming, Exposed Brick 1 Bedroom",45663899564,unconfirmed,Megan,Brooklyn,Fort Greene,40.68886,-73.97686999999999,United States,US,False,strict,Entire home/apt,2013,$891 ,$178 ,3,3,12/1/2015,0.06,3,1,237,"Please treat it like your own place and leave it the way you found it! Please clean up prior to leaving.  No smoking indoors, no late night parties.",
6828101,Charming UWS Private Room,22004065906,unconfirmed,Nadalie,Manhattan,Upper West Side,40.78856,-73.97368,United States,US,False,strict,Private room,2014,$173 ,$35 ,1,1,6/4/2017,0.04,4,1,33,#NAME?,
6828653,Charming duplex downtown manhattan,29415192136,verified,Filippo,Manhattan,Chinatown,40.71475,-73.99257,United States,US,True,strict,Entire home/apt,2012,$996 ,$199 ,180,15,10/24/2016,0.35,4,1,59,"-Our one golden rule is: Please treat our space with respect (i.e. Clean up after yourself, be sure to lock the door when you leave, etc.)  -Absolutely NO SMOKING!!!! -We are fun-loving people, so we dont mind you having some friends over, but the above rule applies twofold in that scenario. -You're welcome to use dishes, appliances, etc in the kitchen, but we ask that you buy your own food/drinks rather than use ours. -No pets allowed (not our rule, our landlord's) -Upon checkout, please turn A/C units and lights off before leaving. -Feel free to ask us about the area-- we know it well and love to recommend!",
6829206,Here comes the sun!,70229125691,unconfirmed,Vishnu,Brooklyn,Gowanus,40.68334,-73.9847,United States,US,True,strict,Private room,2010,"$1,133 ",$227 ,7,1,10/3/2015,0.02,5,1,339,"Please note that we are a no smoking environment, and pets are only accepted in certain room types that have direct access to the outside. Please call ahead to make arrangements.",
6829758,Beautiful 1 bedroom in city center,95889049049,unconfirmed,Gia,Manhattan,Midtown,40.75932,-73.96396,United States,US,False,strict,Entire home/apt,2014,"$1,154 ",$231 ,2,2,1/7/2016,0.04,2,1,352,"Please note that we are a no smoking environment, and pets are only accepted in certain room types that have direct access to the outside. Please call ahead to make arrangements. ",
6830310,BRIGHT HARLEM FLOOR THRU,74030939252,unconfirmed,Mel,Manhattan,Harlem,40.81525,-73.94552,United States,US,True,flexible,Entire home/apt,2020,$691 ,$138 ,7,86,6/28/2019,1.84,2,3,8,"1.  No loud music. 2. No parties. 3. No removal of items from the apartment unless expressly allowed by the host. 4.  Security deposit shall be claimed in the event of the following:   a. Damaged or soiled sheets, to the extent that they require replacement     b. Theft of items kept on and about the premises.    c. Unreturned keys.    d. Damage to the apartment or any part or item within and without the premises.    e. The presence of pets in the apartment, due to intent or negligence on the part of the guest and their party.    d. The presence of illicit or illegal substances, or illicit or illegal activities, on or about the premises",
6830863,Cosy clean modern apartment,56616407288,unconfirmed,Pon,Manhattan,Gramercy,40.73284,-73.98510999999999,United States,US,True,strict,Entire home/apt,2006,$574 ,$115 ,2,1,9/13/2015,0.02,4,1,9,,
6831415,Large Private Room in Williamsburg,21337850230,unconfirmed,Marie,Brooklyn,Williamsburg,40.710609999999996,-73.94971,United States,US,True,strict,Private room,2015,$695 ,$139 ,1,40,10/1/2018,0.87,3,1,50,,
6831967,"home, sweet home :-)  English, русский,  עברית",7350666915,unconfirmed,Irisha,Queens,Fresh Meadows,40.742670000000004,-73.78737,United States,US,True,flexible,Entire home/apt,2009,$972 ,$194 ,1,59,6/9/2019,1.58,5,3,161,"Please note that we are a no smoking environment, and pets are only accepted in certain room types that have direct access to the outside. Please call ahead to make arrangements. ",
6832519,Spacious 1 bedroom in East Village,25061066955,verified,Katie,Manhattan,East Village,40.72873,-73.98399,United States,US,True,flexible,Entire home/apt,2005,$689 ,$138 ,2,2,9/27/2015,0.04,1,1,340,,
6833072,Huge 1 BR entire apt,8814289748,unconfirmed,Cory,Queens,Astoria,40.768,-73.92429,United States,US,False,moderate,Entire home/apt,2016,$935 ,$187 ,2,13,1/11/2019,0.28,5,1,355,"- Please keep the house exactly like you found it. Please don't leave a mess. Please don't leave things dirty. - If you use the bathroom, clean or wipe things down (there will be a cloth to wipe off excess water, etc.) - If you use the kitchen, please clean dishes and wipe things down as well - No guest allowed - you can meet friends at other venues - Shoes off in the apartment - please leave by the door. If you would like please bring some slippers. - Please keep things quiet after 10pm - If you smoke, you must go outside! NO smoking inside! - If you cook, turn the fan on above the stove - If you watch TV, turn it off when you are done. - Please use your common sense, and if you are not sure, ask... - Remember, this is my house - so try to treat it with respect. - if the parking pass is not returned, you will be charged the full amount of the deposit",
6833624,Room in heart of Williamsburg,78603638671,verified,Amandine,Brooklyn,Williamsburg,40.7151,-73.96037,United States,US,True,strict,Private room,2021,$363 ,$73 ,1,2,11/29/2015,0.04,4,1,149,"Please treat my place as your own. Turn off the lights, AC, fan, etc when you leave the apartment, and wash any kitchenware and dishes that you've used. Put used towels on the floor, so that I now they've been used.",
6834176,Sunny Duplex in Heart of Bushwick,63005125310,unconfirmed,Alexandra,Brooklyn,Bushwick,40.7027,-73.92811,United States,US,False,strict,Entire home/apt,2003,$134 ,$27 ,1,2,10/26/2015,0.04,3,1,46,- Please be respectful and polite to neighbors. There are downstairs tenants so please don't be noisy after 11pm. - Please turn off any lights and adjust down the thermostat to 55 before you depart or please turn off the AC window units/fans - Return keys to lockbox at end of stay. (There is a fee of $50 for each set of lost keys) - No animals - No smoking in the house (there is a backyard area) - Check in is at 4:00 pm (message for special requests) - Check out is at 12 noon,
6834729,Cozy Private Bedroom in heart of Williamsburg,58459221981,verified,Sarah,Brooklyn,Williamsburg,40.7105,-73.94693000000001,United States,US,False,strict,Private room,2008,$125 ,$25 ,1,3,7/29/2016,0.08,4,1,35,,
6835281,Private Room close to subway (1/3),59094939529,unconfirmed,Esteban,Queens,Jackson Heights,40.75526,-73.86468,United States,US,False,strict,Private room,2019,$654 ,$131 ,1,114,6/17/2019,2.45,1,3,400,"House Rules 1. Check-in is 4 pm local time. If the unit is ready earlier, we’ll let you know. Check-out is normally 11 am local time, but we’d be happy to extend it as long as we don’t have a cleaning scheduled. Just let us know.  2. All bookings require a security deposit of at least $300, which will be refunded within 7 days of your check-out. 3. For security measures we require all guests to provide proof of identification through ID verification on our own website. In order to check in we'll need a photo of your ID.  4. Our cancellation policy is as shown on our ad and defined by the site you are booking through.  5. Don’t let $300 go up in smoke. There's no smoking allowed in any Flatbook and a $300 fine for breaking this rule.  6. Unfortunately we don’t allow pets in any of our apartments. 7. Unless you’re staying in one of our specialty apartments, we don’t allow parties or excessive noise. 8. If we find the place very messy, we have to charge an extra $40 for every extra hour o",
6835833,Private Room close to subway (2/3),74702752012,unconfirmed,Esteban,Queens,Jackson Heights,40.75548,-73.86632,United States,US,True,flexible,Private room,2013,"$1,096 ",$219 ,1,102,6/23/2019,2.21,2,3,38,,
6836386,Location Dali ( rail road room ) only girls.,13373334985,unconfirmed,Petya,Queens,Long Island City,40.75547,-73.91866999999999,United States,US,True,flexible,Private room,2017,$560 ,$112 ,15,12,6/12/2019,0.26,4,18,207,"Please expect to share the apartment with guests having various backgrounds. Be respectful and decent, also enjoy interacting with each other. Please dress descent in the house especially in and out of the shower.",
6836938,Luxury Highline living West Chelsea Hudson Yards,59177724248,unconfirmed,Jennifer,Manhattan,Chelsea,40.75165,-74.00074000000001,United States,US,False,flexible,Entire home/apt,2003,$116 ,$23 ,29,9,12/30/2018,0.24,1,1,64,,
6837490,Comfy Quiet Modern E Village Studio,83741355561,unconfirmed,Ari,Manhattan,East Village,40.7281,-73.98106,United States,US,True,moderate,Entire home/apt,2014,$434 ,$87 ,31,2,11/26/2015,0.04,1,1,127,,
6838042,Bed-Stuy Brooklyn Garden Apartment,17476211606,unconfirmed,Gregory,Brooklyn,Bedford-Stuyvesant,40.68285,-73.93961,United States,US,False,moderate,Entire home/apt,2016,$913 ,$183 ,3,92,6/19/2019,1.97,2,2,309,,
6838595,Charming Studio by Bryant Park,68256501156,unconfirmed,Elaine,Manhattan,Midtown,40.75245,-73.98442,United States,US,False,moderate,Entire home/apt,2013,$378 ,$76 ,1,3,4/20/2016,0.07,4,1,56,,
6839147,Private Room In Upper East Side,94796196774,unconfirmed,Dogan,Manhattan,Upper East Side,40.77887,-73.95406,United States,US,False,strict,Private room,2013,$765 ,$153 ,4,81,5/27/2019,1.75,2,1,302,,
6839699,New / Priv Deck / Cntrl Park  (UES),15689111939,verified,Craig,Manhattan,Upper East Side,40.76777,-73.96393,United States,US,False,moderate,Entire home/apt,2007,$463 ,$93 ,7,0,,,4,1,167,#NAME?,
6840252,Amazing Water View from Midtown Apt,89303108350,verified,Jacob,Manhattan,Murray Hill,40.74553,-73.97301999999999,United States,US,False,moderate,Private room,2014,$273 ,$55 ,6,5,5/21/2019,0.14,3,1,92,,
6840804,Spacious Quiet Room,54005693841,unconfirmed,Chris,Brooklyn,Williamsburg,40.707879999999996,-73.9426,United States,US,True,strict,Private room,2006,$215 ,$43 ,10,3,4/17/2019,0.09,1,1,241,1) No Smoking in property!!!  2) Do not slam doors!!! Close lightly Please!!! 3) No Shoes in house (except slippers) 4) Quiet down AFTER 10PM.,
6841356,Quintessential West Village apartment,7358677812,unconfirmed,Ilton,Manhattan,West Village,40.73319,-74.00502,United States,US,True,strict,Entire home/apt,2016,$247 ,$49 ,3,47,6/23/2019,1.01,5,1,183,"We are looking for quiet and respectful guests given that we have neighbors with young children. As a result, I would ask to please keep noise levels in the house at a minimum between 9pm and 8am (you can still cook and watch TV, etc. just don't go around moving furniture :)",
6841909,Cozy room harlem,56346685226,unconfirmed,April,Manhattan,Harlem,40.81993,-73.94704,United States,US,True,flexible,Private room,2003,$247 ,$49 ,2,0,,,4,1,236,Please do not smoke. Be respectful of the other guests.,
6842461,Sunlit Oasis in WILLIAMSBURG BK (2 Bedrooms),48391290818,verified,Alex,Brooklyn,Williamsburg,40.7124,-73.96314,United States,US,True,moderate,Entire home/apt,2015,"$1,084 ",$217 ,3,17,7/1/2019,0.36,2,3,257,,
6843013,Lovely BR w/Access to Everything!,66803384503,verified,Tasia,Brooklyn,Kensington,40.64423,-73.98019000000001,United States,US,False,moderate,Private room,2004,$803 ,$161 ,1,1,11/5/2015,0.02,1,2,146,,
6843565,Clean and Spacious Room on the UWS,19783534142,unconfirmed,Majd,Manhattan,Upper West Side,40.802659999999996,-73.96465,United States,US,True,strict,Private room,2013,$856 ,$171 ,1,0,,,5,1,30,,
6844118,Modern one bed in Alphabet City,65251026927,unconfirmed,Stephen,Manhattan,East Village,40.72573,-73.97926,United States,US,True,flexible,Entire home/apt,2020,"$1,173 ",$235 ,3,5,6/28/2018,0.11,1,1,25,"I respectfull ask that you treat my home as you would a friend's home.  My house rules are just common sense and courtesy. 1.  No loud music. 2. No parties. 3. No removal of items from the apartment unless expressly allowed by the host. 5.  Apartment door must be kept locked at all times.  4.  Security deposit shall be claimed in full in the event of any of the following:   a. Damaged or soiled sheets, to the extent that they require replacement.    b. Theft of items kept on and about the premises.    c. Unreturned keys.    d. Damage to the apartment or any part or item within and without the premises.    e. The presence of pets in the apartment, due to intent or negligence on the part of the guest and their party.    d. The presence of illicit or illegal substances, or illicit or illegal activities, on or about the premises     f.  Failure to vacate the premises by the agreed check-out time",
6844670,Studio with Million Dollar Views,29742707896,unconfirmed,John,Manhattan,Kips Bay,40.73845,-73.9795,United States,US,False,strict,Entire home/apt,2017,"$1,076 ",$215 ,3,2,9/22/2017,0.04,3,1,51,,
6845222,Lovely 1br in Heart of Brooklyn,46951006374,unconfirmed,Rebecca,Brooklyn,Bedford-Stuyvesant,40.68499,-73.93918000000001,United States,US,True,strict,Entire home/apt,2013,$456 ,$91 ,7,14,1/1/2019,0.31,5,1,270,"House Rules 1. Check-in is 4 pm local time. If the unit is ready earlier, we’ll let you know. Check-out is normally 11 am local time, but we’d be happy to extend it as long as we don’t have a cleaning scheduled. Just let us know.  2. All bookings require a security deposit of at least $300, which will be refunded within 7 days of your check-out. 3. For security measures we require all guests to provide proof of identification through ID verification on our own website. In order to check in we'll need a photo of your ID.  4. Our cancellation policy is as shown on our ad and defined by the site you are booking through.  5. Don’t let $300 go up in smoke. There's no smoking allowed in any Flatbook and a $300 fine for breaking this rule.  6. Unfortunately we don’t allow pets in any of our apartments. 7. Unless you’re staying in one of our specialty apartments, we don’t allow parties or excessive noise. 8. If we find the place very messy, we have to charge an extra $40 for every extra hour o",
6845775,Victorian House near Brooklyn College,3840383866,verified,George,Brooklyn,East Flatbush,40.63939,-73.94988000000001,United States,US,False,moderate,Entire home/apt,2018,$337 ,$67 ,2,100,6/30/2019,2.15,5,1,357,- No smoking inside the apartment - Checkout time is 11:00 am (a later time can be accommodated if it is available - but please ask ahead of time) - No Loud Music or Loitering outside the entrance after 10:00pm,
6846327,Best Private Room in Times Sq!,31981044019,unconfirmed,Prashanth,Manhattan,Theater District,40.76205,-73.9845,United States,US,True,strict,Private room,2011,$535 ,$107 ,1,8,8/21/2017,0.18,3,1,319,We except you to clean up after yourself and generally be respectful. Smoking should happen outside the house. Also please do not tap on the glass terrarium or play with the ball python. It is very timid and mostly wants to sleep.,
6846879,Time Square! 2 Fully Furnished apt!,60751108684,unconfirmed,Vapee,Manhattan,Hell's Kitchen,40.76127,-73.99181,United States,US,False,moderate,Entire home/apt,2016,$636 ,$127 ,4,55,6/21/2019,1.29,4,1,180,Clean and no party,
6847432,Private Room in Modern Apartment,34043946292,verified,Autumn,Queens,Ridgewood,40.70136,-73.89608,United States,US,False,strict,Private room,2011,$642 ,$128 ,1,4,10/24/2015,0.09,1,1,75,,
6847984,Modern Beauty in Brooklyn!,65970154653,verified,Victoria,Brooklyn,Bedford-Stuyvesant,40.680409999999995,-73.92971999999999,United States,US,False,flexible,Entire home/apt,2019,$104 ,$21 ,1,1,10/12/2015,0.02,2,1,413,,
6848536,Beautiful Riverside Park Apartment,43963819211,verified,Abby,Manhattan,Upper West Side,40.78143,-73.98638000000001,United States,US,False,strict,Entire home/apt,2003,$440 ,$88 ,3,0,,,3,2,426,Please remove the shoes in the house.,
6849088,Bel appartement meublé de 75m2,30188467926,unconfirmed,Tom,Brooklyn,Bedford-Stuyvesant,40.6795,-73.90899,United States,US,False,flexible,Private room,2018,$857 ,$171 ,7,0,,,4,1,50,,
6849641,Perfect Luxury Space in NYC!,47518727614,verified,Kent,Manhattan,Financial District,40.70517,-74.01142,United States,US,True,flexible,Entire home/apt,2003,$365 ,$73 ,3,0,,,1,1,143,"House Rules 1. Check-in is 4 pm local time. If the unit is ready earlier, we’ll let you know. Check-out is normally 11 am local time, but we’d be happy to extend it as long as we don’t have a cleaning scheduled. Just let us know.  2. All bookings require a security deposit of at least $300, which will be refunded within 7 days of your check-out. 3. For security measures we require all guests to provide proof of identification through ID verification on our own website. In order to check in we'll need a photo of your ID.  4. Our cancellation policy is as shown on our ad and defined by the site you are booking through.  5. Don’t let $300 go up in smoke. There's no smoking allowed in any Flatbook and a $300 fine for breaking this rule.  6. Unfortunately we don’t allow pets in any of our apartments. 7. Unless you’re staying in one of our specialty apartments, we don’t allow parties or excessive noise. 8. If we find the place very messy, we have to charge an extra $40 for every extra hour o",
6850193,2 bedroom private apt - boerum hill,97140593256,verified,Danny,Brooklyn,Downtown Brooklyn,40.68967,-73.98664000000001,United States,US,True,strict,Entire home/apt,2015,$568 ,$114 ,3,0,,,2,2,275,We except you to clean up after yourself and generally be respectful. Smoking should happen outside the house.,
6850745,Sunny Room In Historic Central Harlem,94399180924,unconfirmed,Andres,Manhattan,Harlem,40.80679,-73.94408,United States,US,False,flexible,Private room,2011,$720 ,$144 ,3,5,6/1/2018,0.11,1,1,365,,
6851298,Lovely East Village Apartment,72819141575,unconfirmed,Kelly,Manhattan,East Village,40.72777,-73.98545,United States,US,True,moderate,Entire home/apt,2014,$825 ,$165 ,1,0,,,2,1,2,"House Rules 1. Check-in is 4 pm local time. If the unit is ready earlier, we’ll let you know. Check-out is normally 11 am local time, but we’d be happy to extend it as long as we don’t have a cleaning scheduled. Just let us know.  2. All bookings require a security deposit of at least $300, which will be refunded within 7 days of your check-out. 3. For security measures we require all guests to provide proof of identification through ID verification on our own website. In order to check in we'll need a photo of your ID.  4. Our cancellation policy is as shown on our ad and defined by the site you are booking through.  5. Don’t let $300 go up in smoke. There's no smoking allowed in any Flatbook and a $300 fine for breaking this rule.  6. Unfortunately we don’t allow pets in any of our apartments. 7. Unless you’re staying in one of our specialty apartments, we don’t allow parties or excessive noise. 8. If we find the place very messy, we have to charge an extra $40 for every extra hour o",
6851850,Chelsea 2-Bedroom Doorman Apt NEW,68902531970,verified,Carole,Manhattan,Chelsea,40.743179999999995,-73.9982,United States,US,False,strict,Entire home/apt,2014,$671 ,$134 ,1,6,11/27/2016,0.13,2,1,140,Please be respectful to the other roommate and clean after yourselves. We love this place and we want guests to have the same experience you have when they arrive.,
6852402,Roomy Brooklyn Brownstone,96609638953,unconfirmed,Liz,Brooklyn,Park Slope,40.66766,-73.98257,United States,US,False,moderate,Entire home/apt,2019,$512 ,$102 ,2,10,9/14/2016,0.25,1,1,181,1) No Smoking in property!!!  2) Do not slam doors!!! Close lightly Please!!! 3) No Shoes in house (except slippers) 4) Quiet down AFTER 10PM.,
6852955,"Spacious, Beautiful, Private Room",9000823029,verified,Ardis,Queens,Ditmars Steinway,40.77433,-73.91734,United States,US,False,strict,Private room,2017,"$1,135 ",$227 ,4,32,6/21/2019,0.72,5,1,385,,
6853507,Sunny 1 bedroom in Brooklyn!,76419595513,verified,Rebeckah,Brooklyn,Crown Heights,40.67658,-73.95786,United States,US,False,flexible,Entire home/apt,2018,$489 ,$98 ,3,14,1/2/2017,0.3,2,1,21,- No excess noise after 11pm. - No recreational drugs. - No open flames.,
6854059,Large room in Williamsburg,37924026024,unconfirmed,James,Brooklyn,Williamsburg,40.70939,-73.95155,United States,US,True,moderate,Private room,2022,$795 ,$159 ,4,1,9/13/2015,0.02,3,1,327,,
6854611,"Light, Bright and Cozy!",57622151325,unconfirmed,Benjamin,Brooklyn,Bushwick,40.69867,-73.91134,United States,US,True,strict,Entire home/apt,2015,$752 ,$150 ,30,51,10/27/2018,1.28,2,1,422,"Orderly house and we want to keep it this way Bathrooms don't have high traffic as we agree to take shower before bed and not in the morning Everyone picks up after themselves No disturbance of any kind greatly appreciated:) but ASK ME (not other guests) questions any time you need/want to know something or unsure about how to do things, etc. Emails is the best way to communicate. When talking on the phone, please do it in your room with door closed Please walk calm, don't run the stairs, as it reduce the noise Close all doors gently please Non-smoker only Guests will be liable for any damages they caused: inspect the room upon arrival and sign the report Only food items can be placed into the kitchen sink compost disposal No smoking anywhere in/out of the house No perfume/cologne, scented laundry detergent allowed Doing laundry in a sink/bath not allowed Guests/visitors are not permitted Rescued/injured animals can be brought in for further assistance",
6855164,Sunny Room in Williamsburg Brooklyn,21086509954,verified,Maythem,Brooklyn,Williamsburg,40.71248,-73.96379,United States,US,False,moderate,Private room,2007,$940 ,$188 ,1,5,10/19/2015,0.11,1,1,138,,
6855716,Amazing 2BR in Bed-Stuy,74258553996,verified,Kaila,Brooklyn,Bedford-Stuyvesant,40.68355,-73.94129000000001,United States,US,False,moderate,Entire home/apt,2014,$145 ,$29 ,2,1,9/26/2015,0.02,5,1,266,No guests/visitors Storage not provided Limited number of things allowed:one-two suitcases The house is quiet and we want to keep it this way.  Please pick up after yourself and please keep toilet bowl and shower clean Toilet must be closed when not in use It is requested to take shower and do shaving before bed and keep morning bathroom time to the minimum: others are waiting  Additional toilet/sink is on the first floor.  No disturbance: please walk slowly on the stairs Keep phone conversation inside your room without using computer speakers,
6856268,Prospect Park Cozy Abode,44696830847,unconfirmed,Michelle,Brooklyn,Prospect-Lefferts Gardens,40.65961,-73.96177,United States,US,False,flexible,Entire home/apt,2003,$56 ,$11 ,30,43,6/12/2019,0.94,5,1,171,"Please expect to share the apartment with guests having various backgrounds. Be respectful and decent, also enjoy interacting with each other. Please dress descent in the house especially in and out of the shower.",
6856821,Modern Studio in Cultural LES,3278886532,verified,Autumn,Manhattan,Lower East Side,40.71826,-73.99199,United States,US,False,strict,Entire home/apt,2011,$967 ,$193 ,3,170,6/24/2019,3.64,5,1,253,No pets. No smoking.,
6857373,CLEAN & COZY 2 bedroom apartment,5882894769,verified,Angela,Manhattan,East Village,40.72995,-73.98135,United States,US,True,flexible,Entire home/apt,2015,$773 ,$155 ,1,101,6/24/2019,2.19,2,1,200,"There will be a small lockbox at the building entrance (on your left side if you are facing the door). The code for this lockbox will be send to you after you have confirmed your reservation. Inside the lockbox you will find 2 keys, one that works for both of the building doors ,and another for the apartment's door).  NO smoking. *We are not responsible for any accidents, injuries, or illness that occurs while on the premises; or for the loss of guests' personal belongings or valuables. By accepting this reservation, it is agreed that all guests are expressly assuming the risk of any harm to themselves arising from their use of the premises or to others whom they invite to use the premises.",
6857925,Private BR in 3 BR Apt,20221517015,unconfirmed,Kara,Manhattan,Lower East Side,40.7146,-73.98423000000001,United States,US,False,flexible,Private room,2016,$165 ,$33 ,3,5,1/2/2016,0.11,4,4,197,,
6858478,Sunny 2 BR apartment in E Village,38611410509,verified,John,Manhattan,East Village,40.72845,-73.97989,United States,US,False,flexible,Entire home/apt,2014,"$1,036 ",$207 ,2,3,10/12/2015,0.06,4,1,379,,
6859030,Large room in central SOHO,37228880985,unconfirmed,Shakeh,Manhattan,SoHo,40.72528,-74.00223000000001,United States,US,False,moderate,Private room,2008,"$1,041 ",$208 ,2,5,9/30/2016,0.11,5,1,10,,
6859582,Cozy 3 Bedroom Apartment - LES,91620774749,verified,Kara,Manhattan,Lower East Side,40.71358,-73.98456,United States,US,True,strict,Entire home/apt,2015,$743 ,$149 ,3,0,,,1,4,370,,
6860134,"Battery Park Monthly rental, great location.",35965463124,verified,Pat,Manhattan,Battery Park City,40.709559999999996,-74.01605,United States,US,False,strict,Entire home/apt,2014,"$1,134 ",$227 ,30,6,4/26/2019,0.13,4,1,227,,
6860687,Private Balcony and views of WTC!,23651252226,verified,Leyla,Manhattan,Tribeca,40.72018,-74.00981,United States,US,False,flexible,Private room,2010,$781 ,$156 ,1,18,6/22/2019,0.38,2,1,217,"Nothing unusual, I expect that you clean after yourself (bathroom, kitchen...).  The building is calm, so no loud music or parties is allowed. Check-in time on week days will be limited to non-business hours (after 6pm).  Check-out time is whenever you want, unless I've other guest that are arriving.",
6861239,Artist's Room in Bushwick,45570368884,unconfirmed,Angel,Brooklyn,Bedford-Stuyvesant,40.68742,-73.92198,United States,US,False,strict,Private room,2003,$381 ,$76 ,1,0,,,2,1,340,1) No Smoking in property!!!  2) Do not slam doors!!! Close lightly Please!!! 3) No Shoes in house (except slippers) 4) Quiet down AFTER 10PM.,
6861791,"Large Room, Full Bed, Trendy LES",55670144393,verified,Jordan,Manhattan,Lower East Side,40.71349,-73.98473,United States,US,False,flexible,Private room,2014,"$1,111 ",$222 ,10,8,3/4/2016,0.17,4,1,354,"House Rules 1. All bookings made at least a week before check in are fully refundable if cancelled within 24 hours of booking. After this, you will receive a 50% refund if you cancel at least 7 days before the start of your trip. 2. Check-in time is any time after 4 pm local time. If the unit is ready earlier, we’ll let you know. Check-out is normally 11 am local time, but we’d be happy to extend it as long as we don’t have a cleaning scheduled. Just let us know.  3. All bookings require a security deposit of at least $300. 4. For security measures we require all guests to provide proof of identification through ID verification on our own website. In order to check in, we'll need a photo of your ID.  5. Don’t let $300 go up in smoke. There's no smoking allowed in any Flatbook and a $300 fine for breaking this rule.  6. Unfortunately we don’t allow pets in most of our apartments. 7. Unless you’re staying in one of our specialty apartments, we don’t allow parties or excessive noise. 8. I",
6862344,Studio in Midtown East (1 q+couch),19587869877,unconfirmed,Ema,Manhattan,Midtown,40.75249,-73.96866,United States,US,True,strict,Entire home/apt,2012,"$1,002 ",$200 ,4,3,7/10/2016,0.06,1,1,408,"The (URL HIDDEN) use of tobacco/smoking/substances of abuse (including alcohol) on the property...quiet during night (you can go in and out as you like, just of course be quiet when we might be sleeping, as we try to be if coming home late when you might be in bed)...tell us a bit about yourself if you like and pls ask us about anything we might be able to tell you about locally/perhaps assist with...contact us when you're here with any questions!  We particularly dislike jokes having to do with avocados.  :   )  Do sign our map of where you're from. Some more room/house use points: ->  If you need it before we actually meet and show you, the bathroom is upstairs; feel free to get water for your use from bathroom faucet (it's fine to drink here, and in most of the US.  Bottled water is rarely different than usual US tap water, with the bottling craze a big drain on resources, to be actively eschewed for the sake of our Mother Earth...). ->  If you need to borrow a towel, there should b",
6862896,Brownstone Apt near Central Park,47425024661,verified,Alyshia,Manhattan,Upper West Side,40.798770000000005,-73.96259,United States,US,False,moderate,Entire home/apt,2013,$581 ,$116 ,3,200,7/2/2019,4.31,5,1,19,"• No smoking, pets, or unannounced guests. • Respect the check-out time of 11:00 AM. If you have special requests, discuss with us ahead of time! • Clean the kitchen/wash dishes after use. • Keep a reasonable volume after 11:00 PM & before 8 AM",
6863448,Lower East Side Garden Apartment,88229218518,unconfirmed,Maggie,Manhattan,Lower East Side,40.719770000000004,-73.98176,United States,US,True,flexible,Private room,2017,$866 ,$173 ,1,0,,,1,1,122,"Please try to be mindful/aware of your actions and their effect on others No disturbance is greatly appreciated:) When talking on the phone, please do so only in your room with door closed:) unless it's an emergency Please walk, don't run the stairs (the slower you walk the less noise there is) Close all doors gently please No smoking anywhere in or out of the house If you tell me you stayed with friends who smoked as a reason for the smell, it will not matter No perfume/cologne, scented laundry detergent allowed (suitable product provided, just ask if needed) Guests/visitors not permitted",
6864001,Huge Studio -East Vill/Alphbet City,84344573321,verified,Elizabeth,Manhattan,East Village,40.723620000000004,-73.98519,United States,US,True,moderate,Entire home/apt,2005,$642 ,$128 ,5,0,,,5,1,246,1) No Smoking in property!!!  2) Do not slam doors!!! Close lightly Please!!! 3) No Shoes in house (except slippers) 4) Quiet down AFTER 10PM.,
6864553,"Luxury, Cozy 1BD, walk to CentrPark",13201172818,unconfirmed,Jennifer,Manhattan,Upper East Side,40.78338,-73.95008,United States,US,True,strict,Entire home/apt,2014,"$1,188 ",$238 ,1,126,6/25/2019,2.7,5,1,216,,
6865105,Private Room 1 Stop From Manhattan,38412596495,unconfirmed,Devon,Brooklyn,Williamsburg,40.71697,-73.95919,United States,US,True,flexible,Private room,2022,$124 ,$25 ,1,19,7/1/2016,0.41,5,1,96,,
6865657,1BR in Spacious 3Bed/3ba w/backyard,37136844155,unconfirmed,Sharan,Brooklyn,Bedford-Stuyvesant,40.683890000000005,-73.95557,United States,US,True,strict,Private room,2012,$717 ,$143 ,3,4,6/23/2016,0.09,1,1,76,"You will meet a clean apartment, please leave it clean  No Smoking please. Sorry, but NO PETS",
6866210,Spacious Parisian style apartment,81488828955,verified,Miguel,Manhattan,Chelsea,40.73921,-73.99717,United States,US,False,strict,Entire home/apt,2008,$77 ,$15 ,2,3,11/18/2016,0.06,1,1,379,,
6866762,1 bedroom Prospect-Lefferts Gardens,65811443440,unconfirmed,Joe,Brooklyn,Prospect-Lefferts Gardens,40.65845,-73.96131,United States,US,False,strict,Entire home/apt,2015,$347 ,$69 ,4,3,5/30/2016,0.07,4,1,287,,
6867314,Cherry Blossom Apartment,3090684749,unconfirmed,Alessandro,Queens,Astoria,40.75535,-73.91396999999999,United States,US,True,moderate,Entire home/apt,2022,$896 ,$179 ,7,2,10/2/2015,0.04,3,1,84,"House Rules 1. Check-in is 4 pm local time. If the unit is ready earlier, we’ll let you know. Check-out is normally 11 am local time, but we’d be happy to extend it as long as we don’t have a cleaning scheduled. Just let us know.  2. All bookings require a security deposit of at least $300, which will be refunded within 7 days of your check-out. 3. For security measures we require all guests to provide proof of identification through ID verification on our own website. In order to check in we'll need a photo of your ID.  4. Our cancellation policy is as shown on our ad and defined by the site you are booking through.  5. Don’t let $300 go up in smoke. There's no smoking allowed in any Flatbook and a $300 fine for breaking this rule.  6. Unfortunately we don’t allow pets in any of our apartments. 7. Unless you’re staying in one of our specialty apartments, we don’t allow parties or excessive noise. 8. If we find the place very messy, we have to charge an extra $40 for every extra hour o",
6867867,Central Park North 1 Bedroom Apt,31928710208,verified,Maria,Manhattan,Harlem,40.79965,-73.95446,United States,US,True,moderate,Entire home/apt,2021,$391 ,$78 ,2,13,6/16/2019,0.28,4,1,418,"House Rules 1. All bookings made at least a week before check in are fully refundable if cancelled within 24 hours of booking. After this, you will receive a 50% refund if you cancel at least 7 days before the start of your trip. 2. Check-in time is any time after 4 pm local time. If the unit is ready earlier, we’ll let you know. Check-out is normally 11 am local time, but we’d be happy to extend it as long as we don’t have a cleaning scheduled. Just let us know.  3. All bookings require a security deposit of at least $300. 4. For security measures we require all guests to provide proof of identification through ID verification on our own website. In order to check in, we'll need a photo of your ID.  5. Don’t let $300 go up in smoke. There's no smoking allowed in any Flatbook and a $300 fine for breaking this rule.  6. Unfortunately we don’t allow pets in most of our apartments. 7. Unless you’re staying in one of our specialty apartments, we don’t allow parties or excessive noise. 8. I",
6868419,Greenpoint Brooklyn Modern Charm,30983603636,verified,Robbin,Brooklyn,Greenpoint,40.721759999999996,-73.94393000000001,United States,US,False,flexible,Entire home/apt,2007,$243 ,$49 ,2,129,6/6/2019,2.8,1,2,-1,Please don't use the washer and dryer after 10pm or before 8am!,
6868971,Steps away from Laguardia airport,25997843369,unconfirmed,Maya,Queens,East Elmhurst,40.77006,-73.87683,United States,US,True,flexible,Private room,2017,$464 ,$93 ,1,543,7/1/2019,11.59,1,5,-6,,
6869524,179st Hub Room with balcony,16809290607,verified,Jeff,Queens,Jamaica,40.710359999999994,-73.78260999999999,United States,US,False,flexible,Private room,2022,"$1,103 ",$221 ,2,24,5/31/2019,0.95,5,7,375,Please be respectful of other guests No Pets and No Smoking No loud music or noise after 10 PM,
6870076,Beautiful 2BR Apt in UES NYC,25321329870,verified,Shea,Manhattan,Upper East Side,40.78222,-73.94791,United States,US,True,strict,Entire home/apt,2018,$227 ,$45 ,1,1,9/9/2015,0.02,2,1,78,- Additional charge for extra guests - No Smoking! - No pets,
6870628,HK SWEET SPOT,79830661513,unconfirmed,Christopher,Manhattan,Hell's Kitchen,40.75849,-73.9907,United States,US,False,flexible,Entire home/apt,2010,$754 ,$151 ,2,1,9/22/2015,0.02,2,1,393,,
6871180,Astoria Room Facing the Park,64327643357,unconfirmed,Simon,Queens,Long Island City,40.76211,-73.92894,United States,US,False,flexible,Private room,2010,"$1,189 ",$238 ,1,1,9/2/2015,0.02,4,2,293,"- Non-smoker - No cologne/perfumed spray use - Please take shower before bed to avoid morning rush - Take off street shoes and place on rack, - Please bring slippers or ask me for a pair - Recycling and reusable shopping bag use (provided) - Limit things to bring in: 1-2 suitcases OK - Mailing address not to be shared with anyone; you will be charged $200 if you do",
6871733,Your Convenient Sanctuary 1br apt.,53638802239,verified,Tasia,Brooklyn,Kensington,40.64277,-73.97946999999999,United States,US,True,strict,Entire home/apt,2011,"$1,016 ",$203 ,1,1,9/6/2015,0.02,2,2,309,,
6872285,Open Plan & Garden Brownstone Apt,16905389134,unconfirmed,Danielle,Manhattan,East Harlem,40.80965,-73.93911999999999,United States,US,True,strict,Entire home/apt,2021,$522 ,$104 ,4,111,6/10/2019,2.44,5,1,5,We like quirt. So please dont hold party at night.,
6872837,Small cosy room in Lower East Side,65932660871,verified,Julien,Manhattan,Chinatown,40.713429999999995,-73.99531999999999,United States,US,False,strict,Private room,2019,$355 ,$71 ,2,3,10/19/2015,0.07,5,1,206,,
6873390,Bright studio on Upper East Side!,85957381491,verified,Julia,Manhattan,Upper East Side,40.779140000000005,-73.94965,United States,US,True,strict,Entire home/apt,2010,"$1,061 ",$212 ,14,0,,,1,1,29,"Please, No shoes allowed. There's a mat for them, just inside the door.",
6873942,LOFT2bdrm apt near metro20min to Manhattan/wall st,95162594126,verified,Rebekah,Brooklyn,Bedford-Stuyvesant,40.67797,-73.93966999999999,United States,US,False,flexible,Entire home/apt,2008,$304 ,$61 ,5,147,6/18/2019,3.19,3,1,40,"House Rules 1. Check-in is 4 pm local time. If the unit is ready earlier, we’ll let you know. Check-out is normally 11 am local time, but we’d be happy to extend it as long as we don’t have a cleaning scheduled. Just let us know.  2. All bookings require a security deposit of at least $300, which will be refunded within 7 days of your check-out. 3. For security measures we require all guests to provide proof of identification through ID verification on our own website. In order to check in we'll need a photo of your ID.  4. Our cancellation policy is as shown on our ad and defined by the site you are booking through.  5. Don’t let $300 go up in smoke. There's no smoking allowed in any Flatbook and a $300 fine for breaking this rule.  6. Unfortunately we don’t allow pets in any of our apartments. 7. Unless you’re staying in one of our specialty apartments, we don’t allow parties or excessive noise. 8. If we find the place very messy, we have to charge an extra $40 for every extra hour o",
6874494,Bright Private Room with Big Closet,3789402431,unconfirmed,Fidelia,Brooklyn,Sunset Park,40.64355,-74.01908,United States,US,True,strict,Private room,2014,$430 ,$86 ,7,13,5/4/2019,0.28,1,2,379,"House Rules 1. Check-in is 4 pm local time. If the unit is ready earlier, we’ll let you know. Check-out is normally 11 am local time, but we’d be happy to extend it as long as we don’t have a cleaning scheduled. Just let us know.  2. All bookings require a security deposit of at least $300, which will be refunded within 7 days of your check-out. 3. For security measures we require all guests to provide proof of identification through ID verification on our own website. In order to check in we'll need a photo of your ID.  4. Our cancellation policy is as shown on our ad and defined by the site you are booking through.  5. Don’t let $300 go up in smoke. There's no smoking allowed in any Flatbook and a $300 fine for breaking this rule.  6. Unfortunately we don’t allow pets in any of our apartments. 7. Unless you’re staying in one of our specialty apartments, we don’t allow parties or excessive noise. 8. If we find the place very messy, we have to charge an extra $40 for every extra hour o",
6875047,Cosy double bedroom in Brooklyn #1,53730927617,verified,Sophie,Brooklyn,Bushwick,40.70128,-73.92666,United States,US,False,strict,Private room,2006,$935 ,$187 ,2,7,1/2/2016,0.15,5,2,148,ALCOHOL IS STRICTLY NOT ALLOWED INSIDE THE HOUSE !,
6875599,Cozy Apartment Next To Central Park,90811069981,unconfirmed,Lenny,Manhattan,Harlem,40.80089,-73.95674,United States,US,True,strict,Entire home/apt,2012,$922 ,$184 ,2,113,6/21/2019,2.46,3,1,106,No smoking inside the house and make sure to think about the house as your own,
6876151,Roosevelt Island-great location,76417087072,verified,Jocelyn,Manhattan,Roosevelt Island,40.76641,-73.94561,United States,US,False,moderate,Shared room,2015,$568 ,$114 ,1,1,9/13/2015,0.02,2,1,143,,
6876703,Modern Brooklyn Apartment,29792474895,unconfirmed,Michelle,Brooklyn,Bedford-Stuyvesant,40.68372,-73.95551,United States,US,False,moderate,Entire home/apt,2017,$357 ,$71 ,2,7,6/22/2019,0.15,5,1,193,,
6877256,Original Old Skool 2 Bedroom Brooklyn LOFT,26932665173,unconfirmed,Phillip,Brooklyn,Williamsburg,40.71519,-73.96174,United States,US,False,moderate,Entire home/apt,2014,$690 ,$138 ,4,0,,,4,2,34,"Non smoker only Guest may not bring car to the area Perfumes, sprays, candles, not allowed Cat in the house Mailing address may not be given to anyone without written permission If we get correspondence on your name, you will be charged $200  Separate recycle from trash (I can help, just ask) Black bag for recycling is in your room, put all in one bag Guests are not allowed The house is quiet as others are studying Please pick up after yourself as a courtesy to others Please don't leave your clothes or towel in the bathroom Any shampoo without name can be used (they are inside the shower) Please take shower at night or afternoon to avoid morning traffic. Use reusable bag (provided)  Please don't take disposable plastic bags from stores Food left over must be placed inside kitchen sink for automatic disposal",
6877808,Bright Home in Heart of Brooklyn,93468501352,unconfirmed,Andrew And Talia,Brooklyn,Crown Heights,40.6683,-73.94977,United States,US,True,flexible,Entire home/apt,2019,$775 ,$155 ,1,5,2/14/2017,0.12,2,3,349,Please do not smoke. Be respectful of other guests.,
6878360,Spacious Room in Heart of Brooklyn,31425655333,unconfirmed,Andrew And Talia,Brooklyn,Crown Heights,40.6682,-73.94927,United States,US,True,moderate,Private room,2011,$629 ,$126 ,14,0,,,4,3,389,,
6878913,"Quiet, Clean, Beautiful East Village Loft",71883522937,verified,Dave,Manhattan,East Village,40.73178,-73.98841999999999,United States,US,False,strict,Entire home/apt,2016,$825 ,$165 ,2,48,6/22/2019,1.07,2,1,133,"House Rules 1. Check-in is 4 pm local time. If the unit is ready earlier, we’ll let you know. Check-out is normally 11 am local time, but we’d be happy to extend it as long as we don’t have a cleaning scheduled. Just let us know.  2. All bookings require a security deposit of at least $300, which will be refunded within 7 days of your check-out. 3. For security measures we require all guests to provide proof of identification through ID verification on our own website. In order to check in we'll need a photo of your ID.  4. Our cancellation policy is as shown on our ad and defined by the site you are booking through.  5. Don’t let $300 go up in smoke. There's no smoking allowed in any Flatbook and a $300 fine for breaking this rule.  6. Unfortunately we don’t allow pets in any of our apartments. 7. Unless you’re staying in one of our specialty apartments, we don’t allow parties or excessive noise. 8. If we find the place very messy, we have to charge an extra $40 for every extra hour o",
6879465,Private Room in Luxury Building,64383456512,verified,Keith,Manhattan,Financial District,40.7066,-74.00395999999999,United States,US,True,strict,Private room,2015,$621 ,$124 ,1,2,9/27/2015,0.04,4,1,330,,
6880017,1-Bedroom Upper East Side Apartment!,58122584658,unconfirmed,Kara,Manhattan,Upper East Side,40.763909999999996,-73.95938000000001,United States,US,False,strict,Entire home/apt,2015,"$1,021 ",$204 ,30,2,7/28/2018,0.1,2,121,354,"- No smoking anywhere on premises, inside or outside. - No pets. - Please take off shoes in the apartment. - Please leave the house in the condition you found it in. - Please be respectful to neighbors. - Turn off A/C when away.",
6880570,Bright&Beautiful BR in Williamsburg,3398094161,unconfirmed,Mez,Brooklyn,Williamsburg,40.71288,-73.94136999999999,United States,US,True,flexible,Private room,2003,$536 ,$107 ,2,2,9/23/2015,0.04,4,1,90,,
6881122,AMAZING LOCATION Large Studio Centrally Located,88128207128,verified,Steven,Manhattan,Midtown,40.75463,-73.97445,United States,US,False,moderate,Entire home/apt,2022,$352 ,$70 ,2,14,6/28/2018,0.42,1,1,259,,
6881674,Airy 1500 sq ft Exposed Brick Apt,89799234367,verified,Philip,Brooklyn,Fort Greene,40.69262,-73.97245,United States,US,True,strict,Entire home/apt,2020,$592 ,$118 ,3,2,5/1/2016,0.04,1,1,171,"Please treat my place as your own. Turn off the lights, AC, fan, etc when you leave the apartment, and wash any kitchenware and dishes that you've used. Put used towels on the floor, so that I now they've been used.",
6882226,Location au coeur de Brooklyn!,4344269726,verified,Marie,Brooklyn,Bushwick,40.70511,-73.91755,United States,US,False,moderate,Private room,2012,$504 ,$101 ,1,0,,,2,1,148,,
6882779,Cute Room in Williamsburg Apartment,46103604202,verified,John Conor,Brooklyn,Williamsburg,40.71321,-73.94099,United States,US,True,moderate,Private room,2013,$526 ,$105 ,1,0,,,4,2,387,,
6883331,Sunny & Spacious in Carroll Gardens,22676434688,unconfirmed,Anne,Brooklyn,Carroll Gardens,40.68326,-73.99327,United States,US,True,strict,Entire home/apt,2003,$275 ,$55 ,3,27,9/3/2018,0.58,5,1,147,"House Rules 1. All bookings made at least a week before check in are fully refundable if cancelled within 24 hours of booking. After this, you will receive a 50% refund if you cancel at least 7 days before the start of your trip. 2. Check-in time is any time after 4 pm local time. If the unit is ready earlier, we’ll let you know. Check-out is normally 11 am local time, but we’d be happy to extend it as long as we don’t have a cleaning scheduled. Just let us know.  3. All bookings require a security deposit of at least $300. 4. For security measures we require all guests to provide proof of identification through ID verification on our own website. In order to check in, we'll need a photo of your ID.  5. Don’t let $300 go up in smoke. There's no smoking allowed in any Flatbook and a $300 fine for breaking this rule.  6. Unfortunately we don’t allow pets in most of our apartments. 7. Unless you’re staying in one of our specialty apartments, we don’t allow parties or excessive noise. 8. I",
6883883,Huge apartment on tree-lined street,28266791903,verified,Elyse,Brooklyn,Prospect Heights,40.676970000000004,-73.97069,United States,US,False,moderate,Entire home/apt,2008,$266 ,$53 ,7,11,4/13/2018,0.24,1,1,138,"No smoking inside the house.  No loud parties or disturbing the peace or public nuisance allowed. This is a strictly residential rental NOT commercial.  If holding parties you must first seek owner's permission before inviting anyone other than immediate family.   This is a peaceful family neighborhood and I like to keep it that way.  Clean after yourself, clean the stove and oven and all the appliances.  Leave everything exactly in the condition it is in when you first arrived.  Treat this house as if it is your own with the proper respect and courtesy.  No pets allowed.  Check in is 4PM, Check out 10AM.  On Check out date please leave all the dirty sheets, towels, linens by the washer for the maid.  Please leave the outside trash container for the garbage truck on the night before it arrives.",
6884436,cozy apartment,54886452917,unconfirmed,Gina,Queens,Woodside,40.74715,-73.91104,United States,US,True,moderate,Private room,2017,"$1,185 ",$237 ,7,1,3/19/2017,0.04,3,1,396,"Ali's House Rules When you stay in an Airbnb, you're staying in someone's home. Here are some guidelines Joe asks all guests to follow.  Quiet down AFTER 10PM specially in week days",
6884988,Studio near Central Park.,89129080618,unconfirmed,Mila,Manhattan,Upper East Side,40.775690000000004,-73.95201999999999,United States,US,False,strict,Entire home/apt,2011,$283 ,$57 ,7,3,8/14/2016,0.06,2,1,-1,,
6885540,Spacious room in shared apartment!,13465867046,verified,Laura,Manhattan,Harlem,40.82488,-73.94471999999999,United States,US,True,flexible,Private room,2007,"$1,034 ",$207 ,4,0,,,2,1,272,No pets and No smoking. Guests need to be respectful and considerate of others.,
6886093,#NAME?,24164569686,verified,John,Brooklyn,Williamsburg,40.715959999999995,-73.96215,United States,US,True,moderate,Private room,2003,$597 ,$119 ,2,106,6/23/2019,2.29,5,8,148,,
6886645,Room in Woodside,88272783945,verified,Pj,Queens,Woodside,40.74693,-73.90146,United States,US,False,moderate,Private room,2004,$857 ,$171 ,1,0,,,2,1,386,"Please do not smoke, and be respectful of others in the house.",
6887197,Pleasant room on garden floor,10044996588,verified,Basil And Jacqueline,Manhattan,Harlem,40.80577,-73.94708,United States,US,False,moderate,Private room,2008,$208 ,$42 ,2,11,6/22/2017,0.25,5,2,256,"House Rules 1. Check-in is 4 pm local time. If the unit is ready earlier, we’ll let you know. Check-out is normally 11 am local time, but we’d be happy to extend it as long as we don’t have a cleaning scheduled. Just let us know.  2. All bookings require a security deposit of at least $300, which will be refunded within 7 days of your check-out. 3. For security measures we require all guests to provide proof of identification through ID verification on our own website. In order to check in we'll need a photo of your ID.  4. Our cancellation policy is as shown on our ad and defined by the site you are booking through.  5. Don’t let $300 go up in smoke. There's no smoking allowed in any Flatbook and a $300 fine for breaking this rule.  6. Unfortunately we don’t allow pets in any of our apartments. 7. Unless you’re staying in one of our specialty apartments, we don’t allow parties or excessive noise. 8. If we find the place very messy, we have to charge an extra $40 for every extra hour o",
6887749,Spacious Private Parlor Suite in Heart of Harlem,91112666465,verified,Basil And Jacqueline,Manhattan,Harlem,40.80565,-73.94621,United States,US,True,moderate,Entire home/apt,2011,$569 ,$114 ,2,13,6/8/2019,0.42,3,2,257,No pets.  No smoking inside.,
6888302,Spacious TriBeCa 3BR w/ Balcony,25524717657,unconfirmed,Roberto,Manhattan,Tribeca,40.72095,-74.00918,United States,US,False,moderate,Entire home/apt,2012,$501 ,$100 ,3,0,,,3,1,384,No pets. No smoking. Guests need to be respectful and gentle.,
6888854,Top location Heart of Manhattan!,49261931300,unconfirmed,Fabiana,Manhattan,Upper East Side,40.7734,-73.95832,United States,US,False,moderate,Entire home/apt,2009,$291 ,$58 ,5,11,6/9/2016,0.24,5,1,119,"We are a relaxed household, but expect guests to use common sense and to respect our home.  Smoking is not permitted in any part of the property, including common living spaces, the porch, bedroom and bedroom window. Anyone found to have smoked will be asked to leave immediately. When using the kitchen, guests agree to: - Wash up all dishes, cutlery, pots and pans after use - Clean work surfaces and table - Return all utensils to their origin place - Put all rubbish in the trash Shower & Toilet: - Please leave the shower and toilet in a clean, hygienic and fresh state.  Bedroom: - Please refrain from playing music prior to 9am and after 8pm. Bikes: - There are two bikes available to use at your own risk. Guests outside of AirBnB are not permitted to stay in the apartment.",
6889406,Cute room in huge artist loft!,42675274725,unconfirmed,Jaimie,Brooklyn,Bedford-Stuyvesant,40.67889,-73.9481,United States,US,True,flexible,Private room,2011,$208 ,$42 ,14,9,10/2/2018,0.2,1,1,309,"Guest should do there dishes and clean after themselves. No alcohol, No drugs, No party's and most important Don't Disturb other guests!",
6889959,Charming Fort Greene park studio!,79142827032,unconfirmed,Aaron,Brooklyn,Fort Greene,40.687909999999995,-73.97438000000001,United States,US,True,strict,Entire home/apt,2005,$997 ,$199 ,2,2,9/18/2015,0.04,1,1,388,"Please treat my place as your own. Turn off the lights, AC, fan, etc when you leave the apartment, and wash any kitchenware and dishes that you've used. Put used towels on the floor, so that I now they've been used.",
6890511,Cozy room in renovated Harlem apt,54229816445,verified,Jacqueline,Manhattan,Harlem,40.80214,-73.95325,United States,US,False,flexible,Private room,2018,$143 ,$29 ,6,1,1/31/2017,0.03,4,1,45,"Share our house as a guest, don't worry about cost of snacks or an occasional beer. No smoking. Please consult first if you will be traveling with small children. We try to keep the space clean and ask everyone to remove their shoes in the appartment and be respectful to everyone.",
6891063,Luxury Apartment in Williamsburg Br,69551907665,verified,Yonatan,Brooklyn,Williamsburg,40.71387,-73.95697,United States,US,False,strict,Entire home/apt,2013,$548 ,$110 ,13,1,10/11/2015,0.02,5,1,54,,
6891616,Beautiful Upper West Side Studio,86614772535,verified,Tara,Manhattan,Upper West Side,40.77795,-73.9825,United States,US,True,flexible,Entire home/apt,2012,$992 ,$198 ,2,1,9/6/2015,0.02,1,1,50,"Guest should do there dishes and clean after themselves. No alcohol, No drugs, No party's and most important Don't Disturb other guests!",
6892168,Gorgeous Penthouse next to Central Park,71412741325,verified,Pratik,Manhattan,Upper West Side,40.773540000000004,-73.98461999999999,United States,US,False,strict,Private room,2018,$700 ,$140 ,2,21,6/14/2019,0.46,4,1,48,"Please be respectul of other occupants of the apartment. This means: no smoking indoors, no parties, and cleaning up after yourself.",
6892720,"Entire House in East Williamsburg, Brooklyn!",92744080786,verified,Meredith,Brooklyn,Williamsburg,40.71468,-73.93774,United States,US,False,flexible,Entire home/apt,2021,$678 ,$136 ,2,0,,,5,1,311,,
6893272,Cool Chill Space In a 5BR 2.5 bath,33515705029,verified,Luis Enrique,Brooklyn,Bushwick,40.68358,-73.90884,United States,US,False,strict,Private room,2018,$953 ,$191 ,20,0,,,4,5,238,,
6893825,2 bed duplex with private garden!,85660732680,verified,Leela,Brooklyn,Bedford-Stuyvesant,40.69352,-73.94376,United States,US,False,moderate,Entire home/apt,2012,$259 ,$52 ,5,9,6/29/2019,0.21,2,1,329,,
6894377,Comfy East Village Studio,68551670062,verified,Umar,Manhattan,East Village,40.72555,-73.97713,United States,US,True,moderate,Entire home/apt,2011,$499 ,$100 ,4,3,12/28/2015,0.07,1,1,405,"Please try to make less noise when talking, moving suitcases in your room as the house has very little sound barrier. The stairs makes a lot of noise when people walk fast, please be considered. The guest must be a non-smoker and his/her clothes should not smell of smoke. No smoking inside/outside.  Use of cologne/perfume/other product with noticeable scent/ sprays are not allowed in or out of the house. Trash has to be separated from recycle. No trash may be put in any containers outside of the house. If you unable to separate the trash, at least, please be considered and don't mix recycles with food or personal product waist. Single use plastic bags should not be taking from the store: you will get your personal fordable reusable bag and may keep it. Please use other resources conservatively and be conscience about the impact on the environment. We all share this planet. Don't give this mailing address to anyone before confirming by email First offense address sharing $200, and every",
6894929,Quiet Relaxed Room in Williamsburg,27825191669,unconfirmed,Alexandra,Brooklyn,Williamsburg,40.707879999999996,-73.95106,United States,US,False,flexible,Private room,2006,$277 ,$55 ,5,1,12/16/2015,0.02,1,1,189,1. guest should do the dishes by themselves. 2. late check out will be charged $30 from your deposit.,
6895482,Beautiful & Cozy One Bedroom Apt,63740131272,verified,Vicky,Manhattan,East Harlem,40.79505,-73.93925,United States,US,True,strict,Entire home/apt,2019,$577 ,$115 ,3,24,1/2/2017,0.52,3,1,338,"House Rules 1. Check-in is 4 pm local time. If the unit is ready earlier, we’ll let you know. Check-out is normally 11 am local time, but we’d be happy to extend it as long as we don’t have a cleaning scheduled. Just let us know.  2. All bookings require a security deposit of at least $300, which will be refunded within 7 days of your check-out. 3. For security measures we require all guests to provide proof of identification through ID verification on our own website. In order to check in we'll need a photo of your ID.  4. Our cancellation policy is as shown on our ad and defined by the site you are booking through.  5. Don’t let $300 go up in smoke. There's no smoking allowed in any Flatbook and a $300 fine for breaking this rule.  6. Unfortunately we don’t allow pets in any of our apartments. 7. Unless you’re staying in one of our specialty apartments, we don’t allow parties or excessive noise. 8. If we find the place very messy, we have to charge an extra $40 for every extra hour o",
6896034,Modern private apartment in historic brownstone,93519734061,unconfirmed,Damien,Brooklyn,Bushwick,40.689890000000005,-73.92128000000001,United States,US,True,strict,Entire home/apt,2011,$572 ,$114 ,2,147,6/18/2019,3.24,1,1,337,"House Rules 1. All bookings made at least a week before check in are fully refundable if cancelled within 24 hours of booking. After this, you will receive a 50% refund if you cancel at least 7 days before the start of your trip. 2. Check-in time is any time after 4 pm local time. If the unit is ready earlier, we’ll let you know. Check-out is normally 11 am local time, but we’d be happy to extend it as long as we don’t have a cleaning scheduled. Just let us know.  3. All bookings require a security deposit of at least $300. 4. For security measures we require all guests to provide proof of identification through ID verification on our own website. In order to check in, we'll need a photo of your ID.  5. Don’t let $300 go up in smoke. There's no smoking allowed in any Flatbook and a $300 fine for breaking this rule.  6. Unfortunately we don’t allow pets in most of our apartments. 7. Unless you’re staying in one of our specialty apartments, we don’t allow parties or excessive noise. 8. I",
6896586,Cute East Village 2 Bedroom Apt.,6315352790,unconfirmed,Amy,Manhattan,East Village,40.72504,-73.97905,United States,US,False,flexible,Entire home/apt,2004,$381 ,$76 ,1,146,6/19/2019,3.14,5,1,-10,,
6897139,Apartment share with stunning sunset views,85312944828,verified,Lauren,Manhattan,Theater District,40.76365,-73.98484,United States,US,True,strict,Private room,2006,$643 ,$129 ,1,0,,,5,1,261,Please take off your shoes outside of house. Keep clean in the kitchen and bathroom. This room is only for one person. ,
6897691,Comfy home in heart of Williamsburg,5448522580,unconfirmed,Ivory,Brooklyn,Williamsburg,40.71887,-73.96069,United States,US,False,moderate,Entire home/apt,2016,"$1,143 ",$229 ,1,0,,,3,1,247,"Please expect to share the apartment with guests having various backgrounds. Be respectful and decent, also enjoy interacting with each other. Please dress descent in the house especially in and out of the shower.",
6898243,Comfy garden level room at Brooklyn&Breakfast,9860928083,unconfirmed,Brooklyn&   Breakfast    -Len-,Brooklyn,Prospect Heights,40.678000000000004,-73.97118,United States,US,True,moderate,Private room,2020,"$1,100 ",$220 ,1,186,7/6/2019,3.99,1,13,27,"House Rules 1. Check-in is 4 pm local time. If the unit is ready earlier, we’ll let you know. Check-out is normally 11 am local time, but we’d be happy to extend it as long as we don’t have a cleaning scheduled. Just let us know.  2. All bookings require a security deposit of at least $300, which will be refunded within 7 days of your check-out. 3. For security measures we require all guests to provide proof of identification through ID verification on our own website. In order to check in we'll need a photo of your ID.  4. Our cancellation policy is as shown on our ad and defined by the site you are booking through.  5. Don’t let $300 go up in smoke. There's no smoking allowed in any Flatbook and a $300 fine for breaking this rule.  6. Unfortunately we don’t allow pets in any of our apartments. 7. Unless you’re staying in one of our specialty apartments, we don’t allow parties or excessive noise. 8. If we find the place very messy, we have to charge an extra $40 for every extra hour o",
6898795,Chelsea Charm: shared apartment,25073195599,unconfirmed,Essam,Manhattan,Chelsea,40.745129999999996,-74.00076,United States,US,True,moderate,Private room,2020,"$1,183 ",$237 ,3,100,6/26/2019,2.16,4,1,276,"You are free to help yourself to the cereal, milk, granola, and juice on the top shelf.  We won't be home to make breakfast but you are welcome to enjoy the pre-made items.  Everything should be on the top shelf.",
6899348,Beautiful Room in Greenpoint Loft,45287589611,verified,Minka,Brooklyn,Greenpoint,40.732659999999996,-73.95841,United States,US,False,strict,Private room,2014,$275 ,$55 ,3,0,,,5,1,278,Shoes off when in the house. No smoking inside. Try to keep it quiet.,
6899900,Penthouse Dream in Brooklyn,40128202421,verified,Amy,Brooklyn,Bedford-Stuyvesant,40.684979999999996,-73.93191999999999,United States,US,True,moderate,Entire home/apt,2007,"$1,047 ",$209 ,2,203,6/27/2019,4.55,4,4,116,,
6900452,Cosy double bedroom in Brooklyn #2,88463401226,verified,Sophie,Brooklyn,Bushwick,40.70015,-73.92693,United States,US,True,strict,Private room,2010,$336 ,$67 ,2,1,10/26/2015,0.02,1,2,291,"Do not break anything, leave it the way you found it (or better), do not steal anything. Have fun, have guests and have a good time.",
6901005,"Cozy Room, In Quiet Neighborhood",15539685847,unconfirmed,Alex,Queens,Ridgewood,40.704679999999996,-73.90553,United States,US,False,flexible,Private room,2009,$293 ,$59 ,2,1,10/13/2015,0.02,2,1,395,,
6901557,Monty,85229578113,unconfirmed,Monty,Brooklyn,East Flatbush,40.66383,-73.92706,United States,US,True,strict,Shared room,2018,$900 ,$180 ,2,7,10/30/2015,0.15,5,1,91,,
6902109,Crown Heights Stunner,78904420819,unconfirmed,Mandi,Brooklyn,Crown Heights,40.672109999999996,-73.94946999999999,United States,US,False,moderate,Entire home/apt,2022,$116 ,$23 ,2,0,,,2,1,190,,
6902662,-CENTRAL PARK - 3 stops by subway(32'' TV room),63231330460,unconfirmed,Gordon M,Manhattan,Harlem,40.8224,-73.95402,United States,US,False,strict,Private room,2017,$395 ,$79 ,2,34,5/1/2019,0.73,2,4,222,#NAME?,
6903214,Bed-Stuy Gem with Private Entrance,68077899567,verified,Bridgett,Brooklyn,Bedford-Stuyvesant,40.68805,-73.95103,United States,US,True,moderate,Private room,2006,$400 ,$80 ,2,255,6/27/2019,5.46,1,1,333,,
6903766,The Notorious B.N.B. {Custom},11873207426,unconfirmed,Jessica,Brooklyn,Clinton Hill,40.68971,-73.96695,United States,US,True,flexible,Private room,2011,$780 ,$156 ,1,20,1/3/2019,0.45,5,11,213,"No smoking or drugs. We try to keep the house clean, so we take off our shoes when we come in. We all work or go to grad school, so we like to keep the house clean and quiet.",
6904318,Beautiful Apartment in Manhattan NYC,34908851832,unconfirmed,Chester,Manhattan,Washington Heights,40.84111,-73.93698,United States,US,False,moderate,Private room,2004,$603 ,$121 ,3,157,7/5/2019,3.4,5,1,169,"I love meeting guests, and expect you to be clean and respectful of our shared space.",
6904871,Artist's Loft in Garment District,63379717989,verified,Anne,Manhattan,Hell's Kitchen,40.75383,-73.99535999999999,United States,US,True,flexible,Entire home/apt,2011,$597 ,$119 ,30,4,8/3/2018,0.09,4,1,3,#NAME?,
6905423,Lovely nest in Greenwich Village,4735991655,verified,Sam And Roxanna,Manhattan,Greenwich Village,40.72853,-73.99914,United States,US,True,strict,Entire home/apt,2018,$606 ,$121 ,2,146,6/20/2019,3.13,4,1,159,"We are a non-smoking apartment.  Thank you! Please inquire about pets and kids - we don't have any, but it's OK if you do as long as you know what you need to bring to accommodate! :)",
6905975,Artsy Studio near The Brooklyn Museum,77245681002,verified,David,Brooklyn,Crown Heights,40.6766,-73.95987,United States,US,True,strict,Entire home/apt,2020,"$1,011 ",$202 ,3,21,4/8/2019,1.06,5,1,114,"House Rules 1. Check-in is 4 pm local time. If the unit is ready earlier, we’ll let you know. Check-out is normally 11 am local time, but we’d be happy to extend it as long as we don’t have a cleaning scheduled. Just let us know.  2. All bookings require a security deposit of at least $300, which will be refunded within 7 days of your check-out. 3. For security measures we require all guests to provide proof of identification through ID verification on our own website. In order to check in we'll need a photo of your ID.  4. Our cancellation policy is as shown on our ad and defined by the site you are booking through.  5. Don’t let $300 go up in smoke. There's no smoking allowed in any Flatbook and a $300 fine for breaking this rule.  6. Unfortunately we don’t allow pets in any of our apartments. 7. Unless you’re staying in one of our specialty apartments, we don’t allow parties or excessive noise. 8. If we find the place very messy, we have to charge an extra $40 for every extra hour o",
6906528,Bright and Cozy Room Williamsburg,1269550503,verified,Lia,Brooklyn,Greenpoint,40.719229999999996,-73.95204,United States,US,True,strict,Private room,2010,$228 ,$46 ,1,31,6/21/2019,0.67,3,1,268,the female is better(最好是女性房客),
6907080,Bushwick Brooklyn Morgantown Oasis,70338390392,unconfirmed,Alec & Laura,Brooklyn,Bushwick,40.7043,-73.92719,United States,US,True,strict,Private room,2022,$431 ,$86 ,2,78,6/3/2019,1.79,1,1,20,I prefer those person Who would rent my room over 15 days once(Price will be lower) No smoking inside Cleaning my room at least one time in 3 days No other inappropriate actions on bed Thank you so much,
6907632,International Meeting Place_Room 4,50940255118,unconfirmed,Sinaly,Brooklyn,Flatlands,40.62802,-73.92729,United States,US,False,moderate,Private room,2014,$138 ,$28 ,4,9,5/27/2019,0.2,4,5,353,"No cologne/perfumed aftershaves/any sprays/candles/anything burning Non-smoker, no smoking in and out of home No guests/visitors Please be considered to other and make less noise NO street shoes indoor Light use of microwave/toaster oven, not for cooking Pick up after yourself No eating in bed Shower is not to be used 5.45 am-10 am to prevent long wait for bathroom",
6908185,Doorman Harlem Apt with Great Views,4424224008,verified,John,Manhattan,Harlem,40.81243,-73.9392,United States,US,True,flexible,Entire home/apt,2006,$921 ,$184 ,1,0,,,3,1,365,1) No Smoking in property!!!  2) Do not slam doors!!! Close lightly Please!!! 3) No Shoes in house (except slippers) 4) Quiet down AFTER 10PM.,
6908737,Bright 1BD in happening E Village,63069771422,verified,Caroline,Manhattan,East Village,40.72057,-73.97997,United States,US,True,flexible,Entire home/apt,2007,"$1,063 ",$213 ,31,2,4/1/2016,0.04,3,1,247,"Quiet, clean, respectable, no smoking  Yes you can practice violin etc (*extra credit if you're a music student/musician, duh~)",
6909289,1-Bedroom Apartment in Heart of UWS,83116815353,verified,Ben,Manhattan,Upper West Side,40.77832,-73.98069,United States,US,True,strict,Entire home/apt,2020,$51 ,$10 ,2,0,,,2,1,239,"No drugs/ No loud sex ( sound easily go through to my roomie's room next door ) / ID copy required for check in, and it need to match your credit card information/ Please try to be nice to my fellow roomies, they are all both from China, really organized and nice guys, we are all go to Boston University, we tried really hard to keep this house clean and in the order./ Lost keys charge: $10.02",
6909841,"Cozy, light, private room",28337156032,unconfirmed,Dmitry,Brooklyn,Bushwick,40.6972,-73.92697,United States,US,False,flexible,Private room,2013,$861 ,$172 ,3,0,,,3,1,340,This is a non-smoking unit.,
6910394,Bold and bodacious in the fall,1501579207,unconfirmed,Valvil,Brooklyn,Flatbush,40.64438,-73.95408,United States,US,False,flexible,Private room,2004,$865 ,$173 ,5,4,9/10/2018,0.09,3,1,281,"Clean, tidy & respectful. However PLEASE make yourself at home!",
6910946,1st Fl Comfortable Room in Manhatan,34272223518,unconfirmed,Cristian,Manhattan,Washington Heights,40.85369,-73.93186999999999,United States,US,False,flexible,Private room,2005,$828 ,$166 ,3,8,6/17/2019,0.2,4,2,267,,
6911498,"Sunny, spacious, bedroom for rent",81526687765,unconfirmed,Lindsey,Brooklyn,Bushwick,40.69017,-73.91291,United States,US,True,strict,Private room,2003,$622 ,$124 ,15,0,,,4,1,102,No smoking,
6912051,"Beautiful Astoria Apt 1BR, 2bath",64341423550,verified,Lindsay,Queens,Astoria,40.7713,-73.92628,United States,US,False,moderate,Entire home/apt,2004,$342 ,$68 ,1,2,1/2/2016,0.05,3,1,22,#NAME?,
6912603,Nice Studio in Hell's kitchen,81465155942,verified,Rebecca,Manhattan,Hell's Kitchen,40.76016,-73.98929,United States,US,False,moderate,Entire home/apt,2011,$580 ,$116 ,4,5,6/12/2016,0.11,2,1,247,"Please remember that this is a residential building. The building rules, apartment occupancy restrictions and the year-round tenants must be respected.  Parties, pets and smoking are not allowed under any circumstances and incur significant fees. ",
6913155,Brand new Williamsburg apt!,95265150146,verified,Oran,Brooklyn,Williamsburg,40.70828,-73.95246,United States,US,False,strict,Private room,2004,$481 ,$96 ,7,1,9/18/2015,0.02,5,1,13,"Please remember that this is a residential building. The building rules, apartment occupancy restrictions and the year-round tenants must be respected.  Parties, pets and smoking are not allowed under any circumstances and incur significant fees.",
6913708,"Quiet room in Greenpoint, Brooklyn",22693342014,verified,Dee,Brooklyn,Greenpoint,40.72784,-73.94937,United States,US,True,moderate,Private room,2014,$687 ,$137 ,1,1,9/21/2015,0.02,5,1,270,"It is very quiet neighborhood,  -No party is allowed in the apt. And  -please keep quiet at late time,after 10:00pm.  - Please take off shoes in the apt.  - Please turn off the central air when leave. You can leave the key and parking permit on table and lock the door. Thanks. Please feel free to let me know you have any question. Thanks.",
6914260,Large & Cozy Manhattan LES 2BR Apt,85579097295,verified,Mostafa,Manhattan,Lower East Side,40.71868,-73.99036,United States,US,False,flexible,Entire home/apt,2015,$918 ,$184 ,13,1,9/28/2015,0.02,4,1,283,,
6914812,Charming Studio + Private Balcony,375496196,verified,Michael,Manhattan,East Village,40.72765,-73.98634,United States,US,False,flexible,Entire home/apt,2012,$744 ,$149 ,3,72,3/23/2019,1.56,2,1,317,,
6915364,I bedroom w/ private bathroom,41117560720,verified,Crystal & Allan,Manhattan,Harlem,40.802040000000005,-73.95794000000001,United States,US,False,flexible,Private room,2018,"$1,097 ",$219 ,2,21,6/21/2019,0.45,3,1,389,,
6915917,"Sunlit, Spacious & Near train",97313999325,unconfirmed,Robert,Manhattan,Washington Heights,40.85415,-73.93108000000001,United States,US,True,moderate,Private room,2020,$279 ,$56 ,2,9,1/16/2016,0.2,3,1,24,Shoes off preferred.,
6916469,Private Room 12x12 close to manhattan,61727519990,unconfirmed,Ashley,Queens,Maspeth,40.721940000000004,-73.91138000000001,United States,US,True,flexible,Private room,2016,$931 ,$186 ,1,85,6/30/2019,1.85,3,1,213,,
6917021,"Waterfront, perfect NYC getaway!",10173677643,verified,Frank And Anna,Bronx,Throgs Neck,40.81476,-73.80001,United States,US,False,flexible,Entire home/apt,2008,$607 ,$121 ,2,44,7/2/2019,2.23,4,1,272,"1. No damage to the house or furniture 2. No Smoking, No Pets, No Drugs 3. No more sleepover people then you booked 4. Keep quiet after 11:00 PM 5. Be respectful to neighbors 6. Keep the kitchen clean after used 7. Keep the bathroom clean after used 8. Return “Parking Permit"" before check out 9. Check-in: 3PM, Check-out: 11:00AM",
6917574,Large Brooklyn Apt Artsy & Centric,76014874838,verified,Paul,Brooklyn,Bushwick,40.69836,-73.93521,United States,US,False,flexible,Entire home/apt,2014,$380 ,$76 ,1,201,6/24/2019,4.37,5,1,410,- Please clean tools after you use kitchen - Please keep quite after 11pm,
6918126,West Village: the best part of town,64380900115,verified,Andrew,Manhattan,West Village,40.73618,-74.00201,United States,US,False,flexible,Private room,2011,$77 ,$15 ,1,0,,,5,1,330,,
6918678,Spacious Sunny Rm in Stylish Duplex,43185193948,verified,Keith,Brooklyn,Bedford-Stuyvesant,40.681670000000004,-73.92525,United States,US,False,strict,Private room,2004,$144 ,$29 ,3,13,8/14/2017,0.28,4,2,201,,
6919231,1 large bedroom 10mins to Manhattan,45202946191,unconfirmed,Yuxi,Queens,Long Island City,40.75363,-73.93463,United States,US,False,moderate,Private room,2020,$246 ,$49 ,3,1,9/14/2015,0.02,2,1,230,,
6919783,Charming Crown Heights Brownstone,49698577711,unconfirmed,Tilly,Brooklyn,Crown Heights,40.67791,-73.95336999999999,United States,US,False,strict,Entire home/apt,2010,$619 ,$124 ,3,0,,,4,2,101,,
6920335,Room #3 Near Manhattan NYC.,43062873134,unconfirmed,Shahana,Brooklyn,Brownsville,40.67065,-73.91643,United States,US,True,moderate,Private room,2012,"$1,147 ",$229 ,1,45,5/21/2019,0.97,3,10,148,"1. No damage to the house or furniture 2. No Smoking, No Pets, No Drugs 3. No more sleepover people then you booked 4. Keep quiet after 11:00 PM 5. Be respectful to neighbors 6. Keep the kitchen clean after used 7. Keep the bathroom clean after used 8. Check-in: 3PM, Check-out: 11:00AM",
6920887,Zee's Brooklyn nest,41378137052,verified,Nazifa,Brooklyn,Kensington,40.64125,-73.9763,United States,US,False,flexible,Private room,2019,$212 ,$42 ,2,7,7/3/2019,2.63,2,1,240,,
6921440,"Heart of W. Village 1-BR, Renovated",28216427816,verified,Catrina,Manhattan,West Village,40.73418,-74.0046,United States,US,False,strict,Entire home/apt,2010,$565 ,$113 ,3,117,1/11/2018,2.58,3,1,322,,
6921992,NYC Lofted Room in the Lower East Side,11750151301,unconfirmed,Amanda,Manhattan,East Village,40.72255,-73.97813000000001,United States,US,False,moderate,Private room,2015,$135 ,$27 ,5,92,6/7/2019,2.01,2,2,319,"1. No damage to the house or furniture 2. No Smoking, No Pets, No Drugs 3. No more sleepover people then you booked 4. Keep quiet after 11:00 PM 5. Be respectful to neighbors 6. Keep the kitchen clean after used 7. Keep the bathroom clean after used 8. Check-in: 3PM, Check-out: 11:00AM",
6922544,Private Bedroom Near Manhattan NYC,22959452918,unconfirmed,Shahana,Brooklyn,Crown Heights,40.67115,-73.91620999999999,United States,US,True,flexible,Private room,2012,$577 ,$115 ,1,70,6/21/2019,1.51,3,10,294,,
6923097,Cute Sunny Loft Space Williamsburg,57749402227,verified,Alice,Brooklyn,Williamsburg,40.71219,-73.95623,United States,US,True,moderate,Private room,2008,"$1,190 ",$238 ,2,71,6/24/2019,1.53,2,1,201,This is a non smoking apartment. No l,
6923649,large house with inground pool/spa,33967406422,unconfirmed,Miran,Staten Island,Todt Hill,40.60926,-74.10092,United States,US,False,moderate,Entire home/apt,2020,$340 ,$68 ,2,4,11/6/2015,0.09,4,1,-1,Keep in mind your neighbors are very close.  Excessive noise and unacceptable behavior will not be tolerated.,
6924201,Classic Harlem --- Economy Room,26569030181,verified,Glenda,Manhattan,Harlem,40.82205,-73.9467,United States,US,False,flexible,Private room,2009,$715 ,$143 ,1,161,6/17/2019,3.46,4,3,402,"1. No damage to the house or furniture 2. No Smoking, No Pets, No Drugs 3. No more sleepover people then you booked 4. Keep quiet after 11:00 PM 5. Be respectful to neighbors 6. Keep the kitchen clean after used 7. Keep the bathroom clean after used 8. Check-in: 3PM, Check-out: 11:00AM",
6924754,Large Beautiful BedStuy Apartment,92763942404,verified,Alexandra,Brooklyn,Bedford-Stuyvesant,40.681779999999996,-73.94179,United States,US,False,flexible,Entire home/apt,2021,$941 ,$188 ,2,1,10/27/2015,0.02,5,1,254,#NAME?,
6925306,NOHO ART LOFT ON LAFAYETTE. BEST LOCATION IN NYC,64607982993,verified,Max,Manhattan,NoHo,40.72847,-73.99302,United States,US,False,strict,Entire home/apt,2020,$430 ,$86 ,2,31,7/1/2019,1.29,5,1,414,,
6925858,Private room in middle of Bushwick,1727965442,unconfirmed,Erin,Brooklyn,Bushwick,40.70299,-73.92648,United States,US,False,moderate,Private room,2013,$422 ,$84 ,1,4,10/10/2015,0.09,3,1,41,"- Please be respectful of the household, if you need anything, just ask.  - No smoking in unit. - No loud noises after 10PM.",
6926410,Great new 1 bdrm condo in Greenwood :),60324878894,verified,Christine,Brooklyn,Sunset Park,40.65585,-73.99918000000001,United States,US,False,strict,Entire home/apt,2018,$900 ,$180 ,1,1,9/21/2015,0.02,4,1,124,"1. No damage to the house or furniture 2. No Smoking, No Pets, No Drugs 3. No more sleepover people then you booked 4. Keep quiet after 11:00 PM 5. Be respectful to neighbors 6. Keep the kitchen clean after used 7. Keep the bathroom clean after used 8. Check-in: 3PM, Check-out: 11:00AM",
6926963,"Safe,Convenient,economical,Clean 2",12885563398,unconfirmed,Danny,Brooklyn,Crown Heights,40.67743,-73.95523,United States,US,True,flexible,Entire home/apt,2017,$156 ,$31 ,4,61,6/30/2019,1.33,1,1,231,"- Washer/dryer coinup in apartment basement. - There is no set check-in time. I can accommodate you, and I may not even be on the premises. The last date offered in the calendar is the vacate date not the last night. - May be available on Sunday the 21st.",
6927515,Luis and Melanie's B and B,42221592533,verified,Luis,Brooklyn,Bushwick,40.6938,-73.92562,United States,US,True,strict,Entire home/apt,2018,$306 ,$61 ,5,85,6/15/2019,1.84,5,1,212,,
6928067,*Lovely Apt in Heart of Park Slope*,69145398432,unconfirmed,Andrew,Brooklyn,Park Slope,40.66826,-73.98223,United States,US,True,moderate,Entire home/apt,2010,"$1,138 ",$228 ,30,26,12/12/2018,0.56,4,2,161,"House Rules 1. All bookings made at least a week before check in are fully refundable if cancelled within 24 hours of booking. After this, you will receive a 50% refund if you cancel at least 7 days before the start of your trip. 2. Check-in time is any time after 4 pm local time. If the unit is ready earlier, we’ll let you know. Check-out is normally 11 am local time, but we’d be happy to extend it as long as we don’t have a cleaning scheduled. Just let us know.  3. All bookings require a security deposit of at least $300. 4. For security measures we require all guests to provide proof of identification through ID verification on our own website. In order to check in, we'll need a photo of your ID.  5. Don’t let $300 go up in smoke. There's no smoking allowed in any Flatbook and a $300 fine for breaking this rule.  6. Unfortunately we don’t allow pets in most of our apartments. 7. Unless you’re staying in one of our specialty apartments, we don’t allow parties or excessive noise. 8. I",
6928620,Spacious apartment in trendy neighborhood,28767721252,unconfirmed,Candy,Manhattan,Greenwich Village,40.72681,-73.99951999999999,United States,US,True,moderate,Entire home/apt,2014,$197 ,$39 ,1,72,1/18/2019,1.8,1,1,87,"1. No damage to the house or furniture 2. No Smoking, No Pets, No Drugs 3. No more sleepover people then you booked 4. Keep quiet after 11:00 PM 5. Be respectful to neighbors 6. Keep the kitchen clean after used 7. Keep the bathroom clean after used 8. Check-in: 3PM, Check-out: 11:00AM",
6929172,"Sanctuary Oasis, Midtown Manhattan",54115799881,verified,Romona,Manhattan,Kips Bay,40.74123,-73.97731,United States,US,False,strict,Entire home/apt,2006,$817 ,$163 ,7,2,10/30/2015,0.04,1,1,327,"Please know this is my 2 bedroom condo that I live in full time. I am happy to allow access to the kitchen, living room, balcony/grill with the understanding that you will respect my space and belongings. Please clean up after yourselves- dishes in dishwasher if used, take out trash before leaving, ect.. Also, please be respectful of the other tenants in the building. No loud music or parties.",
6929724,awesome private studio on ues !,61431986029,verified,Jared,Manhattan,Upper East Side,40.78086,-73.94974,United States,US,True,moderate,Entire home/apt,2013,$573 ,$115 ,14,3,12/10/2015,0.07,3,1,224,,
6930277,Cozy Private Room Near Bronx Zoo,50689849643,verified,Stephanie,Bronx,West Farms,40.84328,-73.88173,United States,US,True,flexible,Private room,2018,$302 ,$60 ,1,3,10/8/2018,0.16,4,1,249,Guests cannot wear shoes in the house.,
6930829,East Village apt w/ ESB views,14479347113,verified,Mickey,Manhattan,East Village,40.72305,-73.98834000000001,United States,US,False,strict,Private room,2004,$195 ,$39 ,2,10,8/27/2017,0.31,5,1,75,"House Rules 1. All bookings made at least a week before check in are fully refundable if cancelled within 24 hours of booking. After this, you will receive a 50% refund if you cancel at least 7 days before the start of your trip. 2. Check-in time is any time after 4 pm local time. If the unit is ready earlier, we’ll let you know. Check-out is normally 11 am local time, but we’d be happy to extend it as long as we don’t have a cleaning scheduled. Just let us know.  3. All bookings require a security deposit of at least $300. 4. For security measures we require all guests to provide proof of identification through ID verification on our own website. In order to check in, we'll need a photo of your ID.  5. Don’t let $300 go up in smoke. There's no smoking allowed in any Flatbook and a $300 fine for breaking this rule.  6. Unfortunately we don’t allow pets in most of our apartments. 7. Unless you’re staying in one of our specialty apartments, we don’t allow parties or excessive noise. 8. I",
6931381,2 bedroom in Stuyvesant Heights,49096853418,verified,Anthony,Brooklyn,Bedford-Stuyvesant,40.68137,-73.94233,United States,US,False,moderate,Private room,2014,"$1,118 ",$224 ,4,84,5/8/2019,1.83,3,1,183,,
6931933,"Cozy, comfortable private room",95399032513,verified,Gabriela,Brooklyn,Bedford-Stuyvesant,40.68632,-73.95093,United States,US,True,strict,Private room,2006,$344 ,$69 ,2,2,1/1/2019,0.04,4,1,260,,
6932486,Bright Bedroom in a Brooklyn Loft,92950240155,verified,Grete,Brooklyn,Downtown Brooklyn,40.69579,-73.98295999999999,United States,US,False,strict,Private room,2010,$337 ,$67 ,4,65,12/22/2017,1.43,1,1,412,"1. No damage to the house or furniture 2. No Smoking, No Pets, No Drugs 3. No more sleepover people then you booked 4. Keep quiet after 11:00 PM 5. Be respectful to neighbors 6. Keep the kitchen clean after used 7. Keep the bathroom clean after used 8. Check-in: 3PM, Check-out: 11:00AM",
6933038,Cozy and Comfortable,89498253147,verified,Michael,Queens,Astoria,40.76599,-73.91776999999999,United States,US,False,flexible,Private room,2019,"$1,090 ",$218 ,3,0,,,4,1,179,,
6933590,Ridgewood/Bushwick ~ Bungalow,23718723107,unconfirmed,Ian,Queens,Ridgewood,40.70995,-73.90959000000001,United States,US,True,moderate,Entire home/apt,2022,$943 ,$189 ,4,6,1/4/2017,0.13,3,1,128,- Multiple night discounts apply for 3 or more nights,
6934143,Beautiful Private Room and Bath in Historic Harlem,3373832044,unconfirmed,Julie,Manhattan,Harlem,40.82137,-73.94769000000001,United States,US,True,strict,Private room,2021,$751 ,$150 ,2,57,12/10/2018,1.48,3,1,110,,
6934695,Private Floor in SOHO Townhouse,45165279192,verified,Scott,Manhattan,SoHo,40.724090000000004,-74.00241,United States,US,True,strict,Private room,2021,"$1,101 ",$220 ,3,107,6/23/2019,2.69,4,2,174,,
6935247,Room #5 Near Manhattan NYC.,92780269828,unconfirmed,Shahana,Brooklyn,Crown Heights,40.67073,-73.91799,United States,US,True,moderate,Private room,2020,$85 ,$17 ,1,62,11/25/2018,1.34,2,10,424,"1. No damage to the house or furniture 2. No Smoking, No Pets, No Drugs 3. No more sleepover people then you booked 4. Keep quiet after 11:00 PM 5. Be respectful to neighbors 6. Keep the kitchen clean after used 7. Keep the bathroom clean after used 8. Check-in: 3PM, Check-out: 11:00AM",
6935800,Dreamy Private Bedroom Near Manhattan NYC.,3619095098,verified,Shahana,Brooklyn,Crown Heights,40.67112,-73.91685,United States,US,False,moderate,Private room,2015,$782 ,$156 ,1,73,5/10/2019,1.57,1,10,159,,
6936352,Sunny Clean Bedroom,86698238239,unconfirmed,Anamaria & Ricardo,Manhattan,East Harlem,40.78987,-73.94883,United States,US,False,strict,Private room,2014,$651 ,$130 ,2,13,1/2/2019,0.28,1,2,49,Clean up and treat the home the way you'd like your home to be treated.  No smoking.,
