id,NAME,host id,host_identity_verified,host name,neighbourhood group,neighbourhood,lat,long,country,country code,instant_bookable,cancellation_policy,room type,Construction year,price,service fee,minimum nights,number of reviews,last review,reviews per month,review rate number,calculated host listings count,availability 365,house_rules,license
13593776,Private Room in Homey Roosevelt Island Apartment,80885901698,unconfirmed,Kate,Manhattan,Roosevelt Island,40.76208,-73.94954,United States,US,True,moderate,Private room,2017,$499 ,$100 ,2,85,6/30/2019,3.28,2,1,211,"No smoking, no pets. Please keep the noise at a respectful level at all times - *particularly after 10pm (as other units in the building are owner-occupied). Please treat it as though it were your own home.",
13594328,"Bright, modern room with a view of NYC skyline",44788592299,unconfirmed,Joonas,Brooklyn,Bushwick,40.70028,-73.92439,United States,US,True,moderate,Private room,2017,$635 ,$127 ,5,16,6/24/2019,0.61,5,1,37,No smoking. Not pets/animals. No parties or events. No entertaining beyond confirmed booked guests.,
13594881,"Bright, private room in Bushwick w/ AC",94839368491,unconfirmed,Virginia,Brooklyn,Bushwick,40.68717,-73.91708,United States,US,False,flexible,Private room,2011,$200 ,$40 ,1,100,6/23/2019,4.03,1,1,2,,
13595433,Great Location TimeSquare studio APT,67538618587,verified,Brian,Manhattan,Hell's Kitchen,40.76341,-73.99051,United States,US,True,flexible,Entire home/apt,2005,$324 ,$65 ,1,12,7/1/2017,0.45,1,1,0,"Absolutely no smoking, no pets, parties or excessive noise in the apartment.  This is a quiet residential building, perfect for travelers wanting a quiet refuge at the end of a fun filled day in Greater Boston.",
13595985,"Bright, comfortable 1B studio near everything!",30434416089,unconfirmed,Connie Mae,Queens,Ditmars Steinway,40.77414,-73.91625,United States,US,True,moderate,Entire home/apt,2013,$937 ,$187 ,6,0,,,5,1,0,"House rules: Guests agree to the following terms and conditions 1.Guest(s) agree to NO PARTIES anywhere on the property. Legal action will be taken for parties that cause damages to the unit, property, reputation, or relationship with building staff or other residents.  2.Smoking of any kind is not permitted in the unit or on the premises.  3.Guests agree to abide by maximum occupancy of unit, and observe quiet hours between 9pm and 9am 4.Guests are responsible for action of ALL GUESTS occupying their unit at all times.  5.Guests agree to return all keys, remotes, and parking passes. Replacement fees may apply for unreturned items 6.Guests understand that onsite building staff (maintenance and concierge) are not affiliated with Jordan or AIRBNB. Please contact me directly for any needed items. 7.Guests understand that no pets are to be in the unit.  8.Guests agree to pay replacement cost for any unreturned items, and $125 per hour fee for unauthorized early checkin or late checkout.  15",
13596538,Comfortable One bedroom Harlem Aprt,77586693387,verified,Lyvan Esteban,Manhattan,Harlem,40.81752,-73.94162,United States,US,False,strict,Entire home/apt,2004,$795 ,$159 ,2,40,6/30/2019,1.51,5,1,0,"Please remember that this is a residential building. The building rules, apartment occupancy restrictions and the year-round tenants must be respected.",
13597090,Private room walking distance from Prospect park,32015789690,verified,Jolanta,Brooklyn,Flatbush,40.653059999999996,-73.95506999999999,United States,US,True,flexible,Private room,2010,$842 ,$168 ,7,17,11/5/2018,0.72,4,1,0,"No smoking, no parties, no pets.",
13597642,Neat Cozy  room attached by PRIVATE FULL BATHROOM,94551098162,unconfirmed,Jimmy &Cindy,Queens,Flushing,40.755559999999996,-73.81205,United States,US,False,moderate,Private room,2005,$248 ,$50 ,2,79,6/18/2019,3.15,4,10,346,"Please remember that this is a residential building. The building rules, apartment occupancy restrictions and the year-round tenants must be respected.  Parties, pets and smoking are not allowed under any circumstances and incur significant fees.",
13598194,Spring in Bed Stuy,87411790217,verified,Angela,Brooklyn,Bedford-Stuyvesant,40.68257,-73.9279,United States,US,False,moderate,Entire home/apt,2003,$935 ,$187 ,2,77,6/21/2019,2.96,2,1,277,No Smoking,
13598747,Comfy & Cozy In Brooklyn,17035421312,verified,Brian,Brooklyn,Crown Heights,40.67238,-73.91488000000001,United States,US,False,moderate,Private room,2022,$825 ,$165 ,2,39,5/3/2019,1.53,5,2,84,"House rules: Guests agree to the following terms and conditions 1.Guest(s) agree to NO PARTIES anywhere on the property. Legal action will be taken for parties that cause damages to the unit, property, reputation, or relationship with building staff or other residents.  2.Smoking of any kind is not permitted in the unit or on the premises.  3.Guests agree to abide by maximum occupancy of unit, and observe quiet hours between 9pm and 9am 4.Guests are responsible for action of ALL GUESTS occupying their unit at all times.  5.Guests agree to return all keys, remotes, and parking passes. Replacement fees may apply for unreturned items 6.Guests understand that onsite building staff (maintenance and concierge) are not affiliated with Jordan or AIRBNB. Please contact me directly for any needed items. 7.Guests understand that no pets are to be in the unit.  8.Guests agree to pay replacement cost for any unreturned items, and $125 per hour fee for unauthorized early checkin or late checkout.  15",
13599299,Brooklyn Home away from Home,83077368189,verified,Azzie,Brooklyn,Crown Heights,40.66515,-73.95186,United States,US,False,strict,Private room,2004,$153 ,$31 ,1,28,6/24/2019,1.92,5,1,88,No Smoking,
13599851,Cozy bedroom off J Train,5985392002,unconfirmed,Jenny,Brooklyn,Bedford-Stuyvesant,40.69178,-73.92838,United States,US,False,strict,Private room,2008,$773 ,$155 ,1,4,6/9/2017,0.15,4,1,0,,
13600404,Beautiful Artist Loft in South Williamsburg,31389400396,verified,Paul,Brooklyn,Williamsburg,40.7126,-73.96347,United States,US,False,moderate,Entire home/apt,2019,$287 ,$57 ,3,4,9/25/2017,0.15,2,1,0,ABSOLUTELY NO SMOKING.,
13600956,Cozy Corner,19943728616,unconfirmed,Kevin,Manhattan,Morningside Heights,40.8151,-73.96091,United States,US,False,strict,Private room,2005,$908 ,$182 ,2,0,,,4,1,0,"House Rules 1. Check-in is 4 pm local time. If the unit is ready earlier, we’ll let you know. Check-out is normally 11 am local time, but we’d be happy to extend it as long as we don’t have a cleaning scheduled. Just let us know.  2. All bookings require a security deposit of at least $300, which will be refunded within 7 days of your check-out. 3. For security measures we require all guests to provide proof of identification through ID verification on our own website. In order to check in we'll need a photo of your ID.  4. Our cancellation policy is as shown on our ad and defined by the site you are booking through.  5. Don’t let $300 go up in smoke. There's no smoking allowed in any Flatbook and a $300 fine for breaking this rule.  6. Unfortunately we don’t allow pets in any of our apartments. 7. Unless you’re staying in one of our specialty apartments, we don’t allow parties or excessive noise. 8. If we find the place very messy, we have to charge an extra $40 for every extra hour o",
13601508,The Grand Macon,77939853522,verified,Sumaiya,Brooklyn,Bedford-Stuyvesant,40.68248,-73.93316999999999,United States,US,True,moderate,Entire home/apt,2012,"$1,135 ",$227 ,4,67,6/22/2019,2.66,1,1,74,,
13602061,SUNNY PLACE in Sunnyside,76297979138,unconfirmed,Vadim,Queens,Sunnyside,40.736740000000005,-73.9136,United States,US,False,strict,Private room,2006,$329 ,$66 ,3,8,6/18/2017,0.3,4,1,0,No party No alcohol,
13602613,Remodeled 20min train to enter city 5min to subway,93319883041,verified,Jason,Brooklyn,Borough Park,40.639520000000005,-73.98205,United States,US,True,moderate,Private room,2021,$296 ,$59 ,2,126,7/5/2019,4.82,4,2,45,"Please remember that this is a residential building. The building rules, apartment occupancy restrictions and the year-round tenants must be respected.",
13603165,BEST ROOF in East Village + Gorgeous Modern Apt,22643514380,verified,Loren,Manhattan,East Village,40.72603,-73.97717,United States,US,False,strict,Entire home/apt,2016,$673 ,$135 ,3,10,1/2/2019,0.43,5,1,0,No smoking or partying.,
13603717,Bright XL room in Hamilton Heights/Sugar Hill,36825392434,verified,Peter & Gabe,Manhattan,Harlem,40.82444,-73.94525,United States,US,True,flexible,Private room,2018,$215 ,$43 ,2,136,7/2/2019,5.13,4,1,204,,
13604270,Beautiful Private Room Near Manhattan & JFK,59426273133,verified,Alana,Brooklyn,Bensonhurst,40.612770000000005,-73.99695,United States,US,True,flexible,Private room,2008,$149 ,$30 ,3,43,6/13/2019,1.65,5,2,173,,
13604822,The Justice Tower 1,83773805501,verified,Xolie,Brooklyn,Clinton Hill,40.6929,-73.96656999999999,United States,US,True,moderate,Private room,2006,$454 ,$91 ,2,5,8/28/2017,0.19,2,4,350,We provide this in the apartment. Residential neighborhood.  Quiet is important.  No smoking. No pets,
13605374,The Justice Tower 2,40323100641,verified,Xolie,Brooklyn,Clinton Hill,40.69455,-73.96763,United States,US,False,strict,Private room,2015,$639 ,$128 ,2,11,10/15/2017,0.43,5,4,347,"Maximum of 2 people over 21 years of age may stay in this studio. There is a one week minimum stay and there is little if any parking available. Sorry, no children and no pets. This place is best for people visiting Boston for conferences, research, or being near family. It is not a resort and there are strict condominium rules about quiet and privacy.",
13605927,Cozy one bedroom apartment in the Lower East Side,94503801069,unconfirmed,Hadas,Manhattan,Lower East Side,40.71862,-73.9836,United States,US,False,moderate,Entire home/apt,2008,$94 ,$19 ,14,1,3/1/2018,0.06,1,1,0,The apartment is non-smoking and pets are not allowed.,
13606479,Studio in Chelsea,29984078514,unconfirmed,Shayan,Manhattan,Chelsea,40.74569,-73.99687,United States,US,True,flexible,Entire home/apt,2015,$526 ,$105 ,1,12,3/6/2019,0.6,2,1,8,,
13607031,Private and quiet room near Columbia University,44021759349,verified,Jose Vicente,Manhattan,Morningside Heights,40.81651,-73.95924000000001,United States,US,True,flexible,Private room,2005,$856 ,$171 ,5,1,5/23/2017,0.04,5,2,0,,
13607584,Enormous studio in East Harlem,15435922034,unconfirmed,Camille,Manhattan,East Harlem,40.799209999999995,-73.9387,United States,US,False,strict,Entire home/apt,2019,"$1,128 ",$226 ,1,0,,,1,1,0,,
13608136,"Sunny, Spacious, Private Room Close to Train!",62710045588,unconfirmed,Melody,Manhattan,Washington Heights,40.83716,-73.94048000000001,United States,US,True,flexible,Private room,2016,$254 ,$51 ,7,1,5/25/2017,0.04,3,1,0,"We need to know your arrival time ALMOST 2 days before your arrival, as we need to plan arrivals and cleaning, so it's to guarantee you that you will find the flat clean and ready at your arrival. - Check out is 10:00am and if you will be late, we can charge a late check out fee (min $25) and any damage that your delay can cause to the incoming guest or to the cleaning service. - Smoking is not allowed as are loud noises after 10pm or before 9am. - Guests are not allowed to have extra guests. - A regular check out cleaning is included in the price but it doesn't mean that we will wash your dishes or pick up the garbage all around the house, so please use the trash bin and clean after using the kitchen, if not we will take pictures and charge you the extra cleaning. - There is no daily cleaning service during your stay or any change of linen/towels if you're staying more than 3 nights we can agree a change of towels (only), just ask us in advance. We're here to do the best for our guest",
13608688,Large & Cozy One-Bedroom Apartment in Queens,83869603598,verified,Mikanny,Queens,Jackson Heights,40.75292,-73.88129,United States,US,True,strict,Entire home/apt,2005,$811 ,$162 ,6,2,1/2/2019,0.11,4,1,195,,
13609240,Conveniently located private room in Brooklyn,94838898912,verified,Emanuele,Brooklyn,Bushwick,40.70113,-73.91385,United States,US,True,flexible,Private room,2011,$172 ,$34 ,1,9,7/3/2017,0.34,1,1,0,"Please remember that this is a residential building. The building rules, apartment occupancy restrictions and the year-round tenants must be respected.  Parties and smoking are not allowed under any circumstances and incur significant fees. Parties and smoking are not allowed under any circumstances and incur significant fees. Pets may be considered with pre-approval and an additional pet fee.",
13609793,Sunny 1 bedroom in spacious 2 bedroom apt.,82586147029,verified,Jessica,Brooklyn,Crown Heights,40.66364,-73.95725,United States,US,False,strict,Private room,2017,"$1,034 ",$207 ,30,21,5/8/2019,0.81,3,1,1,#NAME?,
13610345,Spacious private room in a 3br in Bushwick,21678406161,unconfirmed,Arielle,Brooklyn,Bushwick,40.686440000000005,-73.91064,United States,US,False,moderate,Private room,2018,$599 ,$120 ,7,0,,,4,1,0,Please no smoking in any of the inside premises or on the roof deck; no loud music; no moving or rearranging furniture; and no guests beyond those indicated at booking (without clearing with owner first).,
13610897,Simple bright room for 1-2 people.,40801131324,verified,Ava,Brooklyn,Bushwick,40.69983,-73.91625,United States,US,False,moderate,Private room,2011,"$1,158 ",$232 ,3,7,6/1/2017,0.26,3,1,12,"Please remember that this is a residential building. The building rules, apartment occupancy restrictions and the year-round tenants must be respected.",
13611450,Sunny Duplex 2 bdr apt in the heart of Harlem,88673776043,unconfirmed,Joffrey,Manhattan,Harlem,40.8125,-73.94151,United States,US,False,moderate,Entire home/apt,2006,$849 ,$170 ,3,35,6/23/2019,1.36,2,2,40,"The apartment feels larger then listed, Nice high ceiling in the living room and an Island kitchen to enjoy breakfast.  The bedroom has a loft that fit a queen mattress, hardwood floors through out.  Bathroom has a bath tub",
13612002,Sunny Parlor Apt in Flatbush Townhouse (furnished),36737135601,unconfirmed,Christina,Brooklyn,Flatbush,40.64493,-73.95488,United States,US,False,moderate,Entire home/apt,2005,$433 ,$87 ,6,14,3/24/2019,0.53,3,3,339,,
13612554,Glamorous one bedroom apartment in Brooklyn,75768925061,unconfirmed,Foster,Brooklyn,Prospect Heights,40.67696,-73.96669,United States,US,False,flexible,Entire home/apt,2021,$823 ,$165 ,2,21,6/29/2019,3.73,1,1,146,"No smoking in the apartment, in the building or outside of the building.  We ask that you be quiet and respectful of our neighbors.",
13613107,Heart of Greenpoint,4744182939,verified,Gustavo,Brooklyn,Greenpoint,40.72995,-73.95498,United States,US,True,strict,Entire home/apt,2004,$291 ,$58 ,15,3,9/3/2017,0.12,2,1,342,No smoking is a MUST. Fireplace is decorative only. No candles may be lit - I do have battery operated available.,
13613659,IT'S SIMPLY CONVENIENT!,79401779274,verified,Maria,Queens,Jamaica,40.69085,-73.79916,United States,US,False,flexible,Entire home/apt,2016,$64 ,$13 ,1,43,6/12/2019,1.68,4,1,252,No smoking or parties allowed,
13614211,Piece of home in the East Village,43411577314,verified,Nigel,Manhattan,East Village,40.72588,-73.98827,United States,US,False,strict,Entire home/apt,2008,$808 ,$162 ,2,0,,,2,1,0,"House Rules 1. Check-in is 4 pm local time. If the unit is ready earlier, we’ll let you know. Check-out is normally 11 am local time, but we’d be happy to extend it as long as we don’t have a cleaning scheduled. Just let us know.  2. All bookings require a security deposit of at least $300, which will be refunded within 7 days of your check-out. 3. For security measures we require all guests to provide proof of identification through ID verification on our own website. In order to check in we'll need a photo of your ID.  4. Our cancellation policy is as shown on our ad and defined by the site you are booking through.  5. Don’t let $300 go up in smoke. There's no smoking allowed in any Flatbook and a $300 fine for breaking this rule.  6. Unfortunately we don’t allow pets in any of our apartments. 7. Unless you’re staying in one of our specialty apartments, we don’t allow parties or excessive noise. 8. If we find the place very messy, we have to charge an extra $40 for every extra hour o",
13614763,Shared flat in Bushwick. Bright & close to train.,96706387794,unconfirmed,Ada,Brooklyn,Williamsburg,40.705059999999996,-73.93122,United States,US,True,flexible,Private room,2020,$802 ,$160 ,1,8,1/1/2019,0.36,2,7,31,"Shoes off at entry. Please NO SMOKERS or smoking on premises.  No loud music or loud voices on deck out of concern for neighbors.  Dispose of trash in receptacles rear of building.  Max 2 guests to share guest bedroom, SOFA IS NOT AN EXTRA BED.  Please NO VISITORS in unit beyond approved Air BND guests.  No use of fire place.  No cleaning fee, please clean dishes and dispose of smelly trash.  Thank you!!! :-)",
13615316,Beautiful Park-view Home in Flushing NYC,17945157121,unconfirmed,Ann,Queens,Flushing,40.74888,-73.8066,United States,US,False,flexible,Entire home/apt,2004,$157 ,$31 ,1,8,3/29/2019,0.34,4,6,255,,
13615868,Lofty Living: Private Room,69474990607,verified,Jenny,Brooklyn,Williamsburg,40.7199,-73.95828,United States,US,False,flexible,Private room,2014,$122 ,$24 ,1,5,5/11/2019,0.2,1,2,111,Please no smoking in any of the inside premises or on the roof deck; no loud music; no moving or rearranging furniture; and no guests beyond those indicated at booking (without clearing with owner first).,
13616420,Lovely Clinton Hill Home Away From Home,2770054871,verified,Valéry Blake,Brooklyn,Clinton Hill,40.68367,-73.95982,United States,US,False,moderate,Private room,2017,$659 ,$132 ,2,1,5/8/2017,0.04,4,1,0,,
13616973,Sunny Duplex Oasis: 2 Bath+Roof—Williamsburg Loft,61770225561,verified,Justin,Brooklyn,Williamsburg,40.71555,-73.94842,United States,US,False,strict,Entire home/apt,2021,$820 ,$164 ,2,20,6/9/2019,0.76,2,2,0,"Please no pets! Again, I ask that you not consume my wine or whiskey collection.",
13617525,Sunny Garden Apt in Historic Park Slope Brownstone,42162917392,unconfirmed,Dasha,Brooklyn,Park Slope,40.67855,-73.97583,United States,US,True,moderate,Entire home/apt,2012,"$1,013 ",$203 ,4,60,6/26/2019,2.29,5,1,155,"- No smoking, no pets - No parties and please be quiet after 11pm - Fireplace is functional, but for safety reasons please do not use it - If you use the elevator, please close the inner door after you, otherwise other people won't be able to use it - Take your shoes off when you enter the apartment, you can place them into the closet next to the entrance door",
13618077,Cozy spacious rooms with natural sunlight,33001588376,verified,Guy,Brooklyn,Bedford-Stuyvesant,40.68144,-73.93429,United States,US,False,strict,Private room,2006,$944 ,$189 ,5,11,6/30/2019,0.9,3,1,340,"Please do not try and fit more than 4 occupants in the apartment overnight. There is a queen bed in the bedroom and a full-sized pullout couch in the living room that can accommodate 1-2 people.  BUILDING RULES (As enforced by the property owners): - On Wednesday and Sunday night please leave your garbage in sealed garbage or grocery bags outside of the apartment door. It will be picked up early the next morning. - Please do not leave any garbage or personal items in the hallway or foyer, or you will be charged $100 by the building management.  - There are 3 bay windows in the living room, however only the far right one opens. The other two have been nailed shut by the property owners because of the safety risk that they pose when they're opened. Please do not try and open them, as it will damage the window frames. - The fire escape is strictly off-limits. - Please keep the noise level to a minimum and be be respectful of your neighbours.  - Drug possession and usage are prohibited in ",
13618630,Fully renovated beautifully furnished two bedroom,15022077579,unconfirmed,Ronen,Brooklyn,Sheepshead Bay,40.59339,-73.94296,United States,US,False,strict,Private room,2016,$464 ,$93 ,1,0,,,4,1,0,• Check-in time is 3PM.,
13619182,Spacious 1 BR/1 Bath in Ridgewood,95865084866,verified,Jeanette,Queens,Ridgewood,40.6991,-73.89796,United States,US,True,flexible,Entire home/apt,2021,$810 ,$162 ,7,0,,,2,1,0,"Please remember that this is a residential building. The building rules, apartment occupancy restrictions and the year-round tenants must be respected.  Parties, pets and smoking are not allowed under any circumstances and incur significant fees.",
13619734,Private Room in Sunny Beautiful Kosher Apartment,26655567317,unconfirmed,Esther,Brooklyn,East Flatbush,40.66182,-73.93748000000001,United States,US,True,strict,Private room,2003,$126 ,$25 ,2,21,5/19/2019,0.83,5,3,31,,
13620286,Oriental Room in Upper Manhattan near Central Park,7043260612,verified,Alfred And Lau,Manhattan,Harlem,40.80584,-73.95272,United States,US,False,moderate,Private room,2008,$415 ,$83 ,3,88,6/22/2019,3.36,3,1,189,With respect to the property and other tenants,
13620839,Spacious Bohemian Duplex 1BR E Wburg Yard Roof,92393271817,unconfirmed,Nitya,Brooklyn,Williamsburg,40.70728,-73.92989,United States,US,False,flexible,Private room,2017,$975 ,$195 ,1,11,8/18/2017,0.42,2,3,0,"Professional, no smoking, no pets.  Please use seat inside door to remove shoes.",
13621391,Private room in a privately own 3 story brownstone,75727619341,unconfirmed,Cyrille,Brooklyn,Bedford-Stuyvesant,40.6911,-73.93691,United States,US,True,moderate,Private room,2019,$714 ,$143 ,4,8,3/1/2019,0.32,5,3,0,Please clean up after yourselves when leaving.  Minimal noise is appreciated given the close neighbors. Thanks!,
13621943,Seaport Water Front Private Studio,21131930966,verified,Rachel,Manhattan,Financial District,40.70766,-74.00153,United States,US,True,moderate,Private room,2013,$112 ,$22 ,2,41,6/22/2019,1.56,4,1,308,No pets No parties. No smoking,
13622496,convenient location 1 min walk to bus station,5365162338,unconfirmed,Low,Queens,Jamaica,40.67365,-73.76501999999999,United States,US,True,strict,Private room,2015,$687 ,$137 ,7,11,10/3/2018,0.44,3,2,0,No Smoking.  Violators will be charged a $500 fine for each violation and may be charged for additional smoke removal following departure. Pets allowed with non-refundable pet fee.  Breed restrictions apply. This is a residential property.  Parties and/or loud music is not allowed after 9:00 p.m.,
13623048,Studio Apartment in UWS,84625963568,unconfirmed,Allison,Manhattan,Upper West Side,40.792640000000006,-73.97480999999999,United States,US,True,flexible,Entire home/apt,2017,$60 ,$12 ,1,7,5/28/2017,0.26,5,1,0,,
13623600,"Cozy, Light-Filled Room in Brooklyn",21665679186,verified,Megan E,Brooklyn,Crown Heights,40.669979999999995,-73.9396,United States,US,True,moderate,Private room,2016,$803 ,$161 ,3,104,3/29/2019,4.0,2,2,0,,
13624153,Ultra Lux Central Park/ Columbus Circle 2 bedroom,79997591256,unconfirmed,Gab,Manhattan,Upper West Side,40.76798,-73.98356,United States,US,False,flexible,Entire home/apt,2005,$302 ,$60 ,5,46,6/18/2019,1.78,1,1,282,#NAME?,
13624705,"Luxurious, Spacious Loft in Williamsburg",66411411403,verified,Philippe,Brooklyn,Williamsburg,40.71058,-73.96401999999999,United States,US,False,strict,Entire home/apt,2005,$138 ,$28 ,2,34,6/14/2019,1.31,4,2,330,,
13625257,SPACIOUS MANHATTAN TOWNHOUSE 2BR Apt Sleeps 6,22787030916,verified,Anitra And Steven,Manhattan,Harlem,40.80833,-73.95101,United States,US,True,flexible,Entire home/apt,2008,$557 ,$111 ,3,89,7/2/2019,3.41,2,1,96,No smoking anywhere on the property- including the front steps.  No parties- please be considerate of the many neighbors around you.  Please take the trash out at the end of your stay.  The fireplace is not cleared for burning wood but you may use the candles provided. Please blow out candles when you leave.,
13625809,Shared room at Lincoln Center,16903844012,unconfirmed,Ryan,Manhattan,Upper West Side,40.77244,-73.98204,United States,US,True,strict,Shared room,2005,$229 ,$46 ,30,0,,,2,1,0,NO Smoking,
13626362,Cozy One Bedroom in a Private House.Safe & Quite.,79123532140,unconfirmed,Pasang,Queens,Woodside,40.75558,-73.90534,United States,US,False,strict,Private room,2018,$809 ,$162 ,2,30,1/1/2019,1.23,3,2,242,- Respect as if it were your own home is all we ask :),
13626914,Charming Bedroom,27198589531,unconfirmed,Sheila,Bronx,Schuylerville,40.83018,-73.83413,United States,US,False,strict,Private room,2015,"$1,188 ",$238 ,4,22,6/25/2019,1.18,3,3,147,No smoking inside and no pets. Please be respectful of the hosts and the space.,
13627466,Adorable Cozy room with lots of light,98495471743,verified,Juan,Bronx,Parkchester,40.83117,-73.87566,United States,US,True,moderate,Private room,2014,$531 ,$106 ,2,71,7/2/2019,2.71,1,4,59,"Treat the home as you would your own.  If staying through a trash day, please leave trash by curb.",
13628019,Lovely 2 bdr apartment Williamsburg w private yard,15283793530,verified,Anthony,Brooklyn,Williamsburg,40.71463,-73.95501,United States,US,True,flexible,Entire home/apt,2021,"$1,188 ",$238 ,2,32,6/16/2019,1.25,2,1,8,This building is home to quiet professionals; please be respectful of neighbors and be mindful of noise.,
13628571,Sunny Upper East Side Studio,1691878673,verified,Donny,Manhattan,Upper East Side,40.7802,-73.94651999999999,United States,US,True,flexible,Entire home/apt,2021,"$1,075 ",$215 ,4,5,4/7/2019,0.19,4,1,128,,
13629123,Amazing room w/ private bathroom in hip Bushwick!,66548545854,verified,Alina,Brooklyn,Bushwick,40.69945,-73.93666999999999,United States,US,False,moderate,Private room,2015,"$1,069 ",$214 ,10,4,1/2/2019,0.17,4,3,44,,
13629676,CENTRAL PARK WEST BRIGHT AND SPACIOUS,56225134981,verified,Mike,Manhattan,Upper West Side,40.800340000000006,-73.95940999999999,United States,US,False,moderate,Private room,2019,$656 ,$131 ,31,0,,,1,1,83,No Smoking,
13630228,Cosy place in the West Village,6801434576,verified,Max,Manhattan,West Village,40.730959999999996,-74.00406,United States,US,False,flexible,Private room,2016,$370 ,$74 ,4,1,5/19/2017,0.04,4,1,0,Please run dishwasher before checking out and respect noise levels for neighbors! :),
13630780,Amazing 2-bdrm apartment in Greenpoint with garden,11476653825,verified,Jenya,Brooklyn,Greenpoint,40.72215,-73.94203,United States,US,True,moderate,Entire home/apt,2021,$51 ,$10 ,4,0,,,4,1,0,NO Smoking,
13631332,"Dreamy, sun-filled South Harlem 1 bed!",16805616020,verified,Emily,Manhattan,Morningside Heights,40.802640000000004,-73.95921,United States,US,True,moderate,Private room,2013,$593 ,$119 ,5,2,6/10/2017,0.08,3,1,0,"Access to kitchen appliances and cutlery, etc. Food and alcohol not included, we are close to a liquor store, Trader Joes and Whole Foods. No parties, no smoking, no pets, no more than 2 guests. Please treat the place as you would your own.",
13631885,Sunny Bedroom in Prospect Park South,53156825814,unconfirmed,Marissa,Brooklyn,Flatbush,40.64909,-73.9648,United States,US,False,moderate,Private room,2019,$561 ,$112 ,2,12,6/23/2019,0.47,3,1,0,Please treat our home as if it were your own.,
13632437,Rare Designer-Decorated Loft in Prime Williamsburg,85313471729,verified,Nicolas,Brooklyn,Williamsburg,40.71625,-73.96406999999999,United States,US,False,strict,Entire home/apt,2009,$465 ,$93 ,4,11,6/9/2019,0.44,1,1,94,"You are my guest - please behave as such!  This is where I live. - No neighbor-disturbance-level noise past 11:00PM - No pets of any kind - No smoking - Use the kitchen, not the food (it is ours) - Clean up spills and dishes - No illegal drugs or substances",
13632989,Skylight Suite on Park Block,58964595519,verified,Athena,Brooklyn,Park Slope,40.66832,-73.97662,United States,US,False,moderate,Entire home/apt,2005,$558 ,$112 ,2,67,7/2/2019,2.88,3,1,289,"We expect our guests to behave in a respectful manner and try to limit loud sounds and noises (such as music and/or shouting) in the evening. All animals must be well mannered and guests are expected alert us to any animals they may have with them, so that we can clean properly after departure. This apartment is non-smoking.",
13633542,Beautiful in Brooklyn - Perfect for Groups!,15816436015,verified,Steven,Brooklyn,Bushwick,40.68827,-73.91815,United States,US,True,strict,Entire home/apt,2012,$943 ,$189 ,2,54,6/24/2019,2.15,5,2,308,"No pets, no smoking inside.",
13634094,Stunning And Stylishly Furnished Apt In Bushwick,25369929865,verified,Oscar,Brooklyn,Bushwick,40.69364,-73.91499,United States,US,False,flexible,Entire home/apt,2004,"$1,054 ",$211 ,1,30,6/17/2019,1.13,3,1,284,,
13634646,Cozy private room in a two-bedroom apartment,95253851400,unconfirmed,Carolina,Brooklyn,Bedford-Stuyvesant,40.68473,-73.94799,United States,US,True,strict,Private room,2007,$573 ,$115 ,1,17,5/26/2019,0.65,1,1,0,"Parties, group events, having any number of guests above the number of people listed on the reservation either for a few minute visit or otherwise, or playing loud music is not allowed. Neighbors are quiet and respectable professionals and it is strictly necessary to respect their peace and to be discreet at any time. Thank you for your understanding. You can feel free to ask me for anything. Safe travels and see you soon! Sebastien",
13635199,"Spacious, sunny, stylish FAMILY 3-bed, 2-bath apt!",54566766587,verified,Mia,Brooklyn,Flatbush,40.64217,-73.9593,United States,US,False,flexible,Entire home/apt,2019,$887 ,$177 ,20,0,,,3,1,4,This is a quiet residential street of owner occupied properties.  Guest are expected to be respectful of other quests. No late night loud noise making. No smoking.  Freshly laundered slippers are provided for guests to wear in the house.  We have a no shoes policy inside the house.,
13635751,Peaceful sunny flat with backyard,1396794397,verified,Ella,Brooklyn,Williamsburg,40.709990000000005,-73.94807,United States,US,False,moderate,Entire home/apt,2018,"$1,168 ",$234 ,1,57,6/27/2019,7.04,2,2,228,,
13636303,Cozy 2 Bed 1 Bath Amazing Location With Balcony,11403461778,unconfirmed,Yaacov,Manhattan,Upper East Side,40.77878,-73.94993000000001,United States,US,True,strict,Entire home/apt,2010,"$1,109 ",$222 ,31,2,3/3/2019,0.35,3,33,327,,
13636855,Gone with the Wind,14700761979,unconfirmed,Fernando,Queens,Sunnyside,40.74215,-73.92633000000001,United States,US,True,strict,Entire home/apt,2013,$733 ,$147 ,5,91,6/21/2019,3.48,4,2,57,,
13637408,Cozy bedroom in Bed stuy!,46725274774,unconfirmed,Kaitlin,Brooklyn,Bedford-Stuyvesant,40.69227,-73.94159,United States,US,True,moderate,Private room,2022,$90 ,$18 ,28,6,4/30/2019,0.32,2,1,197,,
13637960,Spacious One bedroom in Hip Bushwick Brooklyn,10133094822,unconfirmed,Florian,Queens,Ridgewood,40.69942,-73.90968000000001,United States,US,True,strict,Entire home/apt,2008,$856 ,$171 ,3,3,1/3/2018,0.12,4,1,0,,
13638512,Cozy room in Bayside Queens,23690870648,unconfirmed,Clara,Queens,Bayside,40.75444,-73.76938,United States,US,False,strict,Private room,2021,$904 ,$181 ,1,86,6/20/2019,4.19,4,3,346,,
13639065,Great room across the street from the High bridge,42105077205,verified,Nahuel,Bronx,Highbridge,40.842890000000004,-73.92688000000001,United States,US,True,strict,Private room,2010,$873 ,$175 ,2,107,6/14/2019,4.12,5,5,344,,
13639617,Beautiful Brooklyn Brownstone,39679667689,unconfirmed,Chuck And Ellen,Brooklyn,Bedford-Stuyvesant,40.68952,-73.94519,United States,US,True,moderate,Entire home/apt,2020,$620 ,$124 ,6,18,7/7/2018,0.69,3,1,0,,
13640169,Charming Greenwich Village Oasis,92061099143,verified,Andrew,Manhattan,West Village,40.73107,-74.00163,United States,US,False,flexible,Entire home/apt,2015,"$1,086 ",$217 ,4,1,6/11/2017,0.04,1,1,0,"- On a typical weeknight, I will be home from 10pm to 7:30am",
13640722,Brownstone Parlor in Crown Heights,86710728085,verified,Vineet,Brooklyn,Crown Heights,40.6764,-73.95496999999999,United States,US,False,moderate,Entire home/apt,2018,$905 ,$181 ,3,61,7/1/2019,2.59,3,2,267,No parties or extra guests! Sorry,
13641274,Room in Bright and Spacious East Village Apartment,41849182287,unconfirmed,Ranita,Manhattan,East Village,40.72205,-73.98389,United States,US,False,flexible,Private room,2017,"$1,161 ",$232 ,4,29,6/7/2019,1.14,2,2,220,#NAME?,
13641826,"Cozy, Quaint and Quiet Private Room",89121752420,unconfirmed,Carleen,Brooklyn,Bedford-Stuyvesant,40.69502,-73.93984,United States,US,False,moderate,Private room,2011,$589 ,$118 ,2,47,5/19/2019,1.81,3,1,77,Please be respectful of noise levels after 10pm.,
13642378,URBAN DWELLING,67637709470,unconfirmed,Anthony,Manhattan,Hell's Kitchen,40.75607,-73.99707,United States,US,True,moderate,Private room,2015,$915 ,$183 ,2,4,5/24/2017,0.15,2,1,0,Please remove your shoes when you enter the apartment.  There are trays out to place your shoes -- this is especially important in winter to not track salt and snow everywhere. We have nice hardwood floors that we'd like not to damage.  NO SMOKING -- THIS INCLUDES BEHIND OR IN FRONT OF THE BUILDING NO PETS  Do not bring anyone over who is not on the reservation -- you are the only people permitted to enter the building  Respect our neighbors and do not make noise,
13642931,Large 1 Bedroom in South Brooklyn,26508013369,unconfirmed,Allen,Brooklyn,Sheepshead Bay,40.60402,-73.95257,United States,US,True,moderate,Entire home/apt,2022,$970 ,$194 ,4,1,5/22/2017,0.04,1,1,0,Enjoy the marathon,
13643483,Charming safe beautifully furnished,3558304727,unconfirmed,Aminata Mody,Bronx,Hunts Point,40.81406,-73.88996999999999,United States,US,False,strict,Private room,2021,$509 ,$102 ,4,36,6/7/2019,1.36,2,1,365,,
13644035,Greenwich Village 1 Bedroom,93291940631,verified,Phil,Manhattan,Greenwich Village,40.728429999999996,-73.99825,United States,US,False,flexible,Entire home/apt,2019,$214 ,$43 ,7,0,,,5,2,0,,
13644588,NYC East village luxury apt featured in Timeout!,27815152266,verified,Afrodite,Manhattan,East Village,40.73158,-73.987,United States,US,False,moderate,Entire home/apt,2006,$917 ,$183 ,3,0,,,1,1,0,We live in close proximity to our neighbors so we are not able to allow parties or large gatherings or late night partying.,
13645140,Cozy and GREAT Stay in the West Village heart ❤️,32367032984,unconfirmed,A.J.,Manhattan,Greenwich Village,40.7331,-73.99923000000001,United States,US,True,flexible,Private room,2010,$246 ,$49 ,5,69,6/4/2019,2.62,5,1,137,"No pets, no smoking, no parties.  No guests not on the reservation.  You are liable for any damage. We will give you access to Netflix.  Please respect the account. Please report anything broken at the beginning of your reservation to avoid the loss of your security deposit.  Clean all your dishes and clean up after yourself.  Please keep the noise down.",
13645692,"Sunny & Spacious 1BR w/Porch, W/D, Huge Kitchen",72834656543,verified,Parry,Brooklyn,Williamsburg,40.70565,-73.94791,United States,US,True,flexible,Entire home/apt,2019,"$1,025 ",$205 ,3,7,4/8/2018,0.27,2,1,0,"We expect travelers to leave the apartment in the same condition that they left it in. We take great care of the apartment as we feel it is a truly special home, and hope that others will treat it the same way! We will provide fresh sheets and towels, which guests can put in a pile upon leaving. We do not allow pets unfortunately. Although we love them, the building does not!",
13646245,Upper West Side - Huge 1 Bdrm in a Luxury Bldg,19949033642,verified,Britney,Manhattan,Upper West Side,40.77404,-73.99076,United States,US,True,moderate,Entire home/apt,2010,$917 ,$183 ,2,2,6/11/2017,0.08,2,1,0,No Smoking  No Pets,
13646797,Private room in Astoria  close to Manhattan,38223128004,verified,Ruth,Queens,Ditmars Steinway,40.77949,-73.91015,United States,US,True,moderate,Private room,2008,$946 ,$189 ,2,69,7/1/2019,2.65,1,1,166,#NAME?,
13647349,LORIMER L TRAIN 5 minutes to the city,51422974434,unconfirmed,Jose,Brooklyn,Williamsburg,40.714929999999995,-73.94861,United States,US,True,strict,Private room,2008,$419 ,$84 ,1,2,1/1/2019,0.09,3,6,272,"Please remember that this is a residential building. The building rules, apartment occupancy restrictions and the year-round tenants must be respected.  Parties and smoking are not allowed under any circumstances and incur significant fees. Pets may be considered with pre-approval and an additional pet fee.",
13647901,Midtown East Apt,23020714991,unconfirmed,Chang,Manhattan,Murray Hill,40.74822,-73.97966,United States,US,False,flexible,Private room,2007,$577 ,$115 ,2,2,5/20/2017,0.08,3,1,0,,
13648454,The Bridge Complex,50524174153,verified,Dusean,Bronx,Pelham Gardens,40.858779999999996,-73.83402,United States,US,True,strict,Entire home/apt,2019,$212 ,$42 ,2,81,6/26/2019,3.17,5,1,286,No kitchen access. No wifi - I do have a hot spot. No key given to you. No extra guest allowed.,
13649006,Private large room in prime Manhattan location,5480146099,unconfirmed,Piper,Manhattan,Lower East Side,40.71873,-73.9891,United States,US,False,moderate,Private room,2004,$310 ,$62 ,2,10,12/29/2018,0.38,3,1,0,"Please treat the interior of the unit, including all furniture with respect.   No smoking or pets allowed. Enjoy yourself but please keep noise to acceptable levels at night to avoid disturbing neighbors.  No parties please.",
13649558,Large room in sunny Prime Williamsburg pad.,50332490330,verified,Carlos,Brooklyn,Williamsburg,40.71435,-73.95508000000001,United States,US,False,moderate,Private room,2019,"$1,150 ",$230 ,1,13,1/1/2019,0.49,3,2,0,No smoking. No pets. ,
13650111,Private Room and Backyard in Modern Apartment!,3604129168,unconfirmed,Justin,Brooklyn,Bedford-Stuyvesant,40.68795,-73.95278,United States,US,True,flexible,Private room,2005,$789 ,$158 ,2,1,5/21/2017,0.04,1,1,0,,
13650663,Central Park View 5th Avenue,59507957672,verified,Avi,Manhattan,Midtown,40.766459999999995,-73.97912,United States,US,True,moderate,Entire home/apt,2011,$738 ,$148 ,3,16,5/16/2019,0.64,3,1,352,"Maintain cleanliness .  Please carry all the necessary items that is required for your stay , host cannot provide any of it . Also can accomodate females who are veg and eggatarians only",
13651215,Airy One Bedroom Apartment in Prime Crown Heights,96950455674,verified,Janet,Brooklyn,Crown Heights,40.67653,-73.95793,United States,US,True,moderate,Private room,2022,$300 ,$60 ,1,13,6/23/2019,0.51,2,1,0,,
13651768,Central Park north spacious residence,39071960996,verified,Pat,Manhattan,Harlem,40.80389,-73.95178,United States,US,True,moderate,Entire home/apt,2004,$427 ,$85 ,3,17,4/7/2019,0.65,4,1,280,"We expect our guests to behave in a respectful manner and try to limit loud sounds and noises (such as music and/or shouting) in the evening. All animals must be well mannered and guests are expected alert us to any animals they may have with them, so that we can clean properly after departure.",
13652320,Beautiful Private Bedroom by Prospect Park,76980128780,verified,Laura,Brooklyn,Prospect-Lefferts Gardens,40.65634,-73.95704,United States,US,True,flexible,Private room,2014,"$1,040 ",$208 ,30,1,12/31/2017,0.05,3,1,0,"The three main lights of the apartment are on the right of the front entrance.  The far light is for the bed area, the middle one (the black tab you have to flick up and down) is for the main area, and the near switch is for the light right over you as you step in.  The light in the bathroom is by the storage unit.  The light in the kitchen is to your left right as you walk into it.",
13652872,Clean and Comfortable Room at Central Park North,39029651759,verified,Maria,Manhattan,Harlem,40.800940000000004,-73.95219,United States,US,False,strict,Private room,2006,$628 ,$126 ,3,65,9/28/2018,2.47,3,1,0,"No pets, no children, no smoking (landlord's rules, not ours - sorry!).  Also, it is a pretty quiet building and the owners feel strongly about keeping it this way, so please refrain from any loud music/shouting/partying. Finally, we are happy to take care of stripping/washing the sheets, but would appreciate it if you would clean up any dishes you use during your stay. Other than that, have fun!",
13653424,Artist Apartment Fort Greene / Clinton Hill,79471672633,verified,Marty,Brooklyn,Clinton Hill,40.69229,-73.96504,United States,US,True,flexible,Entire home/apt,2008,$924 ,$185 ,1,3,8/6/2017,0.12,2,1,0,No smoking or pets allowed,
13653977,Comfy & Cozy Space in the Upper West Side,84235868662,unconfirmed,Chris,Manhattan,Upper West Side,40.77557,-73.98099,United States,US,True,moderate,Shared room,2021,$83 ,$17 ,3,68,6/22/2019,2.6,4,1,138,,
13654529,Spacious and stylish Soho 1-Bedroom,24923635283,unconfirmed,Dilara,Manhattan,SoHo,40.72565,-74.00161,United States,US,False,flexible,Entire home/apt,2010,$383 ,$77 ,2,4,12/10/2017,0.16,1,1,0,"Please remember that this is a residential building. The building rules, apartment occupancy restrictions and the year-round tenants must be respected.",
13655081,Excellent one bedroom apt for Bklyn Half runners!,32700612915,verified,Alex,Brooklyn,Prospect Heights,40.67693,-73.96517,United States,US,True,moderate,Entire home/apt,2012,$380 ,$76 ,3,3,5/28/2019,0.48,2,1,0,"No Smoking, No Pets",
13655634,Room in Hell's Kitchen Duplex Apartment,62311102447,unconfirmed,Lauren,Manhattan,Hell's Kitchen,40.7652,-73.99197,United States,US,False,flexible,Private room,2007,$808 ,$162 ,7,0,,,3,1,0,Please no smoking or pets in the loft! ,
13656186,Affordable and Cozy Room,34372210254,unconfirmed,Juan,Bronx,Parkchester,40.8298,-73.87715,United States,US,False,flexible,Private room,2012,$599 ,$120 ,2,62,6/24/2019,2.38,1,4,44,,
13656738,Bohemian Duplex 1BR Pvt BA Lounge E Williamsburg,45249866393,verified,Nitya,Brooklyn,Williamsburg,40.70556,-73.92891999999999,United States,US,True,flexible,Private room,2022,$140 ,$28 ,2,10,8/28/2017,0.38,3,3,0,,
13657291,Sunny bedroom off Prospect Park,25700947559,verified,Sigi,Brooklyn,Prospect-Lefferts Gardens,40.65663,-73.96141999999999,United States,US,False,moderate,Private room,2021,$627 ,$125 ,3,3,9/3/2018,0.13,2,3,21,"-We simply ask you to feel like you are in your own home, and respect the condo and neighbors.   - A copy/scan of a photo ID or an AirBNB ID verification will be required to receive keys.  -No pets, no smoking and no party, no extra parties/guests in the Condo -that are not part of your reservation.   - Please note our check in time: 3:00 PM (or anytime later) and Check out time: 10:00 AM. If you absolutely must check-in during the morning, please message us first.  -Our condo is best for 2 people, but we can certainly accommodate a 3rd person without an extra-person fee!  Let us know first if you have 3 guests and we can bring a floor mattress.",
13657843,"""WELCOME TO BROOKLYN"" PARK SIDE VIEW STUDIO APT",57513127459,unconfirmed,"R, J",Brooklyn,Bedford-Stuyvesant,40.6882,-73.94678,United States,US,True,flexible,Entire home/apt,2014,"$1,136 ",$227 ,1,148,6/23/2019,5.59,2,3,20,,
13658395,"Large, cute and cozy one-bed apartment",94449968047,unconfirmed,James,Manhattan,Inwood,40.86835,-73.91958000000001,United States,US,False,flexible,Entire home/apt,2008,$606 ,$121 ,4,4,7/4/2018,0.15,1,1,0,"Thank you for your reservation. By placing your reservation online you indicated that you accepted the terms and conditions which have been printed below.  Please review your reservation summary as below - then print, sign and return the agreement to:  (EMAIL HIDDEN) or fax it to (PHONE NUMBER HIDDEN) or  mail it to: Spare Suite, Inc., 119 Braintree Street, Suite 510, Boston, MA 02134, USA Upon receipt, we will send you the welcome document with check in instructions and how to get your keys. ------------------------------------------------------------------------ ------------------------------------------------------------------------ Terms of the Agreement: BOOKING AND REFUND POLICY Once booked your reservation is guaranteed for the check in and check out times and dates specified. All reservations must be paid in advance, in full for the entire period of stay.  All reservations are final, and NON REFUNDABLE UNDER ANY CIRCUMSTANCES.  If you feel you may need to cancel once booked, yo",
13658947,Spacious 1 bedroom. Best water pressure in NYC!,74737668801,verified,Anthony,Queens,Astoria,40.76132,-73.92477,United States,US,True,strict,Entire home/apt,2009,$176 ,$35 ,2,68,7/1/2019,2.69,4,1,0,Please be respectful of our neighbors and no additional guests or parties. No Smoking. No Pets.,
13659500,"Beautiful Luxury Studio, Heart of Theater District",17400599911,verified,Jessica,Manhattan,Hell's Kitchen,40.76059,-73.98865,United States,US,True,strict,Shared room,2007,$320 ,$64 ,1,1,6/5/2017,0.04,1,1,0,"Unfortunately no pets are allowed in the building. Smoking is prohibited on the premises. Trash is put out only on the designated day in the back of the building. No parties with kegs, djs or live music.",
13660052,"Refreshing Room in the Heart of Bed Stuy, Brooklyn",4132015610,verified,Renata,Brooklyn,Bedford-Stuyvesant,40.68212,-73.9486,United States,US,True,flexible,Private room,2005,"$1,050 ",$210 ,2,0,,,5,1,0,"Please Note: This unit was just renovated in November 2015 and it comfortably accommodates 4 guests, but up to 6 guests are permitted if you so desire (two guests in each bedroom and 2 guests on the available queen size air mattress). Please request an air mattress (if needed) when making a reservation. No smoking, no pets, no parties, and must be 25 to book.  For check-out, please ensure: -  All plates and cups are left in the sink or dishwasher -  All trash is left in the kitchen trash can or bagged and left next to the trash can (additional bags are under the sink) -  All windows are closed and locked -  If used, the air mattresses are deflated and put away (please leave used linens for the air mattresses on the floor) -  If furniture was moved during your stay, please return to its original location Please be mindful to our neighbors in the building, quiet hours after 9pm and no music or loud gatherings on the private patio. Please be considerate of our next guests who will be stay",
13660604,"Affordable, Cozy, Skylit Room in Renovated House",2935907592,verified,Danny,Brooklyn,Bedford-Stuyvesant,40.67779,-73.9229,United States,US,False,flexible,Private room,2007,"$1,063 ",$213 ,1,54,4/30/2019,2.15,3,2,197,No smoking No children under the age of 18 No animals No loud parties or people beyond those included in the reservation No late night check-ins,
13661157,Modern Williamsburg Studio,96582314426,verified,Michael,Brooklyn,Williamsburg,40.719879999999996,-73.96294,United States,US,False,moderate,Entire home/apt,2010,$613 ,$123 ,5,0,,,4,1,0,,
13661709,Amazing Apt. in the heart of Williamsburg!,25638723071,verified,Edgar,Brooklyn,Williamsburg,40.72034,-73.96030999999999,United States,US,True,strict,Entire home/apt,2010,$940 ,$188 ,30,0,,,5,2,1,"Please respect the space, and leave the apartment the way that you found it. Please do not host any parties, and be respectful of my neighbors. No pets allowed. No smoking allowed. No additional guests.",
13662261,"ENTIRE HOME- UPPER EAST SIDE, NYC",17495992319,unconfirmed,Elizabeth,Manhattan,Upper East Side,40.77973,-73.95039,United States,US,True,strict,Entire home/apt,2015,$368 ,$74 ,2,17,5/15/2019,0.71,2,1,338,,
13662814,Private room in beautiful home in Crown Heights,85110513156,unconfirmed,Assol,Brooklyn,Crown Heights,40.671009999999995,-73.94543,United States,US,True,strict,Private room,2021,$181 ,$36 ,2,52,11/5/2018,1.99,5,2,0,No smoking. No pets.,
13663366,SUPER CLEAN.,78497251802,verified,Leatha,Brooklyn,Clinton Hill,40.68908,-73.96429,United States,US,True,flexible,Entire home/apt,2017,$653 ,$131 ,2,52,6/9/2019,1.99,2,2,361,"There are many coasters and please use them for your drinks.  There is one shelf in the kitchen cabinet that has food stuff that are personal and it will be marked as such.  Please no pets, smoking or parties.  There is a stand alone fireplace but it is decorative only. Please be respectful and keep noise to a minimum is the mornings and evenings to avoid disturbing neighbors.",
13663918,Sunny & Quiet - Entire 1 bedroom Apartment,18665188730,unconfirmed,Louiza,Brooklyn,Williamsburg,40.71779,-73.95978000000001,United States,US,False,strict,Entire home/apt,2010,"$1,079 ",$216 ,2,0,,,5,3,0,treat the property and other tenants with respect,
13664470,Luxury Apartment - Tranquil Sunny Bedroom!,55001846907,unconfirmed,Jo & Savannah,Brooklyn,Bedford-Stuyvesant,40.68188,-73.91071,United States,US,True,flexible,Private room,2020,$415 ,$83 ,3,26,5/29/2019,1.32,3,3,0,"Please remember that this is a residential building. The building rules, apartment occupancy restrictions and the year-round tenants must be respected.  Parties, pets and smoking are not allowed under any circumstances and incur significant fees.",
13665023,Private bedroom in 2 bed 2 bath UWS,18800233360,verified,Alejandra,Manhattan,Upper West Side,40.80062,-73.96169,United States,US,True,flexible,Private room,2021,$669 ,$134 ,6,5,5/28/2018,0.21,5,2,0,"House rules: Guests agree to the following terms and conditions 1.Guest(s) agree to NO PARTIES anywhere on the property. Legal action will be taken for parties that cause damages to the unit, property, reputation, or relationship with building staff or other residents.  2.Smoking of any kind is not permitted in the unit or on the premises.  3.Guests agree to abide by maximum occupancy of unit, and observe quiet hours between 9pm and 9am 4.Guests are responsible for action of ALL GUESTS occupying their unit at all times.  5.Guests agree to return all keys, remotes, and parking passes. Replacement fees may apply for unreturned items 6.Guests understand that onsite building staff (maintenance and concierge) are not affiliated with Jordan or AIRBNB. Please contact me directly for any needed items. 7.Guests understand that no pets are to be in the unit.  8.Guests agree to pay replacement cost for any unreturned items, and $125 per hour fee for unauthorized early checkin or late checkout.  15",
13665575,LUXURY 1BR ON EAST 44TH~DOORMAN/LAUNDRY,39149888029,unconfirmed,Ruchi,Manhattan,Midtown,40.751940000000005,-73.97068,United States,US,False,moderate,Entire home/apt,2022,$59 ,$12 ,30,2,11/17/2018,0.1,4,49,364,"No smoking. No pets. No drugs. No parties. Quiet hours after 9pm.  Tenants' belongings are not covered under our insurance. We recommend that you obtain renter's insurance as we are not responsible for your belongings. We care for this apartment as if it were our own home.  This is a family neighborhood and a quiet/respectful one.  This home was built prior to 1978 and according to MA Lead Law notification, we have to inform our renters that there is a possibility of lead paint.  Kindly do not eat the walls.  Check-in Time: 3:00 PM  Checkout Time: 11:00 AM  To ensure your safe deposit returned on time, please follow your checkout duties: - Wash and put away dishes OR start the dishwasher! - Double bag the trash and we will take it out! - We will strip the sheets and wash the towels! Thank you so much!",
13666127,Brooklyn home,65930815027,unconfirmed,Zoe,Brooklyn,Bushwick,40.69563,-73.93205999999999,United States,US,True,flexible,Private room,2005,$287 ,$57 ,4,1,5/25/2017,0.04,4,2,0,"House Rules 1. Check-in is 4 pm local time. If the unit is ready earlier, we’ll let you know. Check-out is normally 11 am local time, but we’d be happy to extend it as long as we don’t have a cleaning scheduled. Just let us know.  2. All bookings require a security deposit of at least $300, which will be refunded within 7 days of your check-out. 3. For security measures we require all guests to provide proof of identification through ID verification on our own website. In order to check in we'll need a photo of your ID.  4. Our cancellation policy is as shown on our ad and defined by the site you are booking through.  5. Don’t let $300 go up in smoke. There's no smoking allowed in any Flatbook and a $300 fine for breaking this rule.  6. Unfortunately we don’t allow pets in any of our apartments. 7. Unless you’re staying in one of our specialty apartments, we don’t allow parties or excessive noise. 8. If we find the place very messy, we have to charge an extra $40 for every extra hour o",
13666680,Air Mattress in a Private Room in Bed-Stuy,84174455166,unconfirmed,Julio,Brooklyn,Bedford-Stuyvesant,40.69608,-73.9432,United States,US,True,strict,Private room,2009,$886 ,$177 ,1,4,5/29/2017,0.15,5,1,0,,
13667232,"Entire, Immaculate 1-Bedroom CHELSEA APARTMENT",24345187231,verified,Haley,Manhattan,Chelsea,40.7381,-73.9976,United States,US,True,flexible,Entire home/apt,2009,$309 ,$62 ,2,3,11/25/2017,0.12,4,1,0,No Smoking,
13667784,HOUSE WITH 2 ENTRANCES 15min TO MANHATTAN,37141034620,verified,David,Queens,Forest Hills,40.734120000000004,-73.8509,United States,US,True,strict,Entire home/apt,2005,$271 ,$54 ,2,16,7/12/2018,0.62,1,6,0,The apartment is in a brownstone shared with five other tenants.  Guests are expected to be respectful of the property and treat it like their own.  Small Pets are allowed but need to be approved.  No parties or loud late night noise. 420 Friendly.,
13668337,Spacious and sunny 2-bedroom apt in Park Slope,65881197708,verified,Ariel,Brooklyn,Park Slope,40.670790000000004,-73.97384,United States,US,True,flexible,Entire home/apt,2019,$574 ,$115 ,12,2,8/13/2017,0.08,3,1,0,,
13668889,"""HELLO BROOKLYN"" PARK SIDE VIEW NEWLY RENO APT.",5120097843,unconfirmed,"R, J",Brooklyn,Bedford-Stuyvesant,40.68914,-73.94556,United States,US,True,flexible,Entire home/apt,2018,$789 ,$158 ,1,146,6/24/2019,5.57,5,3,21,- Please keep volume to a minimum past 11pm - No smoking -No parties or unexpected guests,
13669441,"Large Room in Brooklyn Townhouse, Great Location",79102615586,unconfirmed,Obed,Brooklyn,Fort Greene,40.69063,-73.97195,United States,US,False,flexible,Private room,2012,"$1,150 ",$230 ,8,6,5/10/2018,0.24,5,5,0,"Please treat this apartment as you would your own home. Additionally, there are other tenants in the building, so please be respectful and keep the noise level low. While the apartment does have a fish, please no additional pets. This building is also a smoke free building",
13669993,Great place for one or two.,44887408137,unconfirmed,Mercedes,Manhattan,Washington Heights,40.83847,-73.94211,United States,US,True,strict,Private room,2013,$823 ,$165 ,1,93,7/7/2019,3.59,4,1,311,Quiet time after midnight. Please turn off the light/AC each time when you go out. :) No Staying overnight  in the living room/couch. Glasses/liquor in the living room cabinets are not available.  Please don't leave dirty dishes.  Please tidy the kitchen when you finished cooking and leave dishes in dry in the dishwasher. Feel free to use the dishwasher. Detergent is under the sink. Thank you!,
13670546,Spacious Private Bedroom in Hip Bushwick,93886517570,unconfirmed,Maria,Brooklyn,Bushwick,40.69604,-73.92278,United States,US,True,strict,Private room,2015,"$1,198 ",$240 ,25,6,9/14/2017,0.24,1,1,0,Please be respectful of the space and building! No loud noises or extra guests beyond 10pm.,
13671098,"Clean, quite, and near a lot of transportation",83462355876,unconfirmed,Willie,Manhattan,Harlem,40.82761,-73.9375,United States,US,False,flexible,Private room,2007,"$1,130 ",$226 ,1,4,5/19/2017,0.15,5,1,365,,
13671650,CHARMING CHELSEA BROWNSTONE STUDIO NEAR HIGHLINE,95561922713,verified,Ben,Manhattan,Chelsea,40.7453,-74.00001999999999,United States,US,False,moderate,Entire home/apt,2014,$299 ,$60 ,3,24,6/8/2019,1.12,5,1,14,"Please remember that this is a residential building. The building rules, apartment occupancy restrictions and the year-round tenants must be respected.",
13672203,2BR luxury apt in Midtown East,81891940327,unconfirmed,Veronique Camille,Manhattan,Midtown,40.75233,-73.97296999999999,United States,US,False,moderate,Entire home/apt,2020,$897 ,$179 ,4,0,,,3,8,0,"- Please treat this home as your own and respect the neighbors. No parties, smoking, or additional guests (other than the agreed upon).",
13672755,Cozy room across the street from the high bridge,16644826882,unconfirmed,Nahuel,Bronx,Highbridge,40.84111,-73.92513000000001,United States,US,True,moderate,Private room,2012,$908 ,$182 ,2,100,6/23/2019,3.86,3,5,338,No smoking. No parties. Please be considerate of your neighbors and consolidate all trash during your stay to the trash cans at the back entrance of the building. Thank you.,
13673307,Cozy Two Bedrooms Home Away From Home  Getaway.,2562010152,unconfirmed,Artnell,Brooklyn,East Flatbush,40.63693,-73.92241999999999,United States,US,False,flexible,Entire home/apt,2020,$914 ,$183 ,2,108,6/29/2019,4.18,5,1,320,NO Smoking.  No Pets.,
13673860,"Spacious Private 1BR apt,common area in UES/Harlem",14960592359,unconfirmed,Kyle,Manhattan,East Harlem,40.78974,-73.9425,United States,US,False,strict,Shared room,2010,$152 ,$30 ,3,0,,,4,1,83,"NO smoking, no pets, all guests must be disclosed. ",
13674412,Lovely bedroom in Bushwick,64643011811,verified,Kwankaew,Brooklyn,Bushwick,40.69083,-73.9241,United States,US,False,strict,Private room,2015,$950 ,$190 ,1,2,5/31/2017,0.08,2,1,0,,
13674964,3 BDR APT AND ROOFTOP ONE TRAIN STOP TO MANHATAN,46134482806,unconfirmed,Ana Y Victor,Brooklyn,Williamsburg,40.71047,-73.96311,United States,US,True,strict,Entire home/apt,2019,$449 ,$90 ,2,117,7/2/2019,4.44,5,4,262,"Inn Boston Reservations requests that noise levels remain moderate to low, and that all guests take into consideration those in the surrounding suites. Depending on the scale of the broken rules, guests may be contacted to request a lower noise level or asked to leave. In the event that the guests are required to vacate the unit, no refund will be provided.",
13675516,Sunny Prime Williamsburg Location with Backyard,16015930832,unconfirmed,Louiza,Brooklyn,Williamsburg,40.716440000000006,-73.95888000000001,United States,US,False,strict,Private room,2013,$743 ,$149 ,4,0,,,1,3,0,"This is our home (our primary residence), we just ask that you treat it like your home and respect but enjoy our belongings. We also ask that you be respectful of our neighbors.  The apartment is well sound-proofed and quiet but please be mindful in the hallways.",
13676069,Large Luxury Condominium In the Heart of Manhattan,23285378084,unconfirmed,Sara,Manhattan,Hell's Kitchen,40.75898,-73.99035,United States,US,True,strict,Entire home/apt,2005,$128 ,$26 ,7,18,6/2/2019,0.7,4,1,242,No Smoking.  No Pets.,
13676621,2 bedrooms in luxury duplex,86785254816,unconfirmed,Jennifer,Brooklyn,Williamsburg,40.71529,-73.93972,United States,US,True,strict,Private room,2004,$987 ,$197 ,2,4,12/31/2018,0.15,1,2,341,Please be respectful of other building residents - keeping evening noise to a minimum.,
13677173,EASY RIDE TO MANHATTAN FROM THIS COMFY ROOM!(C),91037267493,verified,Mel,Brooklyn,Crown Heights,40.6699,-73.94169000000001,United States,US,False,flexible,Private room,2008,$800 ,$160 ,15,1,6/23/2017,0.04,2,3,333,,
13677726,"Quiet one bedroom in LES, Great location!",14620126316,verified,Pablo,Manhattan,Lower East Side,40.71947,-73.98638000000001,United States,US,True,strict,Entire home/apt,2016,$147 ,$29 ,2,24,7/6/2019,0.91,4,1,6,"Just enjoy your stay! And while no smoking is allowed in the building, the stoop has ample seating and is recessed away enough from the street to provide space for a private burn.  Towels will be provided for showering, and all utensils in the kitchen are at your disposal.  If you have specific questions about activities close by, please send me a message and I'll try to provide as best an answer as possible.",
13678278,"Luxury Master Suite - Sunlit, Private floor + bath",7213985567,verified,Marc,Brooklyn,Prospect-Lefferts Gardens,40.65746,-73.95221,United States,US,False,flexible,Private room,2008,$266 ,$53 ,3,46,6/23/2019,1.91,2,2,197,NO Smoking,
13678830,"The Locals House // Best Location, Nicest Home",19085016943,unconfirmed,Michael,Queens,Rockaway Beach,40.5889,-73.81585,United States,US,True,moderate,Entire home/apt,2012,"$1,108 ",$222 ,1,31,7/7/2019,1.2,5,1,224,"No smoking Pets may be allowed (inquire for further information) This is not a rental unit, it is our home that we live in with our daughter on a full-time basis.  Please take care of it!",
13679383,Cozy Studio with private entrance,56540769391,unconfirmed,Jasen,Brooklyn,Canarsie,40.64493,-73.90897,United States,US,True,strict,Private room,2018,$628 ,$126 ,2,1,5/29/2017,0.04,3,1,0,"Please remember that this is a residential building. The building rules, apartment occupancy restrictions and the year-round tenants must be respected.",
13679935,Great  apartment ( W48 street ),12732253925,verified,Jeniffer,Manhattan,Hell's Kitchen,40.76382,-73.99435,United States,US,True,moderate,Entire home/apt,2020,$488 ,$98 ,30,3,6/8/2019,0.45,1,31,339,"We prefer to limit the apartment to 4 people. It's our home, and we take good care of it -- so we hope you will, too.  No smoking, no pets, no parties. All dinner ware/cooking supplied should be left in the dishwasher and all trash should be left in the trash can (additional bags are in the drawer above the trash if you need them).",
13680487,Cozy 1BR Home in Upper Manhattan w/ Amenities,6804133107,unconfirmed,Daniel,Manhattan,Inwood,40.86057,-73.92907,United States,US,True,flexible,Entire home/apt,2021,"$1,199 ",$240 ,1,9,8/1/2018,0.37,3,1,0,,
13681039,Apartment w/ 2 bedrooms in the heart of E. Village,59631555017,verified,Chris,Manhattan,East Village,40.72237,-73.98148,United States,US,False,strict,Private room,2004,$491 ,$98 ,2,8,11/18/2018,0.31,4,2,0,"No smoking! If I smell smoke or if there is other evidence of smoking, you will forfeit your entire security deposit.   The fireplace is (URL HIDDEN) do not use it as it will cause significant damage. If you do, you will forfeit your entire security deposit. I would consider VERY well behaved pets. A pet would lead to $75 being added to the cleaning fee. You are responsible for any damage caused by your pet. If a pet stays here without pre-approval, you will forfeit your entire deposit. Check in and check out time can be flexible depending upon the dates you are looking for and whether anyone else is staying. Unless we arrange otherwise, check in and check out is at noon. The cleaning fee covers two hours. If additional cleaning is required, you will be charged $50/hour, deducted from your deposit. Out of respect for my neighbors, I must insist upon no parties being held at my place. If my neighbor complains about a party happening, or if there is a big mess left at the place, you will",
13681592,Huge sunny bedroom in Bushwick brooklyn!,55629191180,unconfirmed,Ludine,Brooklyn,Bushwick,40.69337,-73.91141999999999,United States,US,False,moderate,Private room,2016,$417 ,$83 ,1,2,5/12/2017,0.08,2,1,0,No pets. No smoking please.,
13682144,Sunny 1BR Near Train (Greenpoint/Williamsburg),23292308309,unconfirmed,Max,Brooklyn,Greenpoint,40.726859999999995,-73.95246,United States,US,True,flexible,Entire home/apt,2018,$785 ,$157 ,6,2,7/14/2017,0.08,2,1,0,This is a quiet condo association building from 10 p.m. to 6 a.m.  Please be quiet in the stairwell and remove shoes during the hours of 10 p.m. and 6 a.m.,
13682696,Two Whole Floors On the Brooklyn Waterfront,34593983569,unconfirmed,Caroll,Brooklyn,Columbia St,40.68455,-74.00188,United States,US,False,flexible,Entire home/apt,2018,$259 ,$52 ,4,13,4/29/2019,0.56,1,1,6,,
13683249,Great Studio ( Midtown West 48th street),22066221877,unconfirmed,Jeniffer,Manhattan,Hell's Kitchen,40.76435,-73.99337,United States,US,False,moderate,Entire home/apt,2014,$609 ,$122 ,30,3,6/2/2018,0.14,1,31,342,,
13683801,Hudge room Bushwick,4882713822,verified,Laure,Brooklyn,Williamsburg,40.70793,-73.93902,United States,US,False,strict,Private room,2007,$150 ,$30 ,5,0,,,3,1,0,NO Smoking.,
13684353,Comfy Entire Studio Apartment Near Central Park,36013779412,verified,Nuttamon,Manhattan,Upper East Side,40.772940000000006,-73.95351,United States,US,True,moderate,Entire home/apt,2009,$682 ,$136 ,1,126,4/2/2019,4.78,1,5,287,"No smoking in the apartment, in the common hallway or outside the building. Respectful of our neighbors - no loud music.",
13684906,Studio in Midtown West ( W48th  Street ),80835877149,verified,Jeniffer,Manhattan,Hell's Kitchen,40.76446,-73.99343,United States,US,False,moderate,Entire home/apt,2020,"$1,039 ",$208 ,30,4,5/13/2019,0.17,5,31,344,,
13685458,One big sunny cozy room with a king and a twin bed,49789144021,unconfirmed,Sara,Brooklyn,East Flatbush,40.65229,-73.94539,United States,US,True,moderate,Private room,2007,$64 ,$13 ,2,1,9/3/2018,0.1,5,1,83,No pets. No smoking. Please :),
13686010,Spacious bedroom in Brooklyn - Great for couples!,85598961106,verified,Uri,Brooklyn,Kensington,40.63255,-73.97324,United States,US,False,moderate,Private room,2020,$189 ,$38 ,1,116,6/21/2019,4.47,5,1,343,,
13686562,Gorgeous Cozy Getaway In Harlem 1 Block From Train,26590935331,verified,Kathleen,Manhattan,Harlem,40.82607,-73.94481,United States,US,True,strict,Private room,2019,$853 ,$171 ,14,3,9/19/2017,0.12,1,2,125,"Please remember that this is a residential building. The building rules, apartment occupancy restrictions and the year-round tenants must be respected.  Parties, pets and smoking are not allowed under any circumstances and incur significant fees.",
13687115,"Brooklyn, Williamsburg -  Room w/ Private Bathroom",90507715722,verified,Oscar,Brooklyn,Williamsburg,40.716809999999995,-73.94556,United States,US,False,moderate,Private room,2008,$747 ,$149 ,1,6,7/22/2018,0.24,5,1,0,"No guests unless specified, no parties, no loud disturbances, tranquil relaxation!",
13687667,Cozy bedroom in historical home.,80901862316,unconfirmed,Reuben,Staten Island,Stapleton,40.63167,-74.07970999999999,United States,US,True,flexible,Private room,2009,$357 ,$71 ,1,37,7/5/2019,1.56,4,4,89,No Pets allowed No smoking,
13688219,"Manhattan- sofa bed, private room, no deposit",62636321373,unconfirmed,Diane,Manhattan,Harlem,40.80298,-73.94333,United States,US,True,flexible,Private room,2010,$177 ,$35 ,5,28,5/8/2019,1.07,4,5,267,No Smoking  No Pets,
13688772,Beautiful Brooklyn Bedroom,50161470632,unconfirmed,Darryl,Brooklyn,Flatbush,40.65255,-73.9568,United States,US,False,flexible,Private room,2007,$693 ,$139 ,3,0,,,1,1,0,,
13689324,2BR/2BATH Luxury-Sweeping Skylines,26867888380,unconfirmed,Lana,Brooklyn,Downtown Brooklyn,40.691559999999996,-73.98686,United States,US,True,strict,Entire home/apt,2020,$644 ,$129 ,2,5,7/3/2019,0.19,1,1,14,"-Minimum two night stay. -Up to two guests max. -No pets please -No smoking/drugs. -No parties and be respectful of neighbors. -I'm LGBT friendly and expect that you are too. -Apartment is on the 4th floor and there unfortunately is no elevator, so those with mobility issues should take this into consideration.",
13689876,Garden-level apartment in historic Cobble Hill,35503397082,verified,Penelope,Brooklyn,Cobble Hill,40.68582,-73.99801,United States,US,True,moderate,Entire home/apt,2013,$735 ,$147 ,31,10,12/9/2018,0.39,4,1,0,Treat everything as if it was yours! Enjoy yourself.,
13690429,"Huge, Sunny Apartment for Backpackers - Park Slope",36005263813,verified,Candice,Brooklyn,Park Slope,40.676970000000004,-73.98239000000001,United States,US,True,flexible,Entire home/apt,2003,$226 ,$45 ,2,2,5/29/2017,0.08,5,1,0,,
13690981,Cozy Room in Gramercy,62365650318,verified,Meghana,Manhattan,Kips Bay,40.73863,-73.98186,United States,US,False,moderate,Private room,2003,$754 ,$151 ,1,0,,,4,1,0,"Please remember that this is a residential building. The building rules, apartment occupancy restrictions and the year-round tenants must be respected.",
13691533,"Private bedroom, Queenbed on suite bath and closet",16022161631,unconfirmed,Diane,Manhattan,East Harlem,40.80141,-73.94341,United States,US,False,moderate,Private room,2010,$832 ,$166 ,6,0,,,5,5,219,"This apartment is located in a beautiful brownstone in Boston's Back Bay. Quiet hours are between 10pm and 8am. Garbage is collected by the city twice a week, (details of collection days and times are provided in the unit). Maximum occupancy for this unit is 3 persons. No personal items may be left in common hallways. 100% smoke free and no pets allowed.",
13692085,Huge private bedroom,32749309882,unconfirmed,Magd,Manhattan,Harlem,40.82527,-73.95359,United States,US,True,flexible,Private room,2012,$802 ,$160 ,90,0,,,2,1,365,,
13692638,Lovely Room in Brooklyn,59372291854,verified,Lisa& Jonathan,Brooklyn,Gowanus,40.6697,-73.99356999999999,United States,US,False,flexible,Private room,2006,$870 ,$174 ,1,80,6/2/2019,3.1,1,3,282,"House rules: Guests agree to the following terms and conditions 1.Guest(s) agree to NO PARTIES anywhere on the property. Legal action will be taken for parties that cause damages to the unit, property, reputation, or relationship with building staff or other residents.  2.Smoking of any kind is not permitted in the unit or on the premises.  3.Guests agree to abide by maximum occupancy of unit, and observe quiet hours between 9pm and 9am 4.Guests are responsible for action of ALL GUESTS occupying their unit at all times.  5.Guests agree to return all keys, remotes, and parking passes. Replacement fees may apply for unreturned items 6.Guests understand that onsite building staff (maintenance and concierge) are not affiliated with Jordan or AIRBNB. Please contact me directly for any needed items. 7.Guests understand that no pets are to be in the unit.  8.Guests agree to pay replacement cost for any unreturned items, and $125 per hour fee for unauthorized early checkin or late checkout.  15",
13693190,"Sunny bedroom, cozy townhouse in Buschwick",75844033894,verified,Caio,Brooklyn,Bushwick,40.6948,-73.92253000000001,United States,US,True,flexible,Private room,2013,$455 ,$91 ,2,80,7/2/2019,3.11,4,1,3,No Smoking Indoors,
13693742,Private One Bedroom,17421160237,verified,Pedro,Manhattan,Morningside Heights,40.808640000000004,-73.95913,United States,US,True,strict,Private room,2006,$734 ,$147 ,4,0,,,4,1,0,,
13694295,2b2b apt in a luxury building,52830034819,unconfirmed,Aurora,Brooklyn,Williamsburg,40.719640000000005,-73.96421,United States,US,False,strict,Entire home/apt,2011,$986 ,$197 ,4,7,4/29/2018,0.28,4,2,65,"No smoking, No pets. Of course I want you to have a great time, but please no partying at the apartment. Guest must be cortious to other building tenants. The home is for you to have a comfortable place to relax, sleep, and use the amenities.",
13694847,Awesome loft with Amazing views,65410207716,verified,John,Brooklyn,Bedford-Stuyvesant,40.69321,-73.95599,United States,US,True,strict,Entire home/apt,2019,$662 ,$132 ,4,0,,,1,2,0,,
13695399,Audrey's Escape,13943448307,unconfirmed,Kevin,Brooklyn,Brownsville,40.66088,-73.90012,United States,US,True,moderate,Private room,2012,$462 ,$92 ,6,26,6/18/2019,1.0,5,3,90,,
13695952,Spacious Private Room by the East River,24971828823,verified,Dario,Manhattan,East Harlem,40.78546,-73.94117,United States,US,False,flexible,Private room,2007,$300 ,$60 ,3,8,11/1/2017,0.31,4,4,0,Our community is very quiet!! No parties please. That is what Newbury and Boylston Street are for. LOL,
13696504,Beautiful bedroom in Quiet House,63682767471,verified,Abi,Queens,Flushing,40.74218,-73.82833000000001,United States,US,False,flexible,Private room,2012,$208 ,$42 ,2,98,6/23/2019,3.8,5,1,31,"Clean, respectful, no parties :)",
13697056,Downtown Triplex- Spacey East Village Entire Apt,78060729138,unconfirmed,Jonathan,Manhattan,East Village,40.72208,-73.98071,United States,US,True,moderate,Entire home/apt,2017,"$1,073 ",$215 ,3,5,6/14/2018,0.19,1,1,0,,
13697608,Cozy room in charming home,81093358940,verified,Sheila,Bronx,Schuylerville,40.831590000000006,-73.83375,United States,US,False,moderate,Private room,2005,$454 ,$91 ,4,35,6/8/2019,1.36,1,3,171,,
13698161,Comfortable space in Brooklyn,33654777344,unconfirmed,Donald,Brooklyn,Crown Heights,40.66482,-73.93619,United States,US,False,moderate,Private room,2018,"$1,055 ",$211 ,1,1,6/3/2017,0.04,4,1,0,"Of course I want you to have a great time, but please no partying at the apartment. Guests must be respectful of other building tenants. The home is meant for you to have a comfortable place to relax, sleep, use the amenities, and just have a great central location to come home to.",
13698713,Welcoming home in the ❤️ of NYC!,83470741398,unconfirmed,K,Manhattan,Theater District,40.76207,-73.9858,United States,US,True,flexible,Private room,2017,"$1,041 ",$208 ,1,8,5/31/2019,2.09,5,1,5,No Pets allowed.   No smoking.,
13699265,Private Bathroom & Communal Cat in Large Sunny Apt,75751271347,verified,Kung,Brooklyn,Williamsburg,40.70904,-73.9398,United States,US,False,strict,Private room,2014,$402 ,$80 ,3,69,7/5/2019,2.63,5,2,56,"Please keep our place as it is your own - nice and clean. Before you leave turn off lights, AC. Shut the windows.   Please do not use any oils or rich body lotions on our bedsheets. From our previous experiences If we find the stains you will be charged for the items: Full set 50$, flat sheet 15$, pillow case 10$, fitted sheet 15$, towel 10$ Please do not wipe your make up with a towel.  Please do not throw anything inside of toilet: paper towels, hair, oils, food.  Anything accept toilet paper.  Any damaged furniture or fabric should be replaced or paid with original price. Please do not wear high hills in the apartment, the floor is just re-done. Absolutely non-smoking building inside and out, common areas. 1000$ fee will be demanded if a guest smokes in the building.",
13699818,1 BEDROOM apartment in Brooklyn,33974374331,unconfirmed,Laetitia,Brooklyn,Bedford-Stuyvesant,40.69121,-73.95121,United States,US,False,flexible,Entire home/apt,2012,$193 ,$39 ,3,5,2/19/2019,0.27,1,1,1,"Fresh linens and towels are provided. No smoking. No pets. If cannot check out by 11:00 am, let us know. Please be respectful of our neighbors and keep the noise level down. Please clean and keep the place neat. We will take care of trash and linens when we return.",
13700370,"Modern Townhouse for Photo, Film &  Daytime Events",39110091497,unconfirmed,Lanie,Manhattan,Upper West Side,40.77978,-73.97598,United States,US,True,strict,Entire home/apt,2021,"$1,178 ",$236 ,1,0,,,1,1,180,"LOOKING FOR SOMEONE CLEAN/RESPONSIBLE. NO PETS, NO SMOKERS.",
13700922,"Local West Village, Manhattan Apartment",14519012988,verified,Abel,Manhattan,West Village,40.73369,-74.00534,United States,US,False,moderate,Entire home/apt,2018,$382 ,$76 ,4,24,6/28/2019,0.95,5,1,35,"Please remember that this is a residential building. The building rules, apartment occupancy restrictions and the year-round tenants must be respected.  Parties, pets and smoking are not allowed under any circumstances and incur significant fees.",
13701475,UPPER EAST SIDE PRIVATE ROOM!,72748439078,unconfirmed,Lauren,Manhattan,East Harlem,40.78886,-73.94324,United States,US,True,strict,Private room,2003,$805 ,$161 ,1,11,7/15/2017,0.42,3,1,0,"Please remember that this is a residential building. The building rules, apartment occupancy restrictions and the year-round tenants must be respected.  Parties and smoking are not allowed under any circumstances and incur significant fees. Pets may be considered with pre-approval and an additional pet fee.",
13702027,Sunny 2BR Prime Williamsburg with backyard,95810147313,verified,Louiza,Brooklyn,Williamsburg,40.71591,-73.96039,United States,US,False,moderate,Entire home/apt,2005,$621 ,$124 ,5,1,6/7/2017,0.04,3,3,0,It is a professional building we ask there be no parties or loud noise,
13702579,Private Sunny Room in Bushwick,39256391719,verified,Michelle,Brooklyn,Bushwick,40.69055,-73.91599000000001,United States,US,False,moderate,Private room,2020,$804 ,$161 ,1,0,,,2,1,0,"Fresh linens and towels are provided. No smoking, no pets, and no small children allowed. Please be respectful of our neighbors and keep the noise level to a minimum. Please clean and keep the place neat. No more than 2 guests allowed and please do not bring visitors without first getting our permission. No parties. You are otherwise welcome to make yourselves at home.",
13703131,Spacious one bedroom appartement - Williamsburg,45531486714,unconfirmed,Daphnee,Brooklyn,Williamsburg,40.70844,-73.96693,United States,US,False,strict,Entire home/apt,2022,$567 ,$113 ,3,19,6/21/2019,0.73,1,1,218,"Absolutely no smoking!  It is a ground level apartment with a private entrance, there is absolutely no excuse not to walk outside.",
13703684,Spacious apartment in the Lower east side,31943581469,verified,Larry,Manhattan,Lower East Side,40.72037,-73.98701,United States,US,True,moderate,Entire home/apt,2012,"$1,089 ",$218 ,3,19,6/29/2019,0.73,5,1,34,,
13704236,Ms. Dee Comfort Zone,4435636956,verified,Debra,Queens,Jamaica,40.68555,-73.79415999999999,United States,US,True,strict,Private room,2016,"$1,196 ",$239 ,1,15,6/28/2019,0.67,4,2,90,"- Check-in is after 12PM (noon) - No smoking! If I smell smoke or if there is other evidence of smoking, you will forfeit your entire security deposit. - The fireplace is (URL HIDDEN) do not use it as it will cause significant damage. If you do, you will forfeit your entire security deposit. - Check in and check out time can be flexible depending upon the dates you are looking for and whether anyone else is staying. Unless we arrange otherwise, check in and check out is at noon. - The cleaning fee covers two hours. If additional cleaning is required, you will be charged $50/hour, deducted from your deposit. - Out of respect for my neighbors, I must insist upon no parties being held at my place. If my neighbor complains about a party happening, or if there is a big mess left at the place, you will forfeit your entire deposit. - You agree to follow all of the rules of the building, including trash and roof deck rules. Any issues with not following the building rules and you forfeit your ",
13704788,Sunny & cozy 1BR in the heart of Fort Greene,81206461639,verified,Adam,Brooklyn,Fort Greene,40.68647,-73.97531,United States,US,True,strict,Entire home/apt,2011,$58 ,$12 ,5,1,10/16/2017,0.05,1,1,2,No parties or pets.  Please be courteous and keep the space clean.,
13705341,Cozy Studio Apartment with Spacious Backyard!,80929591096,verified,Tony,Brooklyn,East New York,40.66547,-73.88944000000001,United States,US,True,strict,Entire home/apt,2003,$698 ,$140 ,2,145,6/21/2019,5.84,2,1,356,,
13705893,NYC. Central Park West. Prime Spot!,60439965325,unconfirmed,Mark,Manhattan,Upper West Side,40.772290000000005,-73.97944,United States,US,False,strict,Entire home/apt,2016,$478 ,$96 ,4,10,5/14/2018,0.43,4,1,68,,
13706445,Unique Upper East Side apartment with backyard,75892388971,verified,Tim And Allison,Manhattan,Upper East Side,40.77568,-73.95405,United States,US,False,moderate,Entire home/apt,2006,$837 ,$167 ,1,20,1/1/2019,0.77,2,1,0,,
13706998,Spacious bedroom in colorful apartment,8959946830,verified,John,Brooklyn,Kensington,40.64354,-73.97967,United States,US,True,strict,Private room,2004,$328 ,$66 ,1,0,,,4,1,0,,
13707550,Bushwick Studio with Private Porch,18901537951,unconfirmed,Alex,Brooklyn,Bushwick,40.70382,-73.91745999999999,United States,US,True,flexible,Entire home/apt,2015,$480 ,$96 ,1,0,,,4,1,0,,
13708102,Charming Bohemian East Village Apartment,35042828283,unconfirmed,Chelsea,Manhattan,East Village,40.731590000000004,-73.98447,United States,US,True,moderate,Entire home/apt,2017,$618 ,$124 ,3,5,8/23/2017,0.19,2,1,0,"Please remember that this is a residential building. The building rules, apartment occupancy restrictions and the year-round tenants must be respected.  Parties, pets and smoking are not allowed under any circumstances and incur significant fees.",
13708654,Quiet Private Room in Scenic NYC Neighborhood,65353193378,verified,Caitlin,Manhattan,Washington Heights,40.85865,-73.93559,United States,US,True,moderate,Private room,2003,$297 ,$59 ,2,13,9/16/2018,0.55,3,1,0,,
13709207,"Charming Carroll Gardens, Brooklyn Apartment",19716699179,unconfirmed,Triada,Brooklyn,Carroll Gardens,40.68057,-73.99395,United States,US,False,moderate,Entire home/apt,2021,"$1,115 ",$223 ,2,69,7/1/2019,2.66,5,1,275,,
13709759,Brooklyn Dream Home + Private Patio,49546519194,unconfirmed,Sabrina,Brooklyn,Brooklyn Heights,40.692840000000004,-73.99633,United States,US,True,moderate,Entire home/apt,2018,$520 ,$104 ,2,12,10/7/2018,0.46,5,1,39,,
13710311,Huge room in a clean brownstone in Brooklyn.,87136435097,verified,Max Prana,Brooklyn,Bedford-Stuyvesant,40.694179999999996,-73.94447,United States,US,False,strict,Private room,2018,$701 ,$140 ,2,19,6/5/2019,0.76,5,1,4,No Smoking  No Pets,
13710864,Fantastic Sunny peaceful room in Riverdale,76214579646,unconfirmed,Vicdania,Bronx,North Riverdale,40.91169,-73.90564,United States,US,False,strict,Private room,2020,$879 ,$176 ,365,0,,,1,1,363,Enjoy and be respectful,
13711416,Beautiful Studio Apartment on the E70th St,97085378684,verified,Maria,Manhattan,Upper East Side,40.7672,-73.95495,United States,US,True,flexible,Entire home/apt,2008,$260 ,$52 ,1,89,6/22/2019,3.43,5,1,9,"Please remember that this is a residential building. The building rules, apartment occupancy restrictions and the year-round tenants must be respected.  Parties and smoking are not allowed under any circumstances and incur significant fees. Parties and smoking are not allowed under any circumstances and incur significant fees. Pets may be considered with pre-approval and an additional pet fee.",
13711968,"Cozy, private room in Morningside Heights",23578637684,unconfirmed,Mahnoor,Manhattan,Morningside Heights,40.81368,-73.95919,United States,US,True,strict,Private room,2018,"$1,075 ",$215 ,1,0,,,3,1,0,"Respectful, quiet but enjoyable stay! Clean, or messy and then clean up before they leave! ;-)",
13712521,Quaint 1 Bedroom in Historic Home,51927992704,unconfirmed,Jeff,Queens,Sunnyside,40.747890000000005,-73.91428,United States,US,False,flexible,Entire home/apt,2008,$95 ,$19 ,30,3,12/2/2017,0.13,3,1,213,,
13713073,"Cute, spacious room in Crown Heights",5540885608,verified,Megan E,Brooklyn,Crown Heights,40.669540000000005,-73.93975,United States,US,True,strict,Private room,2007,$511 ,$102 ,3,8,3/30/2019,0.31,3,2,0,,
13713625,Family-friendly Bright Studio in Our Brooklyn Home,19533932880,unconfirmed,Jody,Brooklyn,East Flatbush,40.65064,-73.95045,United States,US,True,moderate,Entire home/apt,2021,$708 ,$142 ,2,73,6/29/2019,3.09,1,1,66,,
13714177,Clean Comfy Private Room in Heart of Williamsburg,18176317778,unconfirmed,Caitlin,Brooklyn,Williamsburg,40.712270000000004,-73.96233000000001,United States,US,True,moderate,Private room,2004,"$1,003 ",$201 ,5,2,6/11/2018,0.08,2,1,0,No Smoking or Pets,
13714730,Adorable room in Astoria - 20 mins to Manhattan!,29727122312,unconfirmed,Anushua,Queens,Astoria,40.76682,-73.90807,United States,US,True,strict,Private room,2020,$445 ,$89 ,2,27,6/15/2019,1.03,5,2,338,,
13715282,PRIME WILLIAMSBURG- Spacious 4BR Bohemian Oasis,46347549068,unconfirmed,Bethany,Brooklyn,Williamsburg,40.71353,-73.9578,United States,US,False,flexible,Entire home/apt,2019,$497 ,$99 ,3,9,5/12/2019,0.4,5,3,11,"Please Note: This unit was just renovated in April 2016 and it comfortably accommodates one to three guests (two guests in the bedroom and 1 guest on the available queen air mattress).  Please request an air mattress (if needed) when making a reservation. No smoking, no pets, no parties, and must be 25 years old to book.   Please be mindful to our neighbors in the building; quiet hours after 10pm. Please be considerate of our next guests who will be staying after you, if something is broken or needs fixing, please let me know, as I have an arsenal of tools and enjoy fixing things. For check-out, please ensure: -  All plates and cups are left in the sink or dishwasher -  All trash is left in the kitchen trash can or bagged and left next to the trash can (additional bags are under the sink) -  All windows are closed and locked -  If used, the air mattresses are deflated and put away (please leave used linens for the air mattresses on the floor) -  If furniture was moved during your stay,",
13715834,Sunny & cozzy room in beautiful apartment,82221588947,verified,Michèle,Brooklyn,Crown Heights,40.67541,-73.93253,United States,US,False,moderate,Private room,2011,$367 ,$73 ,7,0,,,4,1,59,,
13716387,A Chic Harlem stay,36700320940,unconfirmed,Devon,Manhattan,Harlem,40.82336,-73.94511999999999,United States,US,True,flexible,Private room,2006,"$1,171 ",$234 ,30,4,9/10/2018,0.17,3,8,67,,
13716939,Upper East Side 1 bedroom near Central park,45913314670,unconfirmed,Sean,Manhattan,Upper East Side,40.774809999999995,-73.95640999999999,United States,US,False,moderate,Entire home/apt,2006,"$1,053 ",$211 ,3,32,5/27/2019,1.22,2,1,4,,
13717491,Beautiful Dupl Brooklyn Apartment w/ a Big Terrace,32187777553,unconfirmed,Dee,Brooklyn,Bedford-Stuyvesant,40.69205,-73.95803000000001,United States,US,True,strict,Entire home/apt,2017,$605 ,$121 ,3,1,5/22/2017,0.04,3,1,0,"Please treat this home as your own and respect the neighbors. No parties, smoking, or additional guests (other than the agreed upon).",
13718044,Cozy Contemporary Couch by Central Park,51228538932,verified,Shia,Manhattan,Morningside Heights,40.80387,-73.95853000000001,United States,US,False,moderate,Private room,2014,$172 ,$34 ,3,103,6/17/2019,3.93,3,2,18,,
13718596,East Village Studio Apartment,34598240520,unconfirmed,Patrick,Manhattan,East Village,40.7241,-73.98959,United States,US,False,strict,Entire home/apt,2012,"$1,181 ",$236 ,7,9,11/5/2018,0.35,3,1,0,"No pets, no smoking, no parties.  No guests not on the reservation.  You are liable for any damage. Please do NOT move the furniture we've had damage in the past because of this.  If you need to move anything for a reason please ask. We will give you access to Netflix.  Please respect the account. Please report anything broken at the beginning of your reservation to avoid the loss of your security deposit.  Clean all your dishes and clean up after yourself.  Please keep the noise down.",
13719148,Contemporary Room Close to Columbia & Central Park,37799076830,verified,Shia,Manhattan,Harlem,40.8042,-73.95669000000001,United States,US,True,moderate,Private room,2003,$236 ,$47 ,2,41,4/1/2019,1.57,3,2,1,,
13719700,Modern Brooklyn brownstone in prime location,90209521552,unconfirmed,Margot,Brooklyn,Prospect Heights,40.67787,-73.97225,United States,US,False,strict,Entire home/apt,2022,$875 ,$175 ,3,3,7/16/2017,0.12,1,1,0,,
13720253,Crown Heights Air Bnb/Sublet,82912775779,unconfirmed,Noah,Brooklyn,Crown Heights,40.675709999999995,-73.94915999999999,United States,US,True,flexible,Private room,2014,$298 ,$60 ,1,0,,,5,1,0,- - Please be courteous and quiet when coming in and out - Do not talk to neighbors - No smoking inside - No parties allowed - Clean up after yourself - Respect the property - Shoes off please  - No loud music or TV after 1:00 AM,
13720805,Large 1 Bedroom in Astoria/Long Island City!,73504789980,verified,Andrea,Queens,Astoria,40.76843,-73.93257,United States,US,False,strict,Private room,2019,$466 ,$93 ,3,17,4/23/2019,0.65,5,2,334,,
13721357,"BEST LOCATION, ONLY 5 MIN TO MANHATAN.",27466529846,verified,Ana Y Victor,Brooklyn,Williamsburg,40.710390000000004,-73.96139000000001,United States,US,True,moderate,Private room,2017,$545 ,$109 ,1,44,5/8/2019,2.19,4,4,77,No smoking or parties and be respectful of upstairs guests and neighbors.,
13721910,Cozy 1 Bedroom with Queen bed,41880238914,unconfirmed,Andrea,Queens,Astoria,40.76848,-73.93213,United States,US,False,strict,Private room,2014,"$1,049 ",$210 ,3,27,7/2/2019,1.03,3,2,154,No smoking or parties allowed,
13722462,Union Square Private Sunny Dream Home,37589418218,unconfirmed,Kseniya,Manhattan,Gramercy,40.7358,-73.9889,United States,US,True,flexible,Entire home/apt,2008,$441 ,$88 ,1,68,7/2/2019,2.67,1,1,324,,
13723014,Red Flower,14902045471,verified,Paul,Manhattan,Harlem,40.8225,-73.94493,United States,US,True,strict,Entire home/apt,2012,$726 ,$145 ,1,78,7/7/2019,3.0,4,1,84,"Are we allowed to drive the boats? All of our boats are in-slip rentals, and can't be taken out. Many of our rental locations have charter services available in the same marina, and we can get you information regarding these services if you desire an excursion. How safe is the location? The boats are in very safe locations. There are gates for entrance, and a fully staffed office looking after the marina. Each boat can be secured while you are on board, or if you are away for the day. The parking is all in well lit and maintained lots. Do I need to bring my car, and where do I park? We recognize the hassle of traveling with a car within cities. We try to select marinas that are convenient for car-free exploring. Most of our locations are within walking distance to major tourist sites, and also have an abundance of public transportation options. If you do need to drive to the marina, we can provide you with information for finding a parking spot convenient to the marina and boat.  Do th",
13723567,A Home Base in Brooklyn,98301615671,unconfirmed,John,Brooklyn,Williamsburg,40.70545,-73.94714,United States,US,True,strict,Private room,2019,$315 ,$63 ,1,96,6/15/2019,3.82,3,2,79,,
13724119,Williamsburg Sanctuary,13925852647,unconfirmed,Tiffany,Brooklyn,Williamsburg,40.7137,-73.95711,United States,US,True,strict,Entire home/apt,2013,$143 ,$29 ,3,32,6/23/2019,1.25,3,1,33,"No smoking, no pets. Security deposit required.  Please no parties, though this is a totally separate apartment there is another apartment in the building. The tenant in this other apartment is quiet and respectful of our guests and he asks that our guests also be respectful of noise levels.",
13724671,Beautiful One bedroom in Midtown Manhattan,93489279196,verified,Stanley,Manhattan,Murray Hill,40.750170000000004,-73.97686999999999,United States,US,True,flexible,Entire home/apt,2015,"$1,030 ",$206 ,30,0,,,2,50,180,No smoking No pet allowed,
13725223,Luxury Studio Apartment in Downtown Brooklyn,29816176609,unconfirmed,Zexi,Brooklyn,Downtown Brooklyn,40.694590000000005,-73.98261,United States,US,False,strict,Entire home/apt,2003,$456 ,$91 ,5,2,8/29/2017,0.08,5,1,0,,
13725776,"Spacious, sunny room in Upper West Side, Manhattan",81845713471,unconfirmed,Ben,Manhattan,Upper West Side,40.79939,-73.96752,United States,US,False,flexible,Private room,2004,$837 ,$167 ,7,1,8/24/2017,0.04,2,3,0,,
13726328,Spacious Bedroom in Duplex,11235374514,unconfirmed,Charlotte,Brooklyn,Bushwick,40.69804,-73.9182,United States,US,False,flexible,Private room,2010,$124 ,$25 ,2,0,,,1,1,0,"Hello there! Please only enter the front door of the building if I have let you in or you have been given the key beforehand.  Please leave the apartment and its contents in the same condition you found it. Please no one in the building or apartment except the registered guests.  This is a strict one.  Thanks for understanding! Please no eating or drinking on the sofa. (Also, please hand wash any dishes used.) Please walk gently in the apartment and observe quiet hours of 8pm-10am. It is an old building and sound transfers easily.  Definitely no smoking and/or any other ""substances"" on the premises. Sorry, none of the alcohol in the apartment is for guest consumption. Thank you for respecting the property and also my furnishings. This helps me offer nice things for consequent guests! Sorry for the litany of rules, but adhering to these will make everyone happy. I like to keep a calm & clean place. Thank you! Paul",
13726880,Private Room in the Heart of Brooklyn!,43707995747,verified,Laura,Brooklyn,Gowanus,40.68432,-73.98867,United States,US,True,moderate,Private room,2022,$751 ,$150 ,1,0,,,2,2,0,"We like to keep things quiet and peaceful and expect that our guests will be respectful of our space and belongings. No smoking, no illegal substances.",
13727433,Comfy Wall Street Apartment,46973711112,unconfirmed,Allie,Manhattan,Financial District,40.705859999999994,-74.00875,United States,US,False,moderate,Private room,2016,$115 ,$23 ,1,3,6/4/2017,0.12,1,1,0,,
13727985,Private Bedroom in Artist's Apartment,90184029342,verified,Tami,Brooklyn,Midwood,40.61143,-73.9543,United States,US,True,strict,Private room,2004,$106 ,$21 ,2,12,7/30/2017,0.46,2,1,0,- No Smoking In the House.  There is a back porch accessible through the kitchen where you can smoke. - We try to keep the house very clean and would like to ask you to please remove your shoes when entering the house so that dirt doesn't trek around the house.  There is a shoe cabinet right by the entrance where you can store your shoes.  Some slippers will also be provided and can be found inside the shoe cabinet. - Please clean after yourself after you use the bathroom. It is a shared bathroom. The same goes for the kitchen. ,
13728537,Private Room and Bath in the Lower East Side!,41875373861,verified,Lauren,Manhattan,East Village,40.722879999999996,-73.98342,United States,US,False,strict,Private room,2021,$198 ,$40 ,1,3,8/27/2017,0.12,1,1,0,,
13729090,Renovated Modern Home Ideal for a FAMILY!,89435059030,unconfirmed,Richard,Brooklyn,Windsor Terrace,40.65766,-73.97614,United States,US,True,strict,Entire home/apt,2018,$476 ,$95 ,3,8,11/30/2018,0.32,1,1,0,"Kitchen, please:  - Do not leave perishable items in the fridge or on the counter for extended stays.  General, please:  - Treat our home as you would your own. - Clean up after yourself. We ask that you leave the common areas as you found them and do your dishes when you're finished with them.  - Feel free to use linens and towels as you need them. At the end of your stay, please leave them by the washer & dryer.  - We are smoke-free and pet-free.  - This rule is a must: Enjoy your stay!",
13729642,Spacious Private Room - Newly Renovated Harlem Apt,6067623660,verified,Trisha,Manhattan,Harlem,40.812709999999996,-73.94055,United States,US,True,strict,Private room,2005,$830 ,$166 ,2,21,3/18/2018,0.81,5,1,0,"No loud music, No pets, No smoking, No additional guess allow; Room is  offered for one person only.",
13730194,Loft Studio in Clinton Hill/Bed-Stuy Brooklyn,71723438252,verified,Adriana,Brooklyn,Bedford-Stuyvesant,40.68626,-73.95918,United States,US,True,strict,Entire home/apt,2013,$193 ,$39 ,1,0,,,3,1,0,,
13730746,"Carroll Gardens Brooklyn, Sunny and Modern Triplex",83937110868,unconfirmed,Caroline,Brooklyn,Gowanus,40.68112,-73.98921,United States,US,True,moderate,Entire home/apt,2019,$467 ,$93 ,7,4,4/26/2019,0.17,4,1,72,No other pets allowed. No smoking. We expect general respect for our house and things. No access to private bedrooms.,
13731299,Cozy sleeping nook in the heart of Brooklyn!,83376402975,verified,Ashkon,Brooklyn,Crown Heights,40.674040000000005,-73.95616,United States,US,False,flexible,Private room,2015,$620 ,$124 ,7,0,,,4,1,0,#NAME?,
13731851,"PRIVATE, QUIET, Clean NY APT. 3mins to JFK Airport",6972783574,verified,Ada,Queens,Jamaica,40.6705,-73.77787,United States,US,False,flexible,Entire home/apt,2012,$908 ,$182 ,1,22,6/2/2019,0.85,5,2,305,,
13732403,Easy trip to Manhattan!  Large Private Garden!,34631515802,verified,Mo,Brooklyn,Bedford-Stuyvesant,40.68391,-73.95783,United States,US,True,strict,Entire home/apt,2008,$203 ,$41 ,3,4,5/6/2018,0.17,5,1,250,- No Smoking In the House. There is a back porch accessible through the kitchen where you can smoke. - We try to keep the house very clean and would like to ask you to please remove your shoes when entering the house so that dirt doesn't trek around the house. There is a shoe cabinet right by the entrance where you can store your shoes. Some slippers will also be provided and can be found inside the shoe cabinet. - Please clean after yourself after you use the bathroom. It is a shared bathroom. The same goes for the kitchen.,
13732956,Bushwick Chef's house,42352694681,unconfirmed,Heejun,Brooklyn,Bushwick,40.69445,-73.91161,United States,US,False,flexible,Private room,2006,"$1,095 ",$219 ,1,22,7/1/2019,0.85,5,1,331,- Enjoy Your self and have a pleasant stay!,
13733508,Private room in Harlem-Sublet or short term stay,41676507811,verified,Roberto,Manhattan,Harlem,40.83168,-73.94743000000001,United States,US,False,strict,Private room,2006,$319 ,$64 ,7,0,,,2,1,0,- No Smoking In the House. There is a back porch accessible through the kitchen where you can smoke. - We try to keep the house very clean and would like to ask you to please remove your shoes when entering the house so that dirt doesn't trek around the house. There is a shoe cabinet right by the entrance where you can store your shoes. Some slippers will also be provided and can be found inside the shoe cabinet. - Please clean after yourself after you use the bathroom. It is a shared bathroom. The same goes for the kitchen.,
13734060,Beautiful apt w/terrace Bushwick. 1block frm train,33393512991,verified,Bam,Brooklyn,Bushwick,40.695170000000005,-73.92541,United States,US,False,strict,Entire home/apt,2016,$837 ,$167 ,2,15,6/23/2019,0.59,2,2,0,No parties. No smoking please,
13734613,Bed-Stuy Artists Retreat,9291817937,verified,Kelley,Brooklyn,Bedford-Stuyvesant,40.690870000000004,-73.946,United States,US,False,strict,Private room,2010,$501 ,$100 ,3,0,,,2,1,0,Be respectful and no smoking in room,
13735165,"Entire Apt – 2 BR/1 BA – beautiful, block from L/M",83255705280,unconfirmed,Dan,Brooklyn,Bushwick,40.696940000000005,-73.91269,United States,US,False,moderate,Entire home/apt,2012,"$1,037 ",$207 ,7,0,,,1,1,0,#NAME?,
13735717,Med. sized bdrm in Historical house on Staten Isl.,30866704676,verified,Reuben,Staten Island,Stapleton,40.62981,-74.07998,United States,US,True,strict,Private room,2007,$887 ,$177 ,1,25,7/6/2019,1.03,3,4,73,- No loud music after 9 pm please,
13736269,Huge Private Room in New York 10minute to Midtown,39847931334,verified,Meja Hilde,Queens,Long Island City,40.75172,-73.9379,United States,US,True,strict,Private room,2004,$471 ,$94 ,1,3,5/30/2017,0.12,5,1,0,"- Be respectful, we are opening our home to you. - Clean up after yourself. - Be mindful of the neighbors and our busy work schedule. - If you have any questions, please ask, we are very friendly people. - Enjoy your stay!",
13736822,Sunny Art + Plant Brownstone Apartment,37369055956,verified,Alexandra,Brooklyn,Bedford-Stuyvesant,40.68988,-73.94136999999999,United States,US,False,strict,Entire home/apt,2017,$473 ,$95 ,2,0,,,1,1,0,"For visitor who only need to sleep,take shower and rest from 10 pm to 8:00 am No smoking extra quiet please Check out please close doors by manual lock Walking slow and not noise please",
13737374,Private Room with Skyline View. Near LGA airport,41911451383,verified,Win,Queens,East Elmhurst,40.75885,-73.86959,United States,US,True,flexible,Private room,2009,$402 ,$80 ,1,141,7/5/2019,10.19,4,2,47,#NAME?,
13737926,Spacious yet Cozy Room in Manhattan,20505602051,verified,Lexi,Manhattan,Washington Heights,40.84773,-73.93251,United States,US,True,flexible,Private room,2014,$566 ,$113 ,3,2,6/12/2017,0.08,4,1,0,"We really only have one general requirement, and that is: please leave the apartment and its contents in the condition you found it. We do not have a maid service that cleans the apartment so please be respectful.",
13738479,Midtown West,62628601315,unconfirmed,Robert,Manhattan,Hell's Kitchen,40.75405,-73.99377,United States,US,True,moderate,Private room,2004,"$1,021 ",$204 ,1,7,3/11/2018,0.27,5,1,0,,
13739031,Charming East Village One Bedroom,28880187620,verified,Yinhang,Manhattan,East Village,40.723490000000005,-73.9841,United States,US,True,flexible,Entire home/apt,2019,$282 ,$56 ,3,2,6/21/2017,0.08,3,1,0,,
13739583,Private Room in beautiful UWS - Great Location!,69478160853,unconfirmed,Shirley,Manhattan,Upper West Side,40.79978,-73.96797,United States,US,True,strict,Private room,2003,$125 ,$25 ,7,5,7/4/2017,0.19,2,1,0,,
13740136,Lux apt,58399826740,verified,Michele,Manhattan,Kips Bay,40.74518,-73.97929,United States,US,False,flexible,Entire home/apt,2021,$298 ,$60 ,3,0,,,4,1,0,"We expect that you treat our home as you would yours.  If you smoke, you can do so on the back porch. There is absolutely no smoking in the apartment. If you have a pet you are traveling with, please contact us, we can discuss a nice pet.",
