id,NAME,host id,host_identity_verified,host name,neighbourhood group,neighbourhood,lat,long,country,country code,instant_bookable,cancellation_policy,room type,Construction year,price,service fee,minimum nights,number of reviews,last review,reviews per month,review rate number,calculated host listings count,availability 365,house_rules,license
2161166,West Village Large 1BR,41027981869,unconfirmed,Nicole,Manhattan,West Village,40.73377,-74.00259,United States,US,False,strict,Entire home/apt,2004,$137 ,$27 ,2,56.0,7/1/2019,0.73,3,1,215,,
2161718,Elegant loft in heart of soho,98187717918,unconfirmed,Ben,Manhattan,SoHo,40.722559999999994,-73.99767,United States,US,False,flexible,Entire home/apt,2010,$625 ,$125 ,5,7.0,6/27/2014,0.09,3,2,425,,
2162271,*Sunny Master BD* in Garden Duplex,80993400634,verified,Mitty,Brooklyn,Prospect Heights,40.67942,-73.97078,United States,US,True,strict,Private room,2008,$345 ,$69 ,7,13.0,11/1/2018,0.17,3,4,184,,
2162823,Charming Bright 2BR apt- sleeps 6,46048962564,verified,Dikla,Brooklyn,DUMBO,40.704240000000006,-73.98597,United States,US,False,flexible,Entire home/apt,2018,"$1,043 ",$209 ,2,236.0,6/21/2019,3.08,1,2,309,"House Rules 1. All bookings made at least a week before check in are fully refundable if cancelled within 24 hours of booking. After this, you will receive a 50% refund if you cancel at least 7 days before the start of your trip. 2. Check-in time is any time after 4 pm local time. If the unit is ready earlier, we’ll let you know. Check-out is normally 11 am local time, but we’d be happy to extend it as long as we don’t have a cleaning scheduled. Just let us know.  3. All bookings require a security deposit of at least $300. 4. For security measures we require all guests to provide proof of identification through ID verification on our own website. In order to check in, we'll need a photo of your ID.  5. Don’t let $300 go up in smoke. There's no smoking allowed in any Flatbook and a $300 fine for breaking this rule.  6. Unfortunately we don’t allow pets in most of our apartments. 7. Unless you’re staying in one of our specialty apartments, we don’t allow parties or excessive noise. 8. I",
2163375,Cozy PRIVATE Studio Apartment UWS and Jazz Tour.,69380265346,unconfirmed,Sabrina,Manhattan,Upper West Side,40.7982,-73.96394000000001,United States,US,False,strict,Entire home/apt,2019,$749 ,$150 ,1,129.0,6/21/2019,1.76,4,1,72,No smoking,
2163928,Large bedroom/Heart of Brooklyn,10167664396,unconfirmed,Natasha,Brooklyn,Prospect-Lefferts Gardens,40.66167,-73.95098,United States,US,False,flexible,Private room,2016,$145 ,$29 ,5,114.0,6/9/2019,1.49,5,3,88,,
2164480,Great 1BD waterfront City Island NY,43738115490,verified,Noelva,Bronx,City Island,40.85235,-73.78873,United States,US,True,flexible,Entire home/apt,2021,$126 ,$25 ,3,67.0,6/10/2018,0.91,5,1,64,"No guests over other than the ones in your booking. No smoking in apartment or rooftop lounge No partying No loud music that would disturb other residents. No pets. Must be clean and sanitary. If you cook, you must clean up and return all cooking utensils back in their proper place. If you wish to do laundry, bring your own detergent.",
2165032,Modern New Duplex with Private Yard,8343885398,verified,Daniel,Brooklyn,Williamsburg,40.71765,-73.93999000000001,United States,US,False,moderate,Entire home/apt,2004,$102 ,$20 ,7,5.0,1/3/2016,0.09,4,1,90,"House Rules 1. All bookings made at least a week before check in are fully refundable if cancelled within 24 hours of booking. After this, you will receive a 50% refund if you cancel at least 7 days before the start of your trip. 2. Check-in time is any time after 4 pm local time. If the unit is ready earlier, we’ll let you know. Check-out is normally 11 am local time, but we’d be happy to extend it as long as we don’t have a cleaning scheduled. Just let us know.  3. All bookings require a security deposit of at least $300. 4. For security measures we require all guests to provide proof of identification through ID verification on our own website. In order to check in, we'll need a photo of your ID.  5. Don’t let $300 go up in smoke. There's no smoking allowed in any Flatbook and a $300 fine for breaking this rule.  6. Unfortunately we don’t allow pets in most of our apartments. 7. Unless you’re staying in one of our specialty apartments, we don’t allow parties or excessive noise. 8. I",
2165584,"Chic, Cozy LES 1BR. Weekly clean included!",44036382501,verified,Michelle,Manhattan,Chinatown,40.71687,-73.99046,United States,US,True,strict,Entire home/apt,2009,$338 ,$68 ,59,51.0,2/1/2019,0.66,2,1,9,"Please remember that this is a residential building. The building rules, apartment occupancy restrictions and the year-round tenants must be respected.",
2166137,Bask in the light! Studio bedroom in Williamsburg,78309700803,verified,Derek,Brooklyn,Williamsburg,40.710809999999995,-73.96121,United States,US,False,strict,Private room,2022,$434 ,$87 ,6,15.0,1/1/2019,0.21,2,2,182,$1000 refundable security deposit and $150 cleaning fee due at move-in. NO Smoking and NO pets. $100 move in fee charged by the building Check-in after noon and before 7pm. After 7pm $50 fee. No move-ins after midnight. Check-out 11am. ,
2166689,Designer Triplex Loft Soho/Greenwich Village,91290096171,verified,Lauren,Manhattan,SoHo,40.72538,-74.00375,United States,US,False,moderate,Entire home/apt,2004,$863 ,$173 ,10,10.0,6/26/2018,0.13,3,1,243,,
2167241,Brooklyn Fashionista 1Bdr Loft,6895538867,unconfirmed,Kayla,Brooklyn,Bedford-Stuyvesant,40.69437,-73.94519,United States,US,False,strict,Private room,2012,$342 ,$68 ,1,21.0,10/14/2018,0.3,4,3,61,,
2167794,"Private Room & Coffee, only 3 blocks to Train",64928401845,verified,Deanna,Brooklyn,Bushwick,40.69288,-73.90374,United States,US,False,strict,Private room,2014,$599 ,$120 ,2,324.0,6/28/2019,4.3,2,1,357,No smoking or parties allowed,
2168346,WATER VIEWS 3 BED HOME W/ PARKING,25079719872,unconfirmed,Rosana,Brooklyn,Bay Ridge,40.63463,-74.03621,United States,US,False,strict,Entire home/apt,2009,$141 ,$28 ,28,14.0,2/28/2019,0.69,2,2,413,,
2168898,Private room in large 2 bed room,10620032942,unconfirmed,Javier,Manhattan,East Village,40.72726,-73.97573,United States,US,True,strict,Private room,2004,"$1,040 ",$208 ,3,51.0,11/25/2018,0.7,1,1,198,"Please remember that this is a residential building. The building rules, apartment occupancy restrictions and the year-round tenants must be respected.",
2169451,"Cozy private room in 2 Bedroom, BK",89070851541,verified,Mark,Brooklyn,Prospect Heights,40.67501,-73.96651,United States,US,True,strict,Private room,2005,$619 ,$124 ,2,35.0,2/3/2019,0.46,3,1,366,#NAME?,
2170003,Artsy Fashion Pad in the Heart of Williamsburg,14978404373,verified,Patrick And Erin,Brooklyn,Williamsburg,40.719159999999995,-73.95696,United States,US,True,strict,Entire home/apt,2022,"$1,005 ",$201 ,2,11.0,10/15/2018,0.14,1,1,171,Please remove sheets and place in the washing machine when done.  Also place used towels in washing machine.,
2170555,Sunny room with private bathroom,63514577476,unconfirmed,Liya,Manhattan,Harlem,40.806670000000004,-73.95562,United States,US,False,flexible,Private room,2014,$201 ,$40 ,2,53.0,6/23/2019,0.7,4,1,82,"Please remember that this is a residential building. The building rules, apartment occupancy restrictions and the year-round tenants must be respected.",
2171107,Sunny Artist Live/Work Apartment,42563883424,unconfirmed,Larry,Manhattan,Upper West Side,40.79368,-73.96486999999999,United States,US,True,strict,Entire home/apt,2013,$763 ,$153 ,3,159.0,7/3/2019,2.09,4,1,129,"Please remember that this is a residential building. The building rules, apartment occupancy restrictions and the year-round tenants must be respected.",
2171660,"BIG, COMFY, PRIV. room, Big apt, yard, Will-B dplx",57382712391,unconfirmed,M,Brooklyn,Williamsburg,40.711490000000005,-73.94504,United States,US,True,moderate,Private room,2004,$345 ,$69 ,2,7.0,12/21/2018,0.09,5,4,17,,
2172212,Pretty One Bed in Brooklyn Heights,23106117894,verified,Patricia,Brooklyn,Brooklyn Heights,40.692240000000005,-73.99638,United States,US,True,flexible,Entire home/apt,2020,$112 ,$22 ,30,48.0,11/11/2016,0.63,1,1,366,"No smoking, no pets, no parties",
2172764,"Garden Apt, 5 mins from LaGuardia",60457016619,unconfirmed,Gonzalo And Nora,Queens,East Elmhurst,40.76356,-73.8885,United States,US,False,flexible,Entire home/apt,2022,"$1,034 ",$207 ,3,158.0,7/2/2019,2.08,2,2,58,"No smoking, pets or parties.",
2173317,A true Sanctuary in Harlem NYC,56516625658,unconfirmed,Somaya,Manhattan,Harlem,40.82421,-73.93996,United States,US,True,moderate,Entire home/apt,2007,$369 ,$74 ,185,0.0,,,2,4,389,"No smoking, no pets, no parties.",
2173869,Prime East Village location w/backyard garden!,65285147577,unconfirmed,Timothy,Manhattan,East Village,40.73055,-73.98875,United States,US,False,strict,Entire home/apt,2016,$978 ,$196 ,4,65.0,6/16/2019,0.85,5,1,384,Garbage and recycling is on the same floor as unit if more refuse is created than can be stored. There is a door that is labeled as such and there are bins for recycling and a garbage shute for tied plastic garbage bags.,
2174421,Bushwick Duplex 2,32039999875,unconfirmed,Deacon,Brooklyn,Bushwick,40.692820000000005,-73.92477,United States,US,True,moderate,Private room,2011,$72 ,$14 ,1,18.0,5/13/2019,0.32,1,3,289,Sorry no smoking. Please treat this beautiful immaculate apartment like your own.,
2174974,Great Room in Lively East Village,55514124952,verified,John,Manhattan,East Village,40.727920000000005,-73.98507,United States,US,False,strict,Private room,2012,$552 ,$110 ,5,395.0,6/21/2019,5.16,3,2,400,"Thank you for your reservation. By placing your reservation online you indicated that you accepted the terms and conditions which have been printed below.  Please review your reservation summary as below - then print, sign and return the agreement to:  (EMAIL HIDDEN) or fax it to (PHONE NUMBER HIDDEN) or  mail it to: Spare Suite, Inc., 119 Braintree Street, Suite 510, Boston, MA 02134, USA Upon receipt, we will send you the welcome document with check in instructions and how to get your keys. ------------------------------------------------------------------------ ------------------------------------------------------------------------ Terms of the Agreement: BOOKING AND REFUND POLICY Once booked your reservation is guaranteed for the check in and check out times and dates specified. All reservations must be paid in advance, in full for the entire period of stay.  All reservations are final, and NON REFUNDABLE UNDER ANY CIRCUMSTANCES.  If you feel you may need to cancel once booked, yo",
2175526,Brooklyn Heights Brownstone - Private Bdrm Avail.,69942087968,unconfirmed,Gerard,Brooklyn,Brooklyn Heights,40.69293,-73.99679,United States,US,False,moderate,Entire home/apt,2016,$532 ,$106 ,1,11.0,12/9/2018,0.19,3,1,212,,
2176078,Newly Furnished Beautiful & Quiet,43506637557,unconfirmed,Simo,Brooklyn,Fort Hamilton,40.61806,-74.03195,United States,US,True,strict,Entire home/apt,2007,$386 ,$77 ,4,33.0,1/7/2018,0.46,4,1,134,No smoking. No parties. Please respect our neighbors.,
2176630,Cozy East Village Haven,72472817508,unconfirmed,Anna,Manhattan,East Village,40.7282,-73.98893000000001,United States,US,True,flexible,Entire home/apt,2009,$571 ,$114 ,10,35.0,1/2/2019,0.46,3,1,296,,
2177183,Upper West Side Pied A Terre /NYC,50526415904,unconfirmed,Matthew,Manhattan,Upper West Side,40.80014,-73.9637,United States,US,False,strict,Entire home/apt,2014,$464 ,$93 ,2,61.0,6/23/2019,0.8,3,1,59,,
2177735,West Village 1 BR Apartment,13912412967,verified,Betsy,Manhattan,West Village,40.73359,-74.00524,United States,US,False,flexible,Entire home/apt,2012,$637 ,$127 ,3,10.0,1/1/2019,0.3,1,1,337,"No smoking or pets are permitted in the condo.  This unit is single occupancy, although a guest is welcome to visit.  Bruce has prepared a guest book with information about the property, the area and other important details to make your stay more comfortable.",
2178287,"A GEM Garden Apt on Broadway & 42ST QUEENS, NY",43457896869,verified,Yiota,Queens,Astoria,40.757509999999996,-73.91678,United States,US,False,strict,Entire home/apt,2006,$342 ,$68 ,2,260.0,7/3/2019,3.44,2,1,153,,
2178840,NICE ROOM IN ASTORIA NEAR MANHATTAN,68161478042,unconfirmed,Rosa,Queens,Astoria,40.76291,-73.91871,United States,US,True,moderate,Private room,2012,$887 ,$177 ,2,183.0,6/15/2019,2.45,4,2,409,,
2179392,Quiet ST MARK'S PLACE ARTIST'S GEM,17075686502,verified,Lynn,Manhattan,East Village,40.72658,-73.98907,United States,US,False,flexible,Entire home/apt,2008,$58 ,$12 ,2,54.0,7/2/2019,0.72,1,1,390,* No smoking indoors.  * No pets  * No loud/large parties.  * Please clean up before checking out. Any major clean-up service required may be deducted from the deposit.  * Guests staying longer than one week are responsible for keeping the space tidy. We provide cleaning supplies.  * Additional guests permitted for an extra charge per person per night (see price table).,
2179944,"Beautiful, private, uptown studio",82544770044,verified,Alix,Manhattan,Harlem,40.828920000000004,-73.94745,United States,US,False,moderate,Entire home/apt,2004,$624 ,$125 ,3,37.0,9/8/2018,0.48,2,1,405,,
2180497,Sunny Studio in the West Village,59179150887,unconfirmed,Maria,Manhattan,West Village,40.733309999999996,-74.00471,United States,US,True,strict,Entire home/apt,2005,$175 ,$35 ,4,1.0,4/9/2013,0.01,5,1,247,NO Smoking.   Cats Allowed With Fee.,
2181049,Large and sunny one BR (600 sq.ft),53882844476,unconfirmed,Olivia,Manhattan,Morningside Heights,40.81062,-73.96015,United States,US,True,moderate,Entire home/apt,2022,$606 ,$121 ,1,0.0,,,1,1,262,No Smoking No Drugs  No Parties on property No pets Please be consideration of our neighbors. Thank you in advance!,
2181601,Entire 1bdrm cnr of Fort Greene- off Park,19546963524,unconfirmed,Eileen,Brooklyn,Fort Greene,40.688590000000005,-73.9729,United States,US,True,moderate,Entire home/apt,2005,$167 ,$33 ,9,3.0,9/25/2018,0.04,5,1,357,No smoking. No parties. Please be respectful of our neighbors.,
2182153,Great Studio in the heart of Harlem,50177444351,verified,Brinton,Manhattan,Harlem,40.80421,-73.94301999999999,United States,US,False,strict,Entire home/apt,2014,"$1,065 ",$213 ,30,190.0,6/4/2019,2.63,4,4,360,No surprises. No parties. No smoking. No loading of extra guests. My office is in building so I will know who is there.,
2182706,QUIET GARDEN APT FACING NY BAY!,33813555529,unconfirmed,Rosana,Brooklyn,Bay Ridge,40.63508,-74.03628,United States,US,True,moderate,Entire home/apt,2019,$308 ,$62 ,30,25.0,12/22/2018,0.36,5,2,368,No Smoking. Cats Allowed With Fee.,
2183258,"Monthly rental of guest room,limited kitchen use",28761392083,verified,Lorna,Brooklyn,Brooklyn Heights,40.70162,-73.99465,United States,US,False,flexible,Entire home/apt,2015,"$1,038 ",$208 ,180,0.0,,,1,1,21,"Please remember that this is a residential building. The building rules, apartment occupancy restrictions, and the year-round tenants must be respected. There is no smoking allowed in the apartments and significant fees will take place if occurs.",
2183810,Manhattan's Best Deal!,52753082069,verified,Adrianne,Manhattan,East Harlem,40.806259999999995,-73.94009,United States,US,False,moderate,Entire home/apt,2015,$976 ,$195 ,3,,6/21/2019,3.68,1,2,287,,
2184363,ROOM NEAR TIMES SQUARE MANHATTAN,86473300387,verified,Rosa,Queens,Astoria,40.76491,-73.9207,United States,US,True,moderate,Private room,2012,"$1,170 ",$234 ,4,70.0,6/12/2019,1.64,1,2,51,"- No smoking.  - Maximum of 2 people  - Sorry, no children. (I love kids, but this is a very quiet building. It's all young professionals.  - Please be quiet and respectful of others in the building (no loud music/tv,   - Please dispose of baby wipes and/or tampons in the waste basket, not in the toilet. (the pipes are old and clog easily – last time baby wipes had to be removed from the pipes, the plumbing bill was $350!).",
2184915,5 Bdrm Historic Brownstone Triplex,45739634669,verified,Emily,Brooklyn,Cobble Hill,40.685559999999995,-73.99779000000001,United States,US,False,moderate,Entire home/apt,2016,$110 ,$22 ,5,12.0,8/20/2016,0.17,2,1,84,,
2185467,Three Bedroom NY Private Apartment,81003038952,unconfirmed,Rose,Queens,Flushing,40.74142,-73.8202,United States,US,True,moderate,Entire home/apt,2005,$179 ,$36 ,3,96.0,6/22/2019,1.29,4,1,134,#NAME?,
2186020,Spacious 3br Apartment in Brooklyn,54853410141,verified,Nikolai,Brooklyn,Prospect Heights,40.67682,-73.96585999999999,United States,US,False,moderate,Entire home/apt,2014,$795 ,$159 ,5,6.0,8/26/2016,0.08,2,1,222,"Check in after noon and before 7pm. After 7pm $50 charge. No move-ins after midnight. check out 11am.  NO PETS, NO SMOKING ",
2186572,Colorful Manhattan - Harlem Apartment,95855288005,unconfirmed,Lauri,Manhattan,Harlem,40.80684,-73.94844,United States,US,True,flexible,Entire home/apt,2014,$230 ,$46 ,5,25.0,6/1/2019,0.34,2,1,28,"House Rules 1. All bookings made at least a week before check in are fully refundable if cancelled within 24 hours of booking. After this, you will receive a 50% refund if you cancel at least 7 days before the start of your trip. 2. Check-in time is any time after 4 pm local time. If the unit is ready earlier, we’ll let you know. Check-out is normally 11 am local time, but we’d be happy to extend it as long as we don’t have a cleaning scheduled. Just let us know.  3. All bookings require a security deposit of at least $300. 4. For security measures we require all guests to provide proof of identification through ID verification on our own website. In order to check in, we'll need a photo of your ID.  5. Don’t let $300 go up in smoke. There's no smoking allowed in any Flatbook and a $300 fine for breaking this rule.  6. Unfortunately we don’t allow pets in most of our apartments. 7. Unless you’re staying in one of our specialty apartments, we don’t allow parties or excessive noise. 8. I",
2187124,Sunny Luxury Bedroom Guest Bathroom,5271099210,verified,Dn,Manhattan,Midtown,40.75136,-73.97076,United States,US,True,flexible,Private room,2017,$927 ,$185 ,3,3.0,9/24/2014,0.04,4,2,47,"Please remember that this is a residential building. The building rules, apartment occupancy restrictions, and the year-round tenants must be respected. There is no smoking allowed in the apartments and significant fees will take place if occurs.",
2187676,"Next to Subway, Private bedroom",90105267388,verified,Elisa,Manhattan,East Harlem,40.79218,-73.95076,United States,US,True,flexible,Private room,2005,"$1,003 ",$201 ,2,57.0,6/26/2019,0.78,4,4,247,,
2188229,"Village Life, 2-Bedroom, East Village",81636642986,unconfirmed,Sascha,Manhattan,East Village,40.72399,-73.98134,United States,US,True,moderate,Private room,2005,$324 ,$65 ,3,182.0,5/29/2019,2.39,2,1,198,,
2188781,Sunny Nolita 1 Bedroom Apartment,52945548702,verified,Brian,Manhattan,Nolita,40.721309999999995,-73.99486999999999,United States,US,False,strict,Entire home/apt,2021,$757 ,$151 ,3,17.0,6/11/2018,0.22,3,1,140,"Please respect the house as if it were your own. This is NOT a party house. We live here, as do our neighbors. Quiet time is generally after 10 PM.  Check-in is at 3:00 PM sharp, and check out is at 10:00 AM sharp. We DO NOT accommodate early check-ins or late check-outs. These time are in place for our cleaning crew. PLEASE be respectful of their timetable. They work very hard to turn around the entire house in time. If these times do not work for your group please do not book. Please remove your shoes and place them in the sitting room directly to the left of the entrance on the shoe mats. There are no shoes allowed in the house.  We DO NOT allow smoking in the house, on the deck, in the courtyard, or in the driveway.  Please do not loiter in the courtyard or driveway. Parking in the driveway is prohibited. You must contact me when booking to receive instructions for use of my parking pass to a nearby garage. The parking pass is for ONE non-oversized vehicle. The garage is a 2.5 minu",
2189333,Park Slope Pre-War Apartment,24234964435,unconfirmed,Shahdiya,Brooklyn,Park Slope,40.673590000000004,-73.97434,United States,US,True,strict,Entire home/apt,2016,$781 ,$156 ,365,1.0,8/1/2013,0.01,3,1,254,,
2189886,YOUR HARLEM HOME AWAY FROM HOME!!!,61314624966,unconfirmed,Barbara,Manhattan,Harlem,40.8278,-73.94891,United States,US,False,moderate,Entire home/apt,2014,$710 ,$142 ,3,185.0,6/14/2019,2.46,2,1,254,,
2190438,Luxury Furnished 1 BR UWS Apt w W/D & Deck,10218923363,unconfirmed,Izi,Manhattan,Upper West Side,40.787290000000006,-73.97439,United States,US,True,strict,Entire home/apt,2022,$127 ,$25 ,30,8.0,6/3/2019,0.11,5,8,2,NO Smoking,
2190990,1 BR Large Luxury Furnished Apartment UWS,27339378236,verified,Izi,Manhattan,Upper West Side,40.7852,-73.9746,United States,US,False,moderate,Entire home/apt,2009,$646 ,$129 ,30,13.0,6/15/2019,0.2,2,8,236,"Simply to respect the apartment and treat it as if it were your home! Unless you smoke in your home, in which case I ask that you refrain from doing so while in the unit.",
2191543,Luxury Furnished 1 BR Apartment  UWS,39416272062,verified,Izi,Manhattan,Upper West Side,40.785579999999996,-73.97251,United States,US,False,flexible,Entire home/apt,2019,$572 ,$114 ,30,4.0,3/31/2018,0.08,3,8,62,NO Smoking  Pets Allowed with a $375 non refundable pet fee.,
2192095,West Village Gem - Amazing Location,20038559018,verified,Ricky,Manhattan,West Village,40.73464,-74.00225,United States,US,False,flexible,Entire home/apt,2017,$874 ,$175 ,3,28.0,7/3/2019,1.52,2,1,172,,
2192647,"BIG & SUNNY, 1 STOP FROM MANHATTAN",35526267170,verified,Charlotta,Brooklyn,Fort Greene,40.692479999999996,-73.96983,United States,US,True,strict,Entire home/apt,2020,$420 ,$84 ,4,81.0,5/21/2019,1.07,3,2,172,"Be clean, honest and respectful to other people living in the building",
2193199,Upper West Side Amazing Large 2 Bedrooms,16086355453,unconfirmed,Karen,Manhattan,Upper West Side,40.78954,-73.97222,United States,US,False,flexible,Entire home/apt,2004,$922 ,$184 ,30,1.0,10/5/2014,0.02,5,8,389,,
2193752,1BR Apt as featured in New York Mag,60205738379,unconfirmed,Nick,Manhattan,Greenwich Village,40.73506,-73.99728,United States,US,False,flexible,Entire home/apt,2013,$715 ,$143 ,11,14.0,5/29/2018,0.24,4,1,285,"Please remember that this is a residential building. The building rules, apartment occupancy restrictions, and the year-round tenants must be respected. There is no smoking allowed in the apartments and significant fees will take place if occurs.",
2194304,Beautiful Large Furnished Bedroom on UES,95410574772,verified,Sanya,Manhattan,Upper East Side,40.76896,-73.95898000000001,United States,US,False,moderate,Private room,2012,$143 ,$29 ,7,1.0,12/22/2015,0.02,4,1,184,"Thank you for your reservation. By placing your reservation online you indicated that you accepted the terms and conditions which have been printed below.  Please review your reservation summary as below - then print, sign and return the agreement to:  (EMAIL HIDDEN) or fax it to (PHONE NUMBER HIDDEN) or  mail it to: Spare Suite, Inc., 119 Braintree Street, Suite 510, Boston, MA 02134, USA Upon receipt, we will send you the welcome document with check in instructions and how to get your keys. ------------------------------------------------------------------------ ------------------------------------------------------------------------ Terms of the Agreement: BOOKING AND REFUND POLICY Once booked your reservation is guaranteed for the check in and check out times and dates specified. All reservations must be paid in advance, in full for the entire period of stay.  All reservations are final, and NON REFUNDABLE UNDER ANY CIRCUMSTANCES.  If you feel you may need to cancel once booked, yo",
2194856,Charming Apt. In Brooklyn Townhouse,87168354265,verified,Darnell And Allison,Brooklyn,Bedford-Stuyvesant,40.683640000000004,-73.92638000000001,United States,US,True,flexible,Entire home/apt,2019,"$1,096 ",$219 ,3,200.0,7/4/2019,2.62,5,1,334,,
2195409,Great space minutes from Manhattan!,1992668618,verified,Casey,Queens,Astoria,40.7603,-73.91395,United States,US,True,flexible,Private room,2004,$287 ,$57 ,4,19.0,4/25/2019,0.52,3,1,411,,
2195961,Sunny studio apt in heart of SoHo,66555884659,verified,Mischa,Manhattan,SoHo,40.72602,-74.00318,United States,US,True,flexible,Entire home/apt,2019,$97 ,$19 ,20,33.0,6/2/2019,0.43,2,1,166,希望房间里一切都好好的吧,
2196513,TriBeCa 2500 Sq Ft w/ Priv Elevator,72362314064,unconfirmed,Jon,Manhattan,Tribeca,40.71927,-74.00453,United States,US,True,moderate,Entire home/apt,2015,$70 ,$14 ,1,447.0,7/1/2019,5.89,5,3,79,NO Smoking.,
2197066,Cozy studio apartment on upperwest,61987108379,verified,Jennifer,Manhattan,Upper West Side,40.77896,-73.97849000000001,United States,US,False,moderate,Entire home/apt,2022,$963 ,$193 ,7,2.0,8/19/2017,0.03,3,2,406,,
2197618,Greenwich Village Townhouse Apt,82889839193,verified,Linda,Manhattan,West Village,40.73303,-74.00237,United States,US,False,strict,Entire home/apt,2015,$680 ,$136 ,3,108.0,7/1/2019,1.44,2,1,96,"We both are very clean and tidy people. We don't accept smokers. In terms of this, we really want our guests to have good habit of living. We trust our visitors for being tidy, that's why we don't charge any cleansing fee. Party is definitely forbidden here. 我们都是非常干净整洁的人,公寓不租用给吸烟者,所以我们希望租客也是有良好生活习惯的人。我们相信我们的房客都是有良好习惯的人,所以我们不收取任何清洁费。派对聚会等活动是绝对不允许发生的。 We charge $100 deposit in case visitors make any damage in the apartment. The deposit will be keep by Airbnb Inc. If nothing in the apartment get damaged during your stay, Airbnb Inc. will give back your deposit after you leave the apartment. 我们收取100美金的押金以防房客给公寓带来任何损坏,押金将由Airbnb公司保管,如果在房客住宿期间没有任何损坏,Airbnb公司将在您的行程结束之后返还您的押金。",
2198170,Modern Lux 1 br near 2/3/4/5 Trains,80685763709,verified,Priscilla,Brooklyn,Crown Heights,40.673190000000005,-73.95987,United States,US,False,strict,Entire home/apt,2007,$805 ,$161 ,28,1.0,10/29/2015,0.02,3,2,378,,
2198722,Big Room with Bath in Bushwick!,56297592865,unconfirmed,Kate,Brooklyn,Bushwick,40.68923,-73.91946,United States,US,True,moderate,Private room,2021,"$1,093 ",,3,92.0,6/19/2019,1.22,1,3,423,,
2199275,Comfy twin bed/Cosy apartment/East Harlem / Subway,26090679697,verified,Pete & Marcos,Manhattan,East Harlem,40.79307,-73.95138,United States,US,True,flexible,Shared room,2022,$90 ,,2,117.0,6/24/2019,1.53,2,1,182,No smoking No pets,
2199827,Comfortable Apt near Bloomingdales,77055755793,verified,Ellen,Manhattan,Upper East Side,40.76249,-73.96054000000001,United States,US,True,moderate,Entire home/apt,2018,"$1,051 ",,2,66.0,5/28/2019,0.94,1,1,411,,
2200379,New York City - Upper West Side Apt,74896318278,verified,Greta,Manhattan,Upper West Side,40.799620000000004,-73.96523,United States,US,False,strict,Private room,2018,$891 ,,7,70.0,8/12/2018,0.93,2,1,22,"No smoking No pets  No parties No extra guest No loud music No opening of windows Please be aware: This is an old fashioned building, the elevator is small and slow There is no central AC, but 2 efficient window units This is downtown Boston, you may hear some noise of people in the streets",
2200932,Chic  Park Slope Pied-à-terre,83422355423,unconfirmed,Finola,Brooklyn,South Slope,40.66162,-73.97994,United States,US,False,strict,Entire home/apt,2022,$802 ,,7,98.0,6/26/2019,1.39,4,1,361,,
2201484,South Harlem Gem! 113th St & 8th Ave,40665521280,verified,Michael,Manhattan,Harlem,40.801320000000004,-73.95568,United States,US,False,strict,Shared room,2012,"$1,129 ",,1,43.0,6/2/2019,0.61,2,1,277,,
2202036,★Private Room Overlooking the Park★,95870728867,unconfirmed,Yakov & Cynthia,Manhattan,Harlem,40.81309,-73.95267,United States,US,True,flexible,Private room,2009,$256 ,,10,45.0,8/5/2015,0.6,2,1,381,,
2202589,"Modern, Carroll Garden Townhouse",48952931428,verified,Jana,Brooklyn,Carroll Gardens,40.68204,-73.99249,United States,US,False,moderate,Entire home/apt,2010,"$1,044 ",,3,41.0,5/27/2019,0.59,1,2,230,Small pets are allowed. There's an area by the window/fire escape where smoking is allowed.,
2203141,Brooklyn Wildlife Loft Mckibbin st,22041840814,unconfirmed,Chris,Brooklyn,Williamsburg,40.706070000000004,-73.935,United States,US,True,flexible,Entire home/apt,2015,$917 ,,15,10.0,11/9/2013,0.13,1,3,127,,
2203693,Astoria awesome balcony apartment PARKING AVAILABL,78064550548,verified,Ahmed,Queens,Astoria,40.76295,-73.92652,United States,US,True,moderate,Entire home/apt,2006,$649 ,,1,58.0,7/6/2019,0.77,5,1,381,,
2204245,Spacious and EASY access to all!,17264212314,unconfirmed,Nate,Brooklyn,Prospect-Lefferts Gardens,40.65915,-73.9601,United States,US,False,strict,Entire home/apt,2012,$105 ,$21 ,2,48.0,5/5/2019,0.64,2,1,353,"No smoking, no pets, no parties.",
2204798,Gorgeous 2 Fl Apt in1887 Brownstone,34892490386,verified,Vera,Brooklyn,Park Slope,40.67541,-73.9784,United States,US,True,moderate,Entire home/apt,2020,$688 ,$138 ,7,8.0,8/29/2015,0.11,1,1,186,,
2205350,Clean and Cute Shared Room in Very Safe Area,78533995803,verified,Lou,Queens,Astoria,40.76777,-73.91109,United States,US,True,flexible,Shared room,2004,$407 ,$81 ,1,127.0,6/23/2019,1.67,3,4,321,"Thank you for your reservation. By placing your reservation online you indicated that you accepted the terms and conditions which have been printed below.  Please review your reservation summary as below - then print, sign and return the agreement to:  (EMAIL HIDDEN) or fax it to (PHONE NUMBER HIDDEN) or  mail it to: Spare Suite, Inc., 119 Braintree Street, Suite 510, Boston, MA 02134, USA Upon receipt, we will send you the welcome document with check in instructions and how to get your keys. ------------------------------------------------------------------------ ------------------------------------------------------------------------ Terms of the Agreement: BOOKING AND REFUND POLICY Once booked your reservation is guaranteed for the check in and check out times and dates specified. All reservations must be paid in advance, in full for the entire period of stay.  All reservations are final, and NON REFUNDABLE UNDER ANY CIRCUMSTANCES.  If you feel you may need to cancel once booked, yo",
2205902,BK - Spacious & Sunny 4 bedroom apartment,35554918409,unconfirmed,Paul,Brooklyn,Clinton Hill,40.689240000000005,-73.9681,United States,US,False,strict,Entire home/apt,2008,$402 ,$80 ,7,10.0,8/19/2018,0.17,2,1,390,No Smoking No Pets,
2206455,Midtown West Modern & Sunny-near Central Park,25384051269,unconfirmed,Tj,Manhattan,Hell's Kitchen,40.76777,-73.98931999999999,United States,US,False,moderate,Entire home/apt,2006,$636 ,$127 ,1,0.0,,,2,1,215,,
2207007,2BR 2Bath duplex w garden & terrace,67131209043,verified,Sabrina And Eduardo,Brooklyn,Clinton Hill,40.687709999999996,-73.96186,United States,US,True,flexible,Entire home/apt,2009,$700 ,$140 ,6,5.0,7/3/2018,0.07,5,1,246,#NAME?,
2207559,Master Bedroom  Ideal for 2 - Luxury for 1 !,23610994846,unconfirmed,Alicia,Brooklyn,Prospect-Lefferts Gardens,40.6627,-73.95875,United States,US,False,flexible,Private room,2006,$755 ,$151 ,5,8.0,5/27/2014,0.11,5,1,63,• Check-in time is 3PM. • Check-out time 12PM No loud parties. Please leave the apartment as you found it,
2208112,Large 2 BDRM @ McCarren Park!!,54562666775,unconfirmed,Pete,Brooklyn,Greenpoint,40.72031,-73.9483,United States,US,True,moderate,Entire home/apt,2015,$97 ,$19 ,30,71.0,5/31/2019,0.94,3,1,34,The rules for my villa are the same as those for Marriott Custom House Guests.,
2208664,Hip charming Williamsburg apartment,65893037308,verified,Heather,Brooklyn,Williamsburg,40.70798,-73.94263000000001,United States,US,True,flexible,Entire home/apt,2015,"$1,155 ",$231 ,5,7.0,10/26/2016,0.1,2,1,421,,
2209216,Cute Bedroom in Clinton Hill,77995897331,verified,Jen,Brooklyn,Bedford-Stuyvesant,40.69017,-73.95493,United States,US,True,flexible,Private room,2017,$923 ,$185 ,28,1.0,1/3/2017,0.03,1,2,159,,
2209768,Whole Apt: Artsy home by BK Museum,73228534595,unconfirmed,Sabrina,Brooklyn,Crown Heights,40.669740000000004,-73.958,United States,US,True,moderate,Entire home/apt,2005,$288 ,$58 ,3,10.0,4/27/2019,0.85,5,1,384,"Please remember that this is a residential building. The building rules, apartment occupancy restrictions and the year-round tenants must be respected.  Parties, pets and smoking are not allowed under any circumstances and incur significant fees.",
2210321,PRIVATE QUIET SUITE,33620958223,unconfirmed,Cynthia,Brooklyn,Crown Heights,40.67515,-73.95435,United States,US,False,moderate,Private room,2005,$937 ,$187 ,3,10.0,8/26/2017,0.14,4,2,396,Guests should do dishes.,
2210873,"Glowing reviews, hip neighborhood",19058167329,unconfirmed,Keith,Manhattan,Lower East Side,40.72198,-73.98931999999999,United States,US,True,strict,Private room,2020,$543 ,$109 ,3,49.0,9/5/2018,0.69,1,1,140,,
2211425,"LOCATION/garden!(FEMALE only, next to girl's room)",21448368244,verified,Mitty,Brooklyn,Prospect Heights,40.6787,-73.97065,United States,US,False,moderate,Private room,2021,$981 ,$196 ,3,138.0,6/22/2019,1.82,1,4,170,Just the basics -  No Smoking. No Pets. No Parties.  Respect our home and our neighbors. Kids are welcome but the house isn't 'child-proofed',
2211978,Convenient and private,8182281885,unconfirmed,Sarah,Manhattan,Harlem,40.821529999999996,-73.95512,United States,US,False,moderate,Private room,2014,$120 ,$24 ,3,163.0,6/5/2019,2.17,4,2,390,Please treat my apartment as if it were your own.,
2212530,"Lovely room in East Williamsburg, NY",21120623336,unconfirmed,Megan,Brooklyn,Williamsburg,40.712379999999996,-73.9379,United States,US,True,moderate,Private room,2019,$653 ,$131 ,2,0.0,,,3,1,111,No Smoking.  No Pets.,
2213082,Beautiful UES Studio with Backyard for Sublet,85320279241,unconfirmed,Melissa,Manhattan,Upper East Side,40.77421,-73.9528,United States,US,False,strict,Entire home/apt,2018,$514 ,$103 ,45,20.0,1/3/2017,0.26,4,1,355,"Please remember that this is a residential building. The building rules, apartment occupancy restrictions and the year-round tenants must be respected.  Parties, pets and smoking are not allowed under any circumstances and incur significant fees. ",
2213635,Private Entrance Charming Bedroom,42447610627,unconfirmed,Livia,Queens,Glendale,40.70538,-73.89448,United States,US,False,moderate,Private room,2016,$418 ,$84 ,2,132.0,6/25/2019,1.74,1,1,146,,
2214187,Fantastic 1br in Astoria/LIC,40918051783,unconfirmed,Atlanta,Queens,Long Island City,40.744170000000004,-73.94823000000001,United States,US,False,flexible,Private room,2009,$304 ,$61 ,7,12.0,7/5/2019,0.18,5,1,88,,
2214739,Modern 1BR East Village Apt w/patio,766096297,unconfirmed,Sam,Manhattan,East Village,40.72538,-73.98351,United States,US,True,strict,Entire home/apt,2022,$814 ,$163 ,60,11.0,10/15/2015,0.15,5,1,217,No Smoking.  No Pets.  Guest must be able to pick up keys from leasing office tomorrow before 6PM.,
2215291,Peaceful Park Slope near subways,28749446703,unconfirmed,Meredith,Brooklyn,Park Slope,40.67651,-73.98007,United States,US,True,strict,Entire home/apt,2008,$152 ,$30 ,2,45.0,6/19/2017,0.66,1,1,138,,
2215844,Mi Casa Tu Casa Guesthouse Mexico,36857312027,verified,Julio,Bronx,Concourse,40.81906,-73.92806,United States,US,False,flexible,Private room,2009,"$1,088 ",$218 ,2,11.0,9/2/2018,0.18,3,2,316,No Smoking,
2216396,East Village Loft - 1300 sq/ft home - 2 Bedrooms!,64987929433,verified,East Village Loft,Manhattan,East Village,40.72351,-73.98283,United States,US,True,flexible,Entire home/apt,2022,$459 ,$92 ,5,47.0,6/8/2019,0.63,2,1,235,,
2216948,Spacious Room/Great Location,27765357096,unconfirmed,Claudia,Manhattan,East Village,40.729440000000004,-73.98645,United States,US,False,moderate,Private room,2014,$623 ,$125 ,5,66.0,6/26/2019,0.87,1,1,297,,
2217501,Private Room w TV in East Village,1035644660,unconfirmed,Kelly,Manhattan,East Village,40.723459999999996,-73.97907,United States,US,False,moderate,Private room,2011,"$1,034 ",$207 ,5,35.0,6/10/2019,0.46,5,1,220,,
2218053,Spacious 1bd Near Trendy Neighborhoods And City,24312552194,verified,Hayley,Brooklyn,Bedford-Stuyvesant,40.69872,-73.94635,United States,US,True,flexible,Entire home/apt,2009,$365 ,$73 ,5,12.0,5/30/2019,1.01,4,1,414,,
2218605,Large room in Beautiful communal house,45471225269,unconfirmed,Kyla,Brooklyn,Bushwick,40.69449,-73.91156,United States,US,False,strict,Private room,2007,$939 ,$188 ,2,65.0,6/5/2019,0.86,3,5,376,,
2219158,"BIG, COMFY, 4BR DUPLEX, GARDEN APT, Williamsburg",13521383379,unconfirmed,M,Brooklyn,Williamsburg,40.71132,-73.94493,United States,US,False,strict,Entire home/apt,2020,$826 ,$165 ,2,39.0,6/5/2019,0.58,3,4,182,,
2219710,NYC Brooklyn Sunset Park- Great Bed. Great House.,131602089,unconfirmed,Audrey,Brooklyn,Sunset Park,40.648709999999994,-74.00774,United States,US,True,strict,Private room,2003,$417 ,$83 ,2,45.0,1/1/2018,0.6,1,3,271,,
2220262,Short Term Stay in Chelsea/MP NYC,44197546771,unconfirmed,Renee,Manhattan,Chelsea,40.74583,-74.00363,United States,US,True,flexible,Entire home/apt,2020,$812 ,$162 ,7,0.0,,,1,1,398,,
2220814,Beautiful loft in trendy Harlem!,61550491890,verified,Sandrine,Manhattan,Harlem,40.80938,-73.94196,United States,US,True,strict,Entire home/apt,2008,$411 ,$82 ,7,5.0,6/3/2017,0.16,4,1,369,,
2221367," Private 1 bdrm Lefferts Gr, BK apt",7920546536,unconfirmed,Rachael,Brooklyn,Prospect-Lefferts Gardens,40.65743,-73.96155,United States,US,True,moderate,Entire home/apt,2008,$325 ,$65 ,2,38.0,6/10/2019,0.61,2,1,195,"No shoes in the apartment, please",
2221919,"Entire Spaceous, Sunny, Loft in Clinton Hill",18215728807,verified,Christine,Brooklyn,Bedford-Stuyvesant,40.68854,-73.95742,United States,US,True,flexible,Entire home/apt,2010,$659 ,$132 ,2,17.0,5/1/2019,0.23,1,2,26,,
2222471,☆☆New Discount☆☆ 10min to Manhattan,89342024817,unconfirmed,Daniel,Queens,Astoria,40.75537,-73.91648,United States,US,True,moderate,Private room,2006,"$1,089 ",$218 ,4,70.0,5/23/2019,0.93,1,2,256,,
2223024,Apartment in the heart of Upper East Side,74619172134,unconfirmed,Mary,Manhattan,Upper East Side,40.770540000000004,-73.95496999999999,United States,US,False,moderate,Entire home/apt,2013,$884 ,$177 ,3,226.0,7/1/2019,2.97,4,1,392,,
2223576,Quiet central Williamsburg Loft room,80884323740,verified,Alexander,Brooklyn,Williamsburg,40.718,-73.96603,United States,US,True,moderate,Private room,2010,$804 ,$161 ,5,8.0,5/31/2017,0.11,1,1,64,No pets and No smoking in the room. thanks.,
2224128,Heart of Williamsburg - authentic & central!,91182072510,unconfirmed,Marc,Brooklyn,Williamsburg,40.720909999999996,-73.96124,United States,US,False,strict,Entire home/apt,2019,$570 ,$114 ,3,166.0,7/28/2018,2.21,5,1,72,,
2224681,"Lovely studio in Manhattan,New York",25700805156,unconfirmed,Fabia,Manhattan,Midtown,40.758790000000005,-73.9638,United States,US,False,moderate,Entire home/apt,2013,$130 ,$26 ,360,1.0,1/2/2015,0.02,1,1,163,"Must love dogs :) NO SMOKERS/SMOKING/DRUG USE Check-in time during the week has to be after 2 pm. I am flexible on the weekends and with check out times.  Other than that, be respectful and have fun in Boston.",
2225233,Tribeca Loft w/ Private Elevator,4089871990,unconfirmed,Jon,Manhattan,Tribeca,40.720079999999996,-74.0043,United States,US,True,flexible,Entire home/apt,2004,$55 ,$11 ,1,25.0,6/22/2019,0.36,5,3,194,"Absolutely NEVER any smoking of any kind. Please be reasonably quiet (""No partying""!) Sheets, towels and other cleaning are done by me.  I do these things at different times.  Always before dinner time (or before you arrive it's a really late arrival). Probably before 3pm, during the school year at about 1pm usually.  If you have really specific needs, you should speak up ahead of time.",
2225785,Furnished BrownStone Apartment,49757949200,verified,Jeffrey,Brooklyn,Bedford-Stuyvesant,40.6824,-73.93597,United States,US,True,flexible,Entire home/apt,2022,$585 ,$117 ,30,52.0,1/3/2018,0.72,2,3,375,"Overall please treat the apartment as you would you own home, Keeping it as clean and tidy as you found it.  Please clean up before checking out. Any major clean-up service required may be deducted from the deposit.  No Loud / Large Parties .  Please include the number of people who will be staying before you reserve this apartment. No extra guests other than the maximum 4 allowed who booked  All smoking should be done outside, as this is a smoke free enviroment. ",
2226337,2 floor Luxury Loft in the best location!,40537091334,unconfirmed,S,Manhattan,Chelsea,40.74398,-73.99624,United States,US,True,flexible,Entire home/apt,2017,$568 ,$114 ,6,127.0,6/14/2019,1.68,2,2,197,,
2226890,Small room with private bath in New York,61979811836,verified,Colin,Manhattan,Harlem,40.82943,-73.94728,United States,US,True,flexible,Private room,2019,$54 ,$11 ,2,18.0,6/16/2019,3.05,4,2,38,#NAME?,
2227442,Sunny Brownstone  Attic,4936762938,unconfirmed,Elizabeth,Brooklyn,Bedford-Stuyvesant,40.69235,-73.93836,United States,US,False,strict,Entire home/apt,2004,$280 ,$56 ,2,210.0,7/6/2019,2.79,1,2,173,"Please Note: This unit was just renovated last year and it comfortably accommodates 2 guests, but up to 3 guests are permitted if you so desire (two guests in the bedroom and 1 guest on the available queen size air mattress). Please request an air mattress (if needed) when making a reservation. No smoking, no pets, no parties, and must be 25 years old to book.   For check-out, please ensure: -  All plates and cups are left in the sink or dishwasher -  All trash is left in the kitchen trash can or bagged and left next to the trash can (additional bags are under the sink) -  All windows are closed and locked -  If used, the air mattresses are deflated and put away (please leave used linens for the air mattresses on the floor) -  If furniture was moved during your stay, please return to its original location Please be mindful to our neighbors in the building; quiet hours after 10pm is not a must, but a nice gesture. Please be considerate of our next guests who will be staying after you, i",
2227994,My Other Little Guestroom,67615268830,verified,Linda,Queens,Flushing,40.75334,-73.81699,United States,US,True,flexible,Private room,2020,$565 ,$113 ,1,281.0,6/11/2019,3.7,3,3,176,- Concierge available between 8am and Midnight,
2228547,Studio in Best Possible Location!,8857736415,unconfirmed,Lindsay,Manhattan,Chelsea,40.74112,-74.00177,United States,US,False,strict,Entire home/apt,2006,$983 ,$197 ,5,70.0,10/26/2018,1.16,5,1,107,- Concierge available between 8am and Midnight,
2229099,HELLO HARLEM,71004908177,unconfirmed,Obora & Michael,Manhattan,Harlem,40.8035,-73.94764,United States,US,False,strict,Entire home/apt,2011,$134 ,$27 ,4,128.0,6/22/2019,1.76,4,1,186,Please note there is no elevator in this building and there are indeed stairs. And the stairwells are rather narrow. Do not book if either of these are a problem for you.,
2229651,Dear Potential Airbnb Guests.,74871671135,unconfirmed,Nigel,Brooklyn,Flatbush,40.64745,-73.95606,United States,US,True,flexible,Private room,2016,$993 ,$199 ,3,58.0,5/19/2019,0.77,2,1,26,,
2230204,Prime Williamsburg. Brand new,63040268858,unconfirmed,Daniel,Brooklyn,Williamsburg,40.71454,-73.9507,United States,US,False,moderate,Private room,2010,$662 ,$132 ,3,179.0,6/9/2019,2.39,2,2,100,,
2230756,"HISTORIC WILLIAMSBURG, BKLYN",60642014522,verified,Brady,Brooklyn,Williamsburg,40.71797,-73.95508000000001,United States,US,False,moderate,Entire home/apt,2018,"$1,101 ",$220 ,3,173.0,6/6/2019,2.34,3,3,57,"Please remember that this is a residential building. The building rules, apartment occupancy restrictions and the year-round tenants must be respected.  Parties, pets and smoking are not allowed under any circumstances and incur significant fees. ",
2231308,"Beautiful & spacious apartment in Astoria, Queens",19418681076,verified,Chris,Queens,Ditmars Steinway,40.77117,-73.90427,United States,US,False,strict,Private room,2016,"$1,017 ",$203 ,1,16.0,6/30/2019,0.68,5,2,127,"No guests allowed. Please keep noise levels to a low/moderate rate. Please maintain the space with care & cleanliness. Loss of Key - A charge of $50 will be levied. What you do in your personal time is entirely up to you, but when staying at our place we have a strict no drug use policy. This is just the law… not so much one of our rules.",
2231860,Huge Sunny Loft w Patio + Charm,15313618622,verified,Elise,Brooklyn,Bedford-Stuyvesant,40.687529999999995,-73.95851,United States,US,False,strict,Entire home/apt,2003,$715 ,$143 ,30,26.0,5/20/2019,0.38,3,1,370,"No pets/parties. Treat it like its your own place- actually no, if you treat your apartment poorly then don't treat it like it's yours! Lol. Just be as considerate as possible :)",
2232413,Beautiful duplex in a brownstone,56459124903,unconfirmed,Laura,Manhattan,Harlem,40.81241,-73.94371,United States,US,False,moderate,Entire home/apt,2003,$662 ,$132 ,30,31.0,1/4/2018,0.43,4,2,411,"No Smoking anywhere on the property!  DO NOT ask anyone but me how to get into the building or where the lock box is DO NOT mention airbnb to anyone around the building, or leave airbnb printouts laying around. Sheets, towels and other cleaning are done by me.  I do these things at different times.  Always before dinner time (or before you arrive it's a really late arrival). Probably before 3pm, during the school year at about 1pm usually.  If you have really specific needs, you should speak up ahead of time. Never assume cleaning will happen before 3pm.  12noon-3pm check ins are a courtesy. Occasionally cleaning happens 4pm-ish, always by 6pm and not after your arrival if arriving later.  Do not write reviews about beds that were unmade if you were allowed to check in early. In general no dogs please.  Other pets are generally allowed, if for instance you happen to travel with your kitty...or ferret (check first) Please confine trash to wastebaskets and take trash out (behind building",
2232965,Quiet and Comfort Near Columbia University,31391439427,verified,Lisa,Manhattan,Harlem,40.80384,-73.95419,United States,US,False,strict,Private room,2011,"$1,187 ",$237 ,2,27.0,5/26/2019,0.57,1,1,367,"Our home is your home! We hope you enjoy your stay in Back Bay and respect it as your own :) We expect the apartment to be clean, and everything to be in the same condition as when you arrived upon departure.",
2233517,Beautiful Ground Level Townhouse Ap,53362250885,verified,Jose,Manhattan,Lower East Side,40.71886,-73.98496999999999,United States,US,False,moderate,Entire home/apt,2010,$355 ,$71 ,3,7.0,12/10/2017,0.1,4,1,65,This is our home and we request that you treat the apartment and our belongings with respect during your stay. It is a quaint and quiet brownstone and we would appreciate your keeping the volume low for the neighbors.,
2234070,Bohemian East Village Brownstone,20677526850,unconfirmed,Kristin,Manhattan,Gramercy,40.73323,-73.98224,United States,US,False,strict,Private room,2018,"$1,135 ",$227 ,3,7.0,9/5/2016,0.1,3,3,7,No smoking inside (fine on the deck provided you are respectful by throwing away cigarette butts) No parties No use of grill on deck,
2234622,One Bedroom Townhouse Apartment,23812495677,verified,L.A.,Manhattan,East Harlem,40.79535,-73.93274,United States,US,False,strict,Entire home/apt,2017,$54 ,$11 ,5,83.0,6/10/2019,1.11,2,2,111,#NAME?,
2235174,Washington Heights/Inwood apartment,90395973518,verified,Emilie,Manhattan,Inwood,40.85933,-73.92863,United States,US,True,strict,Private room,2006,$427 ,$85 ,1,46.0,7/7/2019,0.79,4,2,19,"This is a quiet, residential building. Please respect myself and other tenants by keeping your airbnb activities in the building to yourself. ",
2235727,Cozy Private Space in Williamsburg Townhome,16049304720,verified,Clyde,Brooklyn,Williamsburg,40.70851,-73.949,United States,US,False,flexible,Entire home/apt,2003,$361 ,$72 ,4,112.0,7/2/2019,1.49,2,1,238,"Please remember that this is a residential building. The building rules, apartment occupancy restrictions and the year-round tenants must be respected.  Parties and smoking are not allowed under any circumstances and incur significant fees. Pets may be considered with pre-approval and an additional pet fee.",
2236279,Sunny+Cozy Double bedroom in BKLYN!,80571246704,unconfirmed,Chris And Zach,Brooklyn,East Flatbush,40.648509999999995,-73.94667,United States,US,True,flexible,Private room,2013,$501 ,$100 ,1,356.0,7/5/2019,4.72,5,3,359,"Please remember that this is a residential building. The building rules, apartment occupancy restrictions and the year-round tenants must be respected.  Parties, pets and smoking are not allowed under any circumstances and incur significant fees.",
2236831,Beautiful eco triplex w/green roof. Free yoga/spa.,77007648222,unconfirmed,Loretta,Brooklyn,Carroll Gardens,40.67881,-73.99379,United States,US,True,moderate,Entire home/apt,2019,$729 ,$146 ,1,55.0,6/2/2019,0.73,3,2,36,Please do not smoke in the home. Please leave the trash in the trash bag at the end of your stay.,
2237383,Upscale Designer Studio-Heart of Manhattan,93044862649,unconfirmed,Marina,Manhattan,Upper East Side,40.770140000000005,-73.96222,United States,US,True,strict,Entire home/apt,2021,$956 ,$191 ,2,68.0,6/6/2019,0.91,4,1,223,I expect my guests to treat the space as  if it was their own house. Please keep it clean and organized when you leave the way it was.,
2237936,Spacious Modern & Comfy 2BR in BK Brownstone,20345843353,unconfirmed,Noreen,Brooklyn,Boerum Hill,40.68554,-73.98924,United States,US,True,flexible,Entire home/apt,2019,$500 ,$100 ,4,95.0,4/14/2019,1.26,2,1,330,,
2238488,Spacious 1br East Village Apartment,56546041583,verified,Shunan,Manhattan,East Village,40.7265,-73.99,United States,US,False,moderate,Entire home/apt,2021,$389 ,$78 ,5,16.0,9/27/2018,0.25,4,2,357,,
2239040,Staten Island 1st floor Apartment,8835705542,unconfirmed,Mary,Staten Island,Port Richmond,40.629220000000004,-74.13354,United States,US,False,flexible,Entire home/apt,2008,$342 ,$68 ,30,0.0,,,2,3,317,For your privacy host will not greet you unless you want to meet host. The apartment is separated in two by a long hallway and black room divider. Guest are NOT  allowed to go past the black room divider. 1) Upon arrival ring door bell and someone will buzz to unlock and let you into the apartment building.  2) Walk into the apartment.  3) Directly ahead will be your room. The light switch is in the room on the right of the room door . Also above light switch is the heat thermometer for the room and a air conditioner in the window. 4) Keep room door closed. 5) Pick up the keys that are in the Lotus leaf bowl on top of the desk next to the lamp. 6) keys to the lobby door (large key) apartment door (medium key) and room (small key) 7) The bathroom is directly on the left of the room. 8) Keep bathroom door closed when your occupied in there. 9) The microwave and refrigerator are in the closet. 10) Toiletries are in the closet and are for your use. 11) Cold water bottles in the refrigerato,
2239593,"“L l,x w w.     XThank &mftkn.  .",70998009688,unconfirmed,Anthony,Manhattan,Midtown,40.76463,-73.98111999999999,United States,US,True,strict,Private room,2009,"$1,012 ",$202 ,7,44.0,5/31/2019,0.74,4,3,308,,
2240145,"Modern Duplex 1 bdrm , 1.5 Baths + terrace!",44069293059,unconfirmed,Mark,Manhattan,Upper East Side,40.7744,-73.95578,United States,US,False,strict,Entire home/apt,2022,$683 ,$137 ,1,116.0,6/17/2019,1.54,4,1,91,"Please remember that this is a residential building. The building rules, apartment occupancy restrictions and the year-round tenants must be respected.  Parties, pets and smoking are not allowed under any circumstances and incur significant fees.",
2240697,Sunny Private BR Crown Hts Brooklyn,97513103485,unconfirmed,Candace,Brooklyn,Crown Heights,40.67418,-73.94660999999999,United States,US,True,flexible,Private room,2009,$641 ,$128 ,1,4.0,8/1/2017,0.06,3,1,177,"Please remember that this is a residential building. The building rules, apartment occupancy restrictions and the year-round tenants must be respected.  Parties and smoking are not allowed under any circumstances and incur significant fees. Pets may be considered with pre-approval and an additional pet fee.",
2241250,Private Brownstone,21224731986,verified,Amy,Manhattan,East Harlem,40.79417,-73.94376,United States,US,False,strict,Entire home/apt,2015,"$1,154 ",$231 ,31,235.0,5/31/2019,3.14,5,2,201,,
2241802,bedroom in big sunny loft (& Roof!),37199154257,verified,Aurora,Brooklyn,Bushwick,40.69935,-73.93713000000001,United States,US,True,flexible,Private room,2020,$861 ,$172 ,2,10.0,6/23/2019,0.13,2,2,99,No smoking in house.  No parties.  Please be courteous and respectful to our neighbors.  Please leave the apartment in the same clean condition that you found it. Have a great time in Boston and come home to Fenway!,
2242354,Private room in beautiful neighborhood in Brooklyn,12739566791,unconfirmed,Nevena,Brooklyn,Crown Heights,40.67046,-73.94835,United States,US,False,strict,Private room,2015,$536 ,$107 ,3,2.0,5/29/2017,0.08,4,1,358,Absolutely no smoking and no pets,
2242906,"Clean Room, Central Location in Manhattan",70470544487,unconfirmed,Tim,Manhattan,Lower East Side,40.720459999999996,-73.98773,United States,US,True,strict,Private room,2016,$400 ,$80 ,1,360.0,6/24/2019,4.79,4,1,273,No shoes in the bedroom and in the bathroom please!,
2243459,Entire home/apt in New York,46038961608,unconfirmed,Patrick,Manhattan,East Village,40.7239,-73.97869,United States,US,False,flexible,Entire home/apt,2015,$147 ,$29 ,5,0.0,,,4,1,286,,
2244011,Relaxing and Roomy in Crown Heights,19728712968,unconfirmed,Rachael,Brooklyn,Crown Heights,40.67414,-73.95666999999999,United States,US,False,strict,Private room,2008,$921 ,$184 ,2,51.0,6/30/2019,0.68,1,2,318,,
2244563,Stay like a real New Yorker!,92520807299,unconfirmed,Michael,Manhattan,Midtown,40.75783,-73.96383,United States,US,True,moderate,Entire home/apt,2013,$640 ,$128 ,2,146.0,6/9/2019,1.94,2,1,271,"- This is a quiet, residential building. Guest need to be conscious of this. - Hostess must know your arrival time at least 2 days in advance",
2245116,Park Slope 1br by Barclays Center/Prospect Park!,27927890086,verified,Stephanie,Brooklyn,Williamsburg,40.71273,-73.94399,United States,US,False,flexible,Entire home/apt,2018,"$1,031 ",$206 ,30,16.0,12/2/2017,0.21,3,2,352,#NAME?,
2245668,Room in a cozy loft,53394333083,unconfirmed,Swetha,Manhattan,SoHo,40.720859999999995,-73.99999,United States,US,True,strict,Private room,2017,$976 ,$195 ,3,64.0,5/6/2019,0.87,2,2,416,- We are young professionals who like to keep our home neat and quiet. We'll likely be working from home at times during your stay and we ask you to respect us the same way we'll respect you. No shoes from outside worn inside the house (indoor shoes are okay). No smoking. No pets.,
2246220,Brooklyn Family Friendly Brownstone,86411591710,verified,Tara,Brooklyn,Crown Heights,40.67151,-73.94885,United States,US,True,flexible,Entire home/apt,2014,$361 ,$72 ,2,3.0,5/29/2017,0.08,5,1,172,,
2246773,Relaxed in New York,61305011872,verified,Eo,Manhattan,Harlem,40.825,-73.94131999999999,United States,US,False,flexible,Private room,2012,$302 ,$60 ,3,145.0,6/9/2019,1.97,5,1,401,,
2247325,Bedroom for two in Chelsea,18952087174,verified,Michael,Manhattan,Chelsea,40.74573,-73.99712,United States,US,False,moderate,Private room,2018,"$1,117 ",$223 ,1,206.0,6/19/2019,2.72,5,1,273,"Please remember that this is a residential building. The building rules, apartment occupancy restrictions and the year-round tenants must be respected.  Parties and smoking are not allowed under any circumstances and incur significant fees. Pets may be considered with pre-approval and an additional pet fee.",
2247877,Cozy Carroll Gardens Brownstone Apt,77272681791,verified,Emma,Brooklyn,Carroll Gardens,40.683040000000005,-73.99819000000001,United States,US,True,moderate,Entire home/apt,2022,$456 ,$91 ,2,279.0,6/22/2019,3.68,5,1,406,No smoking No pets We don't charge a cleaning fee - guests are expected to contribute to light cleaning and maintenance for comfort of guests after them!,
2248429,Sunny Clinton Hill Apt w/Patio,86321265862,unconfirmed,Alex,Brooklyn,Crown Heights,40.6803,-73.96059,United States,US,False,strict,Entire home/apt,2018,$426 ,$85 ,28,18.0,4/29/2019,0.36,5,1,426,,
2248982,Designer Studio Apt in Red Hook,14261454187,verified,Orren,Brooklyn,Red Hook,40.67685,-74.00581,United States,US,True,strict,Entire home/apt,2011,$179 ,$36 ,3,162.0,6/26/2019,2.15,3,1,395,,
2249534,"Big 1st Meal, Kind Host, Ace Space",93980832032,unconfirmed,Nancy,Manhattan,East Harlem,40.797940000000004,-73.93223,United States,US,False,strict,Private room,2013,$777 ,$155 ,1,323.0,7/1/2019,4.3,2,1,418,,
2250086,Amazing Queens Oasis Steps to Train,15843707769,unconfirmed,Kia,Queens,Astoria,40.76359,-73.92531,United States,US,True,flexible,Entire home/apt,2009,$116 ,$23 ,2,13.0,10/14/2018,0.26,4,2,188,,
2250639,2BR Sunny Apt - 15 min from MIDTOWN,64367593502,unconfirmed,Sen,Queens,Sunnyside,40.74361,-73.91662,United States,US,False,moderate,Entire home/apt,2013,$384 ,$77 ,30,9.0,8/20/2016,0.12,1,2,202,"- This is a quiet, residential building. Guest need to be conscious of this. - Host must know arrival time.  No arrivals after 10 pm",
2251191,Beautiful Gramercy duplex loft with terrace,42957871055,unconfirmed,Shayne,Manhattan,Gramercy,40.73807,-73.98187,United States,US,True,moderate,Entire home/apt,2022,$427 ,$85 ,30,23.0,5/18/2019,0.61,4,2,364,#NAME?,
2251743,Large luxury 1 bedroom loft in Gramercy,54212049933,verified,Shayne,Manhattan,Gramercy,40.73775,-73.98324000000001,United States,US,False,strict,Entire home/apt,2014,"$1,059 ",$212 ,30,17.0,1/31/2019,0.39,3,2,221,,
2252296,Private RM 15min from the Manhattan,58539205106,unconfirmed,Edward,Queens,Astoria,40.75959,-73.90835,United States,US,False,flexible,Private room,2004,"$1,085 ",$217 ,1,136.0,6/23/2019,1.81,3,2,-6,#NAME?,
2252848,"Clean, Complete and Cool",41022707049,unconfirmed,Michael,Manhattan,Nolita,40.71972,-73.99438,United States,US,True,strict,Entire home/apt,2021,$588 ,$118 ,5,26.0,6/1/2019,0.35,5,1,238,,
2253400,Sunny Sunset Park Artist Loft,88479998554,unconfirmed,Doug,Brooklyn,Sunset Park,40.65475,-74.01210999999999,United States,US,True,flexible,Entire home/apt,2011,$308 ,$62 ,2,70.0,6/24/2019,0.96,1,1,420,,
2253952,Summer Special Price Times Square,19537452086,unconfirmed,Maja & Pierre,Manhattan,Theater District,40.759640000000005,-73.98534000000001,United States,US,True,moderate,Private room,2005,$146 ,$29 ,2,243.0,6/27/2019,3.22,2,1,347,,
2254505,Cozy apartment in Greenpoint,61293972573,unconfirmed,Hasan,Brooklyn,Greenpoint,40.72428,-73.94471999999999,United States,US,False,flexible,Entire home/apt,2010,"$1,197 ",$239 ,14,6.0,10/6/2018,0.1,2,1,164,No smoking inside No parties  No additional guests without approval  Please be respectful and clean,
2255057,Spacious sunny bedroom - East Village (A),12032052674,verified,David,Manhattan,East Village,40.730990000000006,-73.98761999999999,United States,US,False,strict,Private room,2022,$879 ,$176 ,10,36.0,12/1/2018,0.48,5,2,186,,
2255609,"Verna's Brownstone  (no stove, no gatherings)",5478910184,verified,Verna,Brooklyn,Bedford-Stuyvesant,40.685320000000004,-73.92429,United States,US,False,flexible,Private room,2022,$771 ,$154 ,1,14.0,3/8/2019,0.2,1,2,1,,
2256162,"1 Bedroom Apt Greenpoint, Brooklyn",9256391856,unconfirmed,Leigh,Brooklyn,Greenpoint,40.72613,-73.93915,United States,US,True,moderate,Entire home/apt,2012,$931 ,$186 ,2,2.0,10/2/2014,0.03,2,1,311,#NAME?,
2256714,Stunning Designer Loft in the heart of Chelsea,76789942503,unconfirmed,George,Manhattan,Chelsea,40.74877,-73.9994,United States,US,True,moderate,Entire home/apt,2004,$560 ,$112 ,5,44.0,7/3/2019,0.62,2,1,47,No smoking  No pets College student at Berklee college of music. Please treat the house belongings as if they were your own.  Be comfortable and respectful.,
2257266,Great Apartment with luxurious bath in NYC/Chelsea,52404759781,unconfirmed,D. Anthony,Manhattan,Chelsea,40.74197,-73.99701999999999,United States,US,False,strict,Private room,2018,$946 ,$189 ,2,123.0,6/23/2019,1.63,3,1,302,,
2257819,Private Cozy Bedroom in Brooklyn,36624708490,unconfirmed,Karen,Brooklyn,East Flatbush,40.6536,-73.94883,United States,US,False,flexible,Private room,2005,$581 ,$116 ,2,248.0,5/5/2019,3.27,1,2,397,"Please remember that this is a residential building. The building rules, apartment occupancy restrictions and the year-round tenants must be respected.  Parties and smoking are not allowed under any circumstances and incur significant fees. Pets may be considered with pre-approval and an additional pet fee.",
2258371,"Bright, Huge Room in 3 Bedroom Apt.",50404419298,unconfirmed,Gen,Manhattan,Washington Heights,40.83535,-73.94334,United States,US,False,flexible,Private room,2019,$672 ,$134 ,7,26.0,6/25/2019,0.67,3,6,295,"Please remember that this is a residential building. The building rules, apartment occupancy restrictions and the year-round tenants must be respected.  Parties, pets and smoking are not allowed under any circumstances and incur significant fees.",
2258923,You take living or bedroom!,18213681773,unconfirmed,Alfred,Queens,Richmond Hill,40.7017,-73.82316,United States,US,False,moderate,Shared room,2004,$454 ,$91 ,7,0.0,,,2,1,188,,
2259475,Two Comfy Rooms in Park Slope,60605627186,verified,Devi,Brooklyn,South Slope,40.66326,-73.98805,United States,US,True,moderate,Private room,2018,$864 ,$173 ,1,49.0,6/24/2019,0.66,5,4,125,"Please be respectful in our home. Feel free to use the kitchen, cups, plates, appliances, or make some tea or coffee. Please wash dishes when you're done using them, or load them into the dishwasher (no need to run the dishwasher if it isn't full). Quiet hours in our building are from 10pm-8am. No smoking in the building. Cats are allowed! If you are planning on staying Sunday night into Monday morning, please note that checkout must be at 8am (or earlier).",
2260028,"Private bedroom in Manhattan, NYC ",22896011015,unconfirmed,Elisa,Manhattan,East Harlem,40.78859,-73.94715,United States,US,False,flexible,Private room,2017,$121 ,$24 ,2,152.0,5/31/2019,2.03,3,4,68,,
2260580,Private Entrance - Backyard Summer Dining - Enjoy,2386052202,unconfirmed,Michelle,Brooklyn,Bedford-Stuyvesant,40.69034,-73.95321,United States,US,True,moderate,Entire home/apt,2013,$629 ,$126 ,7,195.0,7/3/2019,2.72,4,2,356,"Please remember that this is a residential building. The building rules, apartment occupancy restrictions and the year-round tenants must be respected.  Parties, pets and smoking are not allowed under any circumstances and incur significant fees. ",
2261132,"Sunny Apt in Harlem, New York",32766986237,unconfirmed,Mary Anne,Manhattan,Harlem,40.81102,-73.94561999999999,United States,US,False,flexible,Entire home/apt,2022,$546 ,$109 ,30,23.0,12/7/2017,0.47,2,1,210,"Our neighbors are easy going but also relatively quiet, so if you can keep that vibe, all will be well. Also, please no smoking, and absolutely no pets.",
2261685,Greenpoint - with your own space!,21363994238,verified,Susan,Brooklyn,Greenpoint,40.730259999999994,-73.95596,United States,US,True,moderate,Private room,2013,$690 ,$138 ,4,54.0,6/2/2019,0.72,1,1,268,"Please remember that this is a residential building. The building rules, apartment occupancy restrictions and the year-round tenants must be respected.  Parties and smoking are not allowed under any circumstances and incur significant fees. Pets may be considered with pre-approval and an additional pet fee.",
2262237,"Private studio in staten island 

",76488224507,verified,Johnny,Staten Island,St. George,40.64699,-74.08151,United States,US,True,moderate,Entire home/apt,2021,$848 ,$170 ,2,0.0,,,4,1,37,,
2262789,Private Room in Large Apt w/ Gorgeous Park View,51706198218,unconfirmed,Ife,Manhattan,Harlem,40.806020000000004,-73.95362,United States,US,False,strict,Private room,2011,"$1,167 ",$233 ,2,233.0,6/25/2019,3.12,2,1,12,,
2263342,Group-Student-Friendly Bklyn House,47446547240,verified,Steve And Heather,Brooklyn,East Flatbush,40.63612,-73.946,United States,US,False,flexible,Entire home/apt,2006,$989 ,$198 ,2,19.0,12/27/2018,0.31,3,4,301,"Be considerate of others.  Quiet hours after 10 pm.  No smoking. Super Strict 30 Days: 50% refund up until 30 days prior to arrival, except fees Note: The Super Strict cancellation policy applies to special circumstances and is by invitation only. Cleaning fees are always refunded if the guest did not check in. The Airbnb service fee is non-refundable. If there is a complaint from either party, notice must be given to Airbnb within 24 hours of check-in. Airbnb will mediate when necessary, and has the final say in all disputes. A reservation is officially canceled when the guest clicks the cancellation button on the cancellation confirmation page, which they can find in Dashboard > Your Trips > Change or Cancel. Cancellation policies may be superseded by the Guest Refund Policy, safety cancellations, or extenuating circumstances. Please review these exceptions. Applicable taxes will be retained and remitted.",
2263894,Great Bushwick Studio Apartment,43645581585,verified,Wilfredo,Brooklyn,Bushwick,40.69305,-73.90398,United States,US,True,flexible,Entire home/apt,2020,$308 ,$62 ,2,116.0,7/4/2019,1.55,3,1,361,"NO loud parties. NO smoking in the condo, hallways, stairwells, or even on the front steps! Building occupants are allergic to smoke! This is ideal for ONE person, comfortable queen sized bed. Longer Bookings Preferred(Per Condo By-Laws and neighbors) preferred. We do not respond to requests for only a few nights stay! Thanks.",
2264446,Big UWS 1Bdrm 2 min to Central Park,25128976340,verified,Chris,Manhattan,Upper West Side,40.78264,-73.97803,United States,US,False,flexible,Entire home/apt,2015,$433 ,$87 ,3,3.0,10/14/2016,0.06,2,1,329,"Quiet Respectful, clean & organized Nice to my cat Can't arrive after 1 am to check in",
2264998,"Cobble Hill, sunny large 1BR apt",20002734557,unconfirmed,Lelia,Brooklyn,Cobble Hill,40.687540000000006,-73.99284,United States,US,True,moderate,Entire home/apt,2003,$214 ,$43 ,30,38.0,6/1/2019,0.51,4,1,388,#NAME?,
2265551,Stunner Garden Apt in Townhouse,71728163117,unconfirmed,Stephen,Manhattan,Washington Heights,40.83695,-73.94124000000001,United States,US,True,flexible,Entire home/apt,2005,$614 ,$123 ,2,0.0,,,1,1,142,"Please remember that this is a residential building. The building rules, apartment occupancy restrictions and the year-round tenants must be respected.  Parties, pets and smoking are not allowed under any circumstances and incur significant fees.",
2266103,Sunny 1 or 2 BR apt in Boerum Hill,18230900547,unconfirmed,Judy,Brooklyn,Boerum Hill,40.68779,-73.98517,United States,US,True,moderate,Entire home/apt,2021,$483 ,$97 ,4,227.0,6/17/2019,3.01,1,1,49,,
2266655,THE PUTNAM,39427951915,unconfirmed,Teedo,Brooklyn,Bedford-Stuyvesant,40.68674,-73.93845,United States,US,False,flexible,Entire home/apt,2022,$448 ,$90 ,9,27.0,5/21/2019,0.37,5,1,241,,
2267208,Brownstone Flat on Tree-Lined Block,79326111097,unconfirmed,Eric,Brooklyn,Crown Heights,40.672709999999995,-73.94551,United States,US,True,moderate,Entire home/apt,2003,"$1,021 ",$204 ,1,349.0,6/30/2019,4.73,1,2,141,,
2267760,"1BR, 1BTH Duplex W/ LRG OUTD SPACE",28151095413,unconfirmed,Scooter,Manhattan,Kips Bay,40.74268,-73.97853,United States,US,False,flexible,Entire home/apt,2009,$681 ,$136 ,1,67.0,6/15/2019,0.89,3,1,261,"Overall please treat the apartment as you would you own home, Keeping it as clean and tidy as you found it. Please clean up before checking out. Any major clean-up service required may be deducted from the deposit. No Loud / Large Parties . Please include the number of people who will be staying before you reserve this apartment. No extra guests other than the maximum 2 allowed who booked All smoking should be done outside, as this is a smoke free enviroment.",
2268312,The Bushwick 3BR 2BA 20 mins to NYC,31755676481,verified,Ingrid,Brooklyn,Bushwick,40.68185,-73.90655,United States,US,False,strict,Entire home/apt,2004,$191 ,$38 ,4,95.0,6/13/2019,1.33,5,2,72,,
2268865,Convenient Location! 1 BR on 1Floor,25907268743,verified,Yuko,Manhattan,Chelsea,40.7457,-73.99775,United States,US,True,moderate,Entire home/apt,2011,$388 ,$78 ,4,5.0,1/1/2019,0.07,1,1,90,No cooking Strictly one guest only,
2269417,Modern Loft Space on Gramercy Park,15191021295,verified,James,Manhattan,Gramercy,40.73708,-73.98455,United States,US,False,flexible,Entire home/apt,2009,$551 ,$110 ,4,23.0,6/30/2019,0.31,2,1,87,"Please remember that this is a residential building. The building rules, apartment occupancy restrictions, and the year-round tenants must be respected. There is no smoking allowed in the apartments and significant fees will apply if this rule is broken.",
2269969,Brand new 2BD Apt in Gramercy,22690797168,verified,Victoria,Manhattan,Kips Bay,40.740520000000004,-73.97907,United States,US,True,moderate,Entire home/apt,2019,$92 ,$18 ,30,36.0,6/29/2019,0.48,5,1,244,,
2270521,Manhattan & Time Square in 30 minutes. Back room.,53743508837,unconfirmed,Devika,Queens,Sunnyside,40.736,-73.92425,United States,US,False,flexible,Private room,2022,$576 ,$115 ,5,59.0,7/5/2019,1.76,4,4,29,,
2271074,Charming Housebarge w/ outside deck,55392788172,unconfirmed,Angus,Brooklyn,Sheepshead Bay,40.58408,-73.94122,United States,US,False,moderate,Entire home/apt,2005,"$1,164 ",$233 ,4,72.0,5/28/2016,0.97,5,2,88,,
2271626,Beautiful Park Slope 3bdrm Duplex,94866450998,unconfirmed,Evelyn,Brooklyn,Park Slope,40.66698,-73.98161999999999,United States,US,True,flexible,Entire home/apt,2008,$444 ,$89 ,3,21.0,11/26/2018,0.3,4,1,372,,
2272178,Chic Brooklyn Apt.- Private Room,746709623,verified,Gee,Brooklyn,Bedford-Stuyvesant,40.680679999999995,-73.9535,United States,US,True,moderate,Private room,2021,$412 ,$82 ,2,44.0,6/29/2019,0.62,3,1,227,#NAME?,
2272731,"Forget NYC, Stay in Williamsburg! Best 1 BR Apt",16257768606,verified,Greg,Brooklyn,Williamsburg,40.71852,-73.95616,United States,US,False,strict,Entire home/apt,2007,$990 ,$198 ,6,32.0,5/10/2019,0.43,3,1,196,,
2273283,Private Room & Bath in Brooklyn!,85475634444,verified,Autumn,Brooklyn,Crown Heights,40.66773,-73.96144,United States,US,True,flexible,Private room,2012,$248 ,$50 ,2,132.0,6/30/2019,1.75,3,1,4,"The rules of the house are pretty basic: treat it like your own and please keep things tidy.  Like any city apartment, the walls can be a bit thin, so guests are encouraged to keep things to a reasonable volume and be respectful of my neighbors. I have some pretty annoying allergies, so no pets are allowed.",
2273835,Harlem Short Term Stay,49120620409,verified,George,Manhattan,Harlem,40.80477,-73.9512,United States,US,True,flexible,Entire home/apt,2013,$318 ,$64 ,4,37.0,6/23/2019,0.49,5,3,295,No smoking No pets We don't charge a cleaning fee - guests are expected to contribute to light cleaning and maintenance for comfort of guests after them!,
2274388,Beautiful duplex on Bowery,39628894669,unconfirmed,Loli,Manhattan,Chinatown,40.71744,-73.99718,United States,US,False,flexible,Private room,2005,$652 ,$130 ,3,37.0,7/7/2019,0.58,2,1,51,,
2274940,Huge 1br - tons of light - williamsburg,22933160365,unconfirmed,David,Manhattan,Nolita,40.72068,-73.99576,United States,US,True,strict,Entire home/apt,2006,$337 ,$67 ,1,23.0,7/23/2018,0.46,3,1,169,,
2275492,2BR spacious luminous brownstone,75520915450,unconfirmed,Marta,Brooklyn,Fort Greene,40.68545,-73.97572,United States,US,False,flexible,Entire home/apt,2007,"$1,106 ",$221 ,2,21.0,6/2/2019,0.29,1,3,324,"Please remember that this is a residential building. The building rules, apartment occupancy restrictions and the year-round tenants must be respected.  Parties, pets and smoking are not allowed under any circumstances and incur significant fees.",
2276044,Quiet room with desk in 2BR spacious brownstone,73891230797,verified,Marta,Brooklyn,Fort Greene,40.688,-73.97745,United States,US,False,moderate,Private room,2008,$747 ,$149 ,2,55.0,6/22/2019,0.88,1,3,-5,,
2276597,Astoria Heights Gorgeous Guest Bedroom,77965878349,verified,William,Queens,Ditmars Steinway,40.771029999999996,-73.89461,United States,US,False,strict,Private room,2019,$430 ,$86 ,1,6.0,3/31/2019,0.13,1,1,274,No smoking/pets please.,
2277149,Private Room & Balcony in New York,22246459414,unconfirmed,Kamala,Brooklyn,Park Slope,40.67771,-73.98151999999999,United States,US,True,moderate,Private room,2008,"$1,095 ",$219 ,2,1.0,9/12/2015,0.02,3,1,259,,
2277701,Beautiful new one bedroom apartment,49383044056,unconfirmed,Trevor,Brooklyn,Bedford-Stuyvesant,40.687979999999996,-73.93903,United States,US,False,flexible,Entire home/apt,2017,"$1,014 ",$203 ,3,218.0,6/19/2019,2.92,3,1,206,No Smoking.,
2278254,"Bright, Bohemian, Spacious Apt in Williamsburg",84672446994,verified,Simona,Brooklyn,Williamsburg,40.71353,-73.96216,United States,US,False,flexible,Entire home/apt,2020,$973 ,$195 ,2,16.0,12/19/2018,0.26,5,1,220,#NAME?,
2278806,Private room in Prime Soho/Nolita location,22307501050,verified,Sky,Manhattan,Nolita,40.722120000000004,-73.99676,United States,US,False,flexible,Private room,2011,"$1,042 ",$208 ,3,29.0,7/1/2019,0.41,5,2,60,,
2279358,1 rm @ 3BR loft williamsburg room 2,82587835441,verified,Joseph,Brooklyn,Greenpoint,40.72541,-73.9567,United States,US,True,strict,Private room,2007,$195 ,$39 ,2,36.0,4/24/2019,0.51,5,3,301,,
2279911,Spacious E Williamsburg with Yard!!,85238445729,unconfirmed,Todd,Brooklyn,Williamsburg,40.709740000000004,-73.93961999999999,United States,US,False,moderate,Private room,2020,"$1,067 ",$213 ,5,73.0,6/7/2019,0.99,4,2,231,,
2280463,ART HOUSE VAULT,84612206164,unconfirmed,@ Art House Monique,Brooklyn,Bedford-Stuyvesant,40.68316,-73.93906,United States,US,True,moderate,Private room,2008,$883 ,$177 ,1,65.0,5/24/2019,0.87,1,4,324,"Please clean your dishes, alternate who takes the trash out, don't make too much noise when others go to sleep. Simple rules.",
2281015,"Leelas Bright, Cosy, and furnushed room.",81292520001,unconfirmed,Gen,Manhattan,Washington Heights,40.834790000000005,-73.94345,United States,US,True,flexible,Private room,2020,$539 ,$108 ,5,20.0,6/23/2019,0.54,1,6,23,,
2281567,Sunny 1BR Apt in N. Williasmburg,41861299507,unconfirmed,Bjarke And Holly,Brooklyn,Williamsburg,40.72065,-73.959,United States,US,True,flexible,Entire home/apt,2005,$368 ,$74 ,14,1.0,1/9/2015,0.02,1,1,107,,
2282120,Private Rm for 1 in Historic Harlem,62094312140,verified,Gita,Manhattan,Harlem,40.80815,-73.94325,United States,US,True,strict,Private room,2012,$625 ,$125 ,28,16.0,1/1/2018,0.22,2,3,111,,
2282672,FOODIE HAVEN -ENJOY THE REAL NYC :),10508187364,verified,Meredith,Manhattan,East Village,40.727779999999996,-73.98305,United States,US,True,flexible,Private room,2019,$66 ,$13 ,2,246.0,6/11/2019,3.3,3,1,118,,
2283224,1 bedroom Apt 1 minute from the subway!,67489598323,verified,Izz,Manhattan,Lower East Side,40.71928,-73.98993,United States,US,True,moderate,Entire home/apt,2019,"$1,105 ",$221 ,3,126.0,6/30/2019,1.68,1,1,183,"Please remember that this is a residential building. The building rules, apartment occupancy restrictions and the year-round tenants must be respected.  Parties, pets and smoking are not allowed under any circumstances and incur significant fees.",
2283777,South Slope One-Bedroom with Garden Terrace,11316522215,unconfirmed,Christy,Brooklyn,Sunset Park,40.66065,-73.98817,United States,US,True,flexible,Entire home/apt,2014,$490 ,$98 ,3,13.0,12/31/2018,0.18,1,1,45,#NAME?,
2284329,Andy Phillips,57355826742,unconfirmed,Andrian,Brooklyn,Fort Greene,40.68769,-73.9749,United States,US,True,moderate,Private room,2003,"$1,164 ",$233 ,5,4.0,9/29/2017,0.17,3,1,139,#NAME?,
2284881,Private Home w/ Parking in Brooklyn,23063651188,verified,Tina,Brooklyn,Kensington,40.640240000000006,-73.96976,United States,US,False,strict,Entire home/apt,2005,$310 ,$62 ,5,1.0,1/1/2015,0.02,5,1,251,,
2285434,spacious PARK SLOPE room available,65940081864,verified,Leah,Brooklyn,South Slope,40.668420000000005,-73.98659,United States,US,False,moderate,Private room,2011,$623 ,$125 ,90,0.0,,,5,2,119,,
2285986,Manhattan NYC - The Blue Room,97961269373,verified,Craig,Manhattan,Harlem,40.82865,-73.94621,United States,US,False,strict,Private room,2016,$357 ,$71 ,3,61.0,6/15/2019,0.81,5,1,314,,
2286538,Sunny Room in Lower East Side Apt!,93095047647,unconfirmed,Cheryl,Manhattan,Lower East Side,40.714459999999995,-73.98833,United States,US,False,strict,Private room,2004,$732 ,$146 ,3,29.0,6/29/2019,0.48,1,2,171,,
2287090,Quiet and Cozy Brooklyn Brownstone Apartment,71902335121,verified,Serge,Brooklyn,Bedford-Stuyvesant,40.6831,-73.94434,United States,US,True,flexible,Entire home/apt,2012,$442 ,$88 ,2,4.0,5/28/2018,0.05,4,1,230,"Please remember that this is a residential building. The building rules, apartment occupancy restrictions and the year-round tenants must be respected.",
2287643,Unique 1BR in energetic E. Village,93281479787,unconfirmed,Brian,Manhattan,East Village,40.72271,-73.98478,United States,US,True,strict,Entire home/apt,2022,$589 ,$118 ,3,42.0,6/15/2019,0.63,2,1,134,,
2288195,West Harlem Clean Park 1 Bedroom,47312935216,unconfirmed,Marianna,Manhattan,Harlem,40.82101,-73.94582,United States,US,False,moderate,Entire home/apt,2012,$121 ,$24 ,3,82.0,6/30/2019,1.09,4,1,100,This is our home so please treat it with care.  No pets and no smoking.,
2288747,It's all about Bushwick BROOKLYN,35433530526,verified,Madison,Brooklyn,Bushwick,40.687670000000004,-73.91261,United States,US,True,moderate,Entire home/apt,2018,$614 ,$123 ,3,308.0,7/5/2019,4.11,1,1,207,,
2289300,Brooklyn: Close-In With Character,55257587393,verified,Matt,Brooklyn,Prospect Heights,40.67673,-73.96399,United States,US,False,moderate,Private room,2012,$697 ,$139 ,14,79.0,5/12/2019,1.09,1,1,402,,
2289852,ART HOUSE BIGGIE SMALL,44011934341,verified,@ Art House Monique,Brooklyn,Bedford-Stuyvesant,40.68312,-73.94082,United States,US,False,strict,Private room,2008,$616 ,$123 ,1,66.0,6/17/2019,0.89,5,4,304,Be respectful and mindful of neighbors.,
2290404,Elegant 2BR in Manhattan 15 mins to Midtown,87406724052,verified,Timothy,Manhattan,Harlem,40.80745,-73.94279,United States,US,True,moderate,Entire home/apt,2022,$426 ,$85 ,14,19.0,5/2/2019,0.26,5,1,347,,
2290957,Cozy North Park Slope Apartment,18014560307,verified,Erin,Brooklyn,Prospect Heights,40.68034,-73.97321,United States,US,False,flexible,Private room,2003,$728 ,$146 ,2,8.0,6/24/2018,0.11,3,1,336,"Please remember that this is a residential building. The building rules, apartment occupancy restrictions and the year-round tenants must be respected.",
2291509,Amazing Upper West Side Loft-Studio,49809251525,verified,Karen,Manhattan,Upper West Side,40.78898,-73.97589,United States,US,False,strict,Entire home/apt,2008,$328 ,$66 ,30,12.0,4/1/2016,0.16,5,8,238,,
2292061,1 BDR in Greenwich Village Full APT,50665047016,unconfirmed,Tim,Manhattan,Greenwich Village,40.72855,-74.00135999999999,United States,US,False,strict,Entire home/apt,2021,$877 ,$175 ,2,26.0,5/21/2017,0.35,2,1,274,,
2292613,Entire home/apt in Chelsea New York,85258419385,verified,Raquel,Manhattan,Chelsea,40.74119,-74.00234,United States,US,True,moderate,Entire home/apt,2013,$137 ,$27 ,3,19.0,6/24/2019,0.25,3,1,193,Check-in is after 3 PM Check-out is before 11 AM,
2293166,Private Garden Apt. with outdoor space in Red Hook,79836899005,verified,Jeffrey,Brooklyn,Red Hook,40.676590000000004,-74.01550999999999,United States,US,True,flexible,Entire home/apt,2007,$201 ,$40 ,1,7.0,4/21/2019,0.52,4,1,146,,
2293718,Furnished Nolita Studio,27317695711,verified,Sri,Manhattan,Nolita,40.72404,-73.99529,United States,US,False,moderate,Entire home/apt,2005,$921 ,$184 ,3,0.0,,,4,1,296,,
2294270,Triplex Penthouse in New York,24633811339,verified,Paresh,Brooklyn,Williamsburg,40.71756,-73.94839,United States,US,True,strict,Entire home/apt,2015,$878 ,$176 ,5,34.0,6/15/2019,0.46,2,1,328,No pet is allowed No smoking Please be respectful of the neighbors as it's a quiet building You can use the kitchen to cook.,
2294823,large Private room in UWS New York,5077549094,unconfirmed,Audra,Manhattan,Upper West Side,40.788920000000005,-73.97435,United States,US,False,moderate,Private room,2003,"$1,189 ",$238 ,3,13.0,8/23/2016,0.17,2,1,224,,
2295375,Plum Guide Award-Winning Prospect Heights Oasis,98399416722,verified,Jenny,Brooklyn,Prospect Heights,40.67678,-73.96692,United States,US,False,flexible,Entire home/apt,2014,$121 ,$24 ,3,173.0,6/10/2019,2.36,4,1,117,,
2295927,Private room in a townhouse in NYC,44966127836,unconfirmed,H. Ann,Queens,Jamaica,40.69965,-73.79286,United States,US,True,moderate,Private room,2018,$543 ,$109 ,1,0.0,,,1,1,279,,
2296480,Private room in Brooklyn,96147785606,unconfirmed,Dan,Brooklyn,Sunset Park,40.665820000000004,-73.99349000000001,United States,US,True,moderate,Private room,2005,$226 ,$45 ,1,4.0,8/17/2016,0.11,3,1,106,"No shoes in the apartment, please",
2297032,Big and Well Appointed NYC 1 Bdrm,49385575921,verified,Erica,Manhattan,Upper West Side,40.77097,-73.98083000000001,United States,US,False,flexible,Entire home/apt,2014,$563 ,$113 ,4,27.0,7/7/2018,0.36,3,1,198,"This is a quiet and primarily owner occupied building, kindly be respectful of the neighbors...and please no smoking!",
2297584,The Perfect Large Chelsea Studio,21785800063,verified,Stuart,Manhattan,Chelsea,40.74057,-73.99771,United States,US,False,moderate,Entire home/apt,2020,$439 ,$88 ,45,11.0,2/19/2019,0.18,5,1,191,#NAME?,
2298136,Private room/bedroom in Park Slope/Gowanus BK,71331742116,verified,Katie,Brooklyn,Gowanus,40.67173,-73.98968,United States,US,True,flexible,Private room,2004,$881 ,$176 ,1,9.0,8/19/2017,0.19,3,1,72,,
2298689,Beautiful stylish one bedroom home with balcony.,35230929385,verified,Elon,Brooklyn,Williamsburg,40.71666,-73.94552,United States,US,False,flexible,Entire home/apt,2017,$908 ,$182 ,3,60.0,6/15/2019,1.19,1,1,131,,
2299241,Large Flatiron 2 bedroom,49762347975,verified,Samuel,Manhattan,Midtown,40.74658,-73.98846999999999,United States,US,True,strict,Entire home/apt,2016,$738 ,$148 ,2,70.0,6/3/2019,0.95,4,1,224,"No smoking Not suitable for pets No parties or events Check-in is after 3PM Be a good ambassador of your country. :) Due to the fact that the building is purely residential, guests are expected to respect at all times the peace and privacy of the neighbors. Principal Rules: 1) Strictly a non-smoking/ shoe-free apartment. 2) No pets allowed  3) We have zero tolerance disturbance policy, so please do not disturb the residents of the building and avoid any noisy behavior after 9:00 pm and before 9:00 AM. We reserve the right to abort the service without refund if any established complain arrives to us from the neighbors.  4) Guests are not permitted to allow other people into the apartment 5) Any property damage shall be paid in full  6) Please DO NOT send any personal mails/package to the address during your stay. (We had lots of issues from the previous guests) Please Contact us for the further arrangement if you have any mailing request before your trip. We really hope that you enjoy y",
2299793,Stylish Arty Brooklyn Appartment #4,80622705714,verified,Lucien,Brooklyn,Cobble Hill,40.6866,-73.99123,United States,US,True,moderate,Entire home/apt,2006,$973 ,$195 ,1,221.0,7/1/2019,3.0,1,1,239,We are young professionals who like to keep our home neat and quiet. We'll likely be working from home at times during your stay and we ask you to respect us the same way we'll respect you. No shoes inside the house.  No smoking. Service pets are ok.,
2300346,Lovely garden bedroom in Greenpoint,53477629700,unconfirmed,Summer,Brooklyn,Greenpoint,40.72448,-73.94328,United States,US,True,moderate,Private room,2003,$377 ,$75 ,5,179.0,5/28/2019,2.61,1,1,245,,
2300898,5 STARS***MIDTOWN EAST-BRAND NEW!!!,35050770130,verified,Mike,Manhattan,Midtown,40.75274,-73.97026,United States,US,True,strict,Entire home/apt,2017,$100 ,$20 ,30,3.0,7/4/2016,0.06,5,52,161,"SEE ABOVE NOTES.   Prefer REPEAT VISITORS, BUSINESS MEETINGS or family obligations, medical needs.  Good for a single or couple, probably not families. Free laundry. GREAT VIEW!",
2301450,Spacious Private Room -East Village,95709078722,verified,Jc,Manhattan,East Village,40.73125,-73.98344,United States,US,True,strict,Private room,2004,$268 ,$54 ,2,292.0,6/8/2019,3.9,2,2,193,,
2302003,furnished br in 2 br share in WV,40618561498,unconfirmed,Stephen,Manhattan,West Village,40.73614,-74.00634000000001,United States,US,True,flexible,Private room,2021,$892 ,$178 ,5,42.0,4/10/2019,0.56,3,1,165,,
2302555,Luxury 1 Bedroom Central Park Views,57045921023,unconfirmed,Henry,Manhattan,Upper West Side,40.79208,-73.96481999999999,United States,US,False,flexible,Entire home/apt,2007,$670 ,$134 ,30,24.0,1/27/2016,0.33,5,11,196,"Please remember that this is a residential building. The building rules, apartment occupancy restrictions and the year-round tenants must be respected.  Parties, pets and smoking are not allowed under any circumstances and incur significant fees.",
2303107,RUSTIC/MODERN/EV/NYC,28979832478,verified,Mark,Manhattan,East Village,40.73032,-73.98469,United States,US,True,flexible,Entire home/apt,2015,$475 ,$95 ,3,9.0,8/30/2018,0.18,4,2,220,,
2303659,3br family-friendly Astoria house,11849533114,verified,Litza,Queens,Ditmars Steinway,40.77755,-73.90599,United States,US,True,flexible,Entire home/apt,2014,$369 ,$74 ,7,2.0,7/12/2014,0.03,2,1,177,"House Rules 1. All bookings made at least a week before check in are fully refundable if cancelled within 24 hours of booking. After this, you will receive a 50% refund if you cancel at least 7 days before the start of your trip. 2. Check-in time is any time after 4 pm local time. If the unit is ready earlier, we’ll let you know. Check-out is normally 11 am local time, but we’d be happy to extend it as long as we don’t have a cleaning scheduled. Just let us know.  3. All bookings require a security deposit of at least $300. 4. For security measures we require all guests to provide proof of identification through ID verification on our own website. In order to check in, we'll need a photo of your ID.  5. Don’t let $300 go up in smoke. There's no smoking allowed in any Flatbook and a $300 fine for breaking this rule.  6. Unfortunately we don’t allow pets in most of our apartments. 7. Unless you’re staying in one of our specialty apartments, we don’t allow parties or excessive noise. 8. I",
2304212,Private Room (Long room) in Manhattan NYC,21790738731,verified,Sergio,Manhattan,East Harlem,40.80421,-73.94037,United States,US,True,flexible,Private room,2017,$873 ,$175 ,1,6.0,6/1/2019,0.08,2,5,387,"Make yourself at home! While that means enjoy the amenities in the apartment during your stay, I hope you would also treat my home with respect. Lastly, accidents do happen — I get it :) Just leave me a note about things that are broken or not working. ",
2304764,Family Owned & Operated Brownstone,25335703465,unconfirmed,Yoki,Brooklyn,Bedford-Stuyvesant,40.68018,-73.94839,United States,US,False,moderate,Private room,2011,$140 ,$28 ,3,140.0,1/1/2019,1.87,2,1,209,,
2305316,1 BR 1/2 block to A/B/C/D trains,41505981810,unconfirmed,Marcelo,Manhattan,Washington Heights,40.83307,-73.93956999999999,United States,US,True,strict,Private room,2012,$959 ,$192 ,14,46.0,5/17/2019,0.62,1,1,129,,
2305869,Fab 1 Bedroom Apartment!,64692128784,unconfirmed,Suzanne,Manhattan,East Harlem,40.799209999999995,-73.93656999999999,United States,US,False,flexible,Entire home/apt,2017,"$1,140 ",$228 ,1,54.0,7/7/2019,0.75,1,1,47,,
2306421,Bright room in Brooklyn,63885475798,verified,Alex,Brooklyn,Park Slope,40.68247,-73.97837,United States,US,False,strict,Private room,2019,$282 ,$56 ,1,127.0,6/30/2019,1.72,2,1,304,May add extra guests (please contact for more info),
2306973,Lovely Entire Apt in Prime Brooklyn,76098864399,unconfirmed,Eliza,Brooklyn,Fort Greene,40.687979999999996,-73.97182,United States,US,False,moderate,Entire home/apt,2022,"$1,189 ",$238 ,7,1.0,5/24/2013,0.01,3,1,314,,
2307526,HEART OF EAST VILLAGE! Quiet apt in middle of NYC!,42348389766,verified,Mickey,Manhattan,East Village,40.7252,-73.98261,United States,US,False,flexible,Entire home/apt,2009,$851 ,$170 ,1,96.0,1/13/2019,1.31,5,1,417,No smoking and no pets please.,
2308078,Large UWS Apt $170.00/day May 2018- September 2018,87506647350,unconfirmed,Neni,Manhattan,Morningside Heights,40.80815,-73.96779000000001,United States,US,False,moderate,Entire home/apt,2016,$782 ,$156 ,30,4.0,1/1/2018,0.07,3,1,294,Not too loud. No 'house rules' necessary as long as general nice manners are followed.,
2308630,Large Sunny 1BR - Entire 2nd Floor,32435650196,verified,Lisa,Brooklyn,Greenpoint,40.73369,-73.95854,United States,US,True,moderate,Entire home/apt,2015,$649 ,$130 ,1,284.0,6/19/2019,3.8,2,2,76,Respectable,
2309182,Large  room in 2/1 on park w/2day discounts,93771381629,verified,Alex,Manhattan,Harlem,40.80449,-73.95687,United States,US,True,moderate,Private room,2022,$360 ,$72 ,1,30.0,7/5/2019,0.4,1,1,384,"Please remember that this is a residential building. The building rules, apartment occupancy restrictions and the year-round tenants must be respected.",
2309735,Quiet & Convenient Upper East Side,72147511967,verified,Katie,Manhattan,Upper East Side,40.77068,-73.95867,United States,US,True,moderate,Private room,2016,$920 ,$184 ,3,1.0,11/7/2016,0.03,4,1,362,"Please remember that this is a residential building. The building rules, apartment occupancy restrictions and the year-round tenants must be respected.  Parties and smoking are not allowed under any circumstances and incur significant fees. Pets may be considered with pre-approval and an additional pet fee.",
2310287,"Big, glamorous, 4BR, 3-story house",95344897714,verified,Jon,Brooklyn,Fort Greene,40.68675,-73.97713,United States,US,True,flexible,Entire home/apt,2003,$949 ,$190 ,2,126.0,6/25/2019,1.75,1,1,94,,
2310839,Fresh and modern 1BR in Bed-Stuy,58086487903,verified,Shaila & Alex,Brooklyn,Bedford-Stuyvesant,40.68683,-73.92922,United States,US,False,flexible,Entire home/apt,2013,"$1,092 ",$218 ,2,198.0,6/21/2019,2.66,1,1,349,"This is a quiet building of professionals (no student renters allowed), so those looking for a place to host large parties, please consider other options.",
2311392,Trendy East Village 1 Bedroom - NYC,42695102932,unconfirmed,Derek,Manhattan,East Village,40.72845,-73.98598,United States,US,False,strict,Entire home/apt,2020,$506 ,$101 ,4,26.0,6/10/2019,1.34,2,1,261,"You are my guest - please behave as such!  This is where I live. - No neighbor-disturbance-level noise past 11:00PM - No pets of any kind - No smoking - Use the kitchen, not the food (it is ours) - Clean up spills and dishes - No illegal drugs or substances",
2311944,MODERN/ SUBWAY/TERRACE/LOFT/ LARGE MASTER BEDROOM,59063510528,verified,LiVi,Brooklyn,Greenpoint,40.728970000000004,-73.95132,United States,US,True,moderate,Private room,2004,$563 ,$113 ,5,13.0,1/2/2019,0.17,1,1,346,,
2312496,private spacious sunny bedroom,10218931944,verified,Radium,Brooklyn,Kensington,40.63381,-73.9714,United States,US,False,strict,Private room,2006,$764 ,$153 ,30,10.0,11/30/2016,0.13,5,1,102,,
2313049,North Williamsburg whole apt - Off the BEDFORD L,82422503888,verified,Liza,Brooklyn,Williamsburg,40.71813,-73.95981,United States,US,False,moderate,Entire home/apt,2007,$972 ,$194 ,2,51.0,6/15/2019,0.91,1,1,357,"Please remember that this is a residential building. The building rules, apartment occupancy restrictions and the year-round tenants must be respected.",
2313601,Private Master Bedroom@Central Park,55809634519,verified,K. Naomi,Manhattan,East Harlem,40.7948,-73.94835,United States,US,True,flexible,Private room,2009,$580 ,$116 ,14,4.0,9/22/2015,0.06,2,3,130,,
2314153,Oasis in the West Village,17594463317,unconfirmed,Kurt,Manhattan,West Village,40.738040000000005,-74.00416,United States,US,False,moderate,Private room,2017,$403 ,$81 ,30,13.0,4/30/2018,0.18,4,1,-2,"Before checking out, please: 1. Take out trash (basement level, back door - red dumpsters) 2. Wash dishes and put in dishrack 3. Return keys to the lockbox by 12 noon (unless we made other arrangements)",
2314705,COMFORTABLE NYC RETREAT & Breakfast,78652138338,verified,LaNola,Manhattan,East Harlem,40.79025,-73.9488,United States,US,False,flexible,Private room,2008,$967 ,$193 ,1,273.0,6/23/2019,3.66,2,2,60,,
2315258,Quiet/Clean minutes to Manhattan,41064176446,unconfirmed,John,Queens,Sunnyside,40.74239,-73.92213000000001,United States,US,False,strict,Private room,2015,"$1,165 ",$233 ,2,12.0,9/30/2018,0.16,4,1,-10,,
2315810,Spring in Central Park-UWS,24754469250,verified,Ali,Manhattan,Upper West Side,40.785709999999995,-73.97149,United States,US,True,moderate,Entire home/apt,2008,$714 ,$143 ,4,3.0,5/20/2017,0.04,3,1,-5,,
2316362,Entire 2 bedroom flat,38573206358,unconfirmed,Eric,Brooklyn,Bushwick,40.69814,-73.92996,United States,US,False,flexible,Entire home/apt,2009,"$1,076 ",$215 ,30,13.0,9/14/2018,0.25,5,2,305,,
2316915,Gorgeous Large Sunny Room - Upper Manhattan,32190750529,unconfirmed,Celine,Manhattan,Washington Heights,40.84002,-73.9385,United States,US,False,flexible,Private room,2008,$835 ,$167 ,2,56.0,6/22/2019,0.76,2,1,261,This home is very clean and well kept. No shoes inside please!,
2317467,Huge Private Sunny Bedroom in NYC,47241237769,verified,Lori,Manhattan,Washington Heights,40.8532,-73.93225,United States,US,False,flexible,Private room,2008,$629 ,$126 ,56,0.0,,,4,1,221,,
2318019,Cozy Greenpoint Accommodation,64033423877,verified,Patricia,Brooklyn,Greenpoint,40.73135,-73.95489,United States,US,True,moderate,Private room,2010,$123 ,$25 ,7,116.0,6/9/2019,1.57,4,1,419,,
2318572,Modern Trendy Duplex Brooklyn Loft!,13716539013,verified,Alyssia,Brooklyn,Bushwick,40.697759999999995,-73.90939,United States,US,True,flexible,Entire home/apt,2016,$705 ,$141 ,2,31.0,10/26/2018,0.42,3,1,266,,
2319124,Nolita: 1BR with private bathroom,54223250702,unconfirmed,Pierre,Manhattan,Nolita,40.72011,-73.99468,United States,US,False,moderate,Private room,2022,"$1,078 ",$216 ,15,5.0,4/30/2019,0.08,1,1,337,#NAME?,
2319676,Spacious 2 bedroom near Times Sq,74212637637,verified,Noelle,Manhattan,Hell's Kitchen,40.7593,-73.99143000000001,United States,US,False,moderate,Entire home/apt,2005,$666 ,$133 ,1,0.0,,,1,1,210,,
2320228,Great One-Bed in the West Village,56343600723,verified,Jon,Manhattan,Greenwich Village,40.7302,-74.00165,United States,US,False,flexible,Entire home/apt,2021,$258 ,$52 ,2,136.0,6/22/2019,1.83,1,1,197,"Please remember that this is a residential building. The building rules, apartment occupancy restrictions, and the year-round tenants must be respected. There is no smoking allowed in the apartments and significant fees will apply if this rule is broken.",
2320781,Room with a sunrise view over colored rooftops,33460192153,verified,John,Brooklyn,Flatbush,40.63641,-73.96712,United States,US,False,flexible,Private room,2003,"$1,056 ",$211 ,30,0.0,,,5,1,3,,
2321333,Manhattan apt in the centre of it!,56856795782,unconfirmed,Erin,Manhattan,Midtown,40.74568,-73.98321,United States,US,False,strict,Entire home/apt,2008,$884 ,$177 ,7,6.0,10/9/2016,0.08,3,1,167,,
2321885,Steps to Subway! Entire apt! 20 min to Manhattan!,72609264848,verified,Ana,Brooklyn,Bedford-Stuyvesant,40.68177,-73.9389,United States,US,True,flexible,Entire home/apt,2016,"$1,135 ",$227 ,2,80.0,7/1/2019,3.93,5,1,425,,
2322438,*Soho Duplex* with private rooftop,82069122547,verified,Jorge,Manhattan,SoHo,40.7252,-74.00279,United States,US,True,strict,Entire home/apt,2003,"$1,168 ",$234 ,4,25.0,1/3/2017,0.34,4,1,264,- Please call / send message to arrange meeting for check in - Check in 3 pm - 11 pm - Check out by 11 am on last day,
2322990,LARGE light filled loft/apt! PRIME Williamsburg.✨,195418678,unconfirmed,Heather And John,Brooklyn,Williamsburg,40.71374,-73.94641999999999,United States,US,False,moderate,Private room,2003,$366 ,$73 ,2,43.0,5/28/2019,0.59,4,1,283,,
2323542,Amazing View from Contemporary Loft,98289702506,verified,Chris,Manhattan,Midtown,40.74542,-73.98205,United States,US,False,moderate,Shared room,2018,$820 ,$164 ,1,66.0,5/4/2019,0.89,3,1,40,,
2324095,"Private, Cozy hideaway apt in Bklyn for 1 to 3 .",97126657489,verified,Sharon,Brooklyn,Canarsie,40.64298,-73.89035,United States,US,True,flexible,Entire home/apt,2014,$712 ,$142 ,1,93.0,6/23/2019,1.28,3,1,292,,
2324647,"Beautiful, clean 1-bdrm private apt",16773457251,unconfirmed,Adam,Manhattan,Washington Heights,40.8506,-73.94023,United States,US,False,flexible,Entire home/apt,2014,$755 ,$151 ,6,19.0,7/24/2017,0.26,2,1,233,,
2325199,PRIVATE ROOM (BRIGHT & CLEAN) Manhattan NYC,64659838038,verified,Sergio,Manhattan,East Harlem,40.80393,-73.94046,United States,US,True,moderate,Private room,2019,$349 ,$70 ,30,2.0,8/12/2017,0.03,3,5,374,,
2325751,Comfortable Central Park North Rm,18897314542,unconfirmed,Clotaire,Manhattan,Harlem,40.8004,-73.95645,United States,US,False,flexible,Private room,2009,$472 ,$94 ,1,85.0,6/29/2019,1.15,1,1,30,,
2326304,"spacious, tranquil east village apt",46775654050,unconfirmed,Parker (& Juan),Manhattan,Lower East Side,40.71646,-73.97655999999999,United States,US,False,moderate,Entire home/apt,2006,"$1,160 ",$232 ,2,32.0,4/6/2019,0.44,4,1,-6,#NAME?,
