id,NAME,host id,host_identity_verified,host name,neighbourhood group,neighbourhood,lat,long,country,country code,instant_bookable,cancellation_policy,room type,Construction year,price,service fee,minimum nights,number of reviews,last review,reviews per month,review rate number,calculated host listings count,availability 365,house_rules,license
48057296,IDEAL One bedroom apt by Central Park!,1828358992,verified,K Alexandra,Manhattan,Midtown,40.76016,-73.9691,United States,US,False,moderate,Entire home/apt,2008,$571 ,$114 ,2,132,6/30/2019,3.66,4,1.0,266,"No loud parties, no smoking",
48057848,2F Live Like a Real NYer in Real 3Bd!,84706177786,unconfirmed,Bill & May,Manhattan,Washington Heights,40.833259999999996,-73.94215,United States,US,False,moderate,Entire home/apt,2012,$715 ,$143 ,1,87,6/30/2019,2.28,1,4.0,28,A residential building. Quiet is important. No smoking. No Pets.,
48058401,Comfy spacious apartment with wi-fi,67999001865,verified,Michele,Brooklyn,Brownsville,40.65775,-73.90486,United States,US,False,moderate,Entire home/apt,2022,$872 ,$174 ,14,3,11/17/2018,0.08,2,1.0,272,"We're always happy to welcome considerate and respectful guests into our home. To us this means picking up after yourself (dishes in the dishwasher, coats hung up), bringing your own food, enjoying our space quietly after 11PM, and letting us know what we can do to make your stay enjoyable. 1. Please make sure to keep your bedroom door and the door to the bathroom closed or our puppy will steal all of your socks/drag the toilet paper across the living room. 2. Feel free to use whatever you need:  -cups are in the cabinet to the right of the sink  -there are towels on your bed if you'd like to shower  -the roofdeck is a great place to unwind after traveling- just push up on the handle (it's a little heavy). -feel free to put food in the refrigerator. -there is tea in the cabinet to the right of the stove. 3. Shoes off in the house please. 4. We try to keep the living room and common areas free of ""stuff"" and there's a decent sized closet in your room, but if you need more space let us k",
48058953,Charming 1BR by Central Park,61832667073,unconfirmed,Tanya,Manhattan,Upper West Side,40.78495,-73.9731,United States,US,False,moderate,Entire home/apt,2020,"$1,162 ",$232 ,4,1,6/29/2018,0.08,4,1.0,82,"Pets are allowed but no smoking inside the house. You're welcome to smoke outside. Quiet building overall, respect the other tenants and please no large parties.",
48059505,GREENPOINT OASIS,2940131373,unconfirmed,Justin,Brooklyn,Greenpoint,40.731,-73.9548,United States,US,True,flexible,Entire home/apt,2019,$170 ,$34 ,365,17,1/3/2019,0.5,3,1.0,170,"We kindly ask that you clean up after yourselves, especially in the kitchen. We will have someone clean the linens, the bathroom, and floors after your stay.",
48060058,"Brooklyn Private Bath&Bed Steps to F,G trains",50132128728,unconfirmed,Chadanut,Brooklyn,Kensington,40.64345,-73.98015,United States,US,False,flexible,Private room,2016,$156 ,$31 ,1,103,3/11/2019,2.68,5,11.0,4,respect others in the building,
48060610,"Bright, Airy Wburg 1BR w/ Roof View of NYC Skyline",33597918269,verified,Jacqueline,Brooklyn,Williamsburg,40.71926,-73.94206,United States,US,False,moderate,Entire home/apt,2019,$236 ,$47 ,2,29,5/26/2019,0.74,2,1.0,314,No more than 2 people. I have neighbors above and below and to each side. Please be respectful in avoiding noises that will disturb the neighbors.,
48061162,"Cozy room in Carroll Gardens, Brooklyn",31094508960,unconfirmed,Daniel,Brooklyn,Carroll Gardens,40.68378,-74.00046,United States,US,False,moderate,Entire home/apt,2014,$300 ,$60 ,2,0,,,5,1.0,246,No Smoking No Pets,
48061714,Sexy red room with the softest bed!,46164646889,unconfirmed,Ilya,Brooklyn,Bedford-Stuyvesant,40.68042,-73.91811,United States,US,False,moderate,Private room,2018,$354 ,$71 ,13,7,7/24/2018,0.2,5,1.0,248,No Smoking No Pets,
48062267,Waterfront Apt with Stunning View!!,43597316787,unconfirmed,Peter,Brooklyn,Williamsburg,40.71102,-73.9689,United States,US,False,flexible,Entire home/apt,2019,$539 ,$108 ,4,5,11/27/2016,0.14,3,1.0,168,"•  Please respect the privacy of other residents of the building and keep the noise level down. •  No parties, no outside visitors, no overnight guests without previous approval from your host. •  No Smoking. •  No Pets. •  Please do not drink the host's alcohol. •  Use of any rooftop grill is prohibited. •  Do not engage in any illegal activities anywhere on the property. •  If you break or damage something, please let me know and arrange for its replacement or repair. •  Return all keys / Leave them on the counter upon exit.",
48062819,Convenient location + Rooftop Acces,22500326880,verified,Amanda,Brooklyn,Williamsburg,40.70928,-73.95286,United States,US,True,strict,Private room,2008,$572 ,$114 ,1,54,7/21/2017,1.37,2,1.0,237,"Some of these rules may sound silly but they have been written because we have seen some silly behavior ; )  • Please only leave with what you came with. Our towels, sheets, shampoo, Q tips, cotton pads, cups, plates, decorative items, trash bags, toilet paper, TV remotes, etc are not parting gifts or favors : )  Use what you need while you are here and leave the rest behind please.  • We love a good party but not in our ABnB unit unless its discussed well in advance. Please no parties, gatherings or events over the registered number of guests! If you would like to have friends over for a gathering please let us know! We understand you are on vacation but ask that late night drunken excursions choose another property. We expect quiet hours after 10 PM and until 6:30 AM. We will commit to the same respect upstairs for you.  • Please come and go quietly. We will do the same. Although we do have 2 children and sometimes they ""forget"" to use their quiet voices.  • Please keep pass code and",
48063371,Beautiful Fort Greene Loft,85813766332,verified,Gabriel,Brooklyn,Fort Greene,40.6921,-73.97279,United States,US,True,strict,Entire home/apt,2003,$717 ,$143 ,3,25,6/19/2019,0.72,1,1.0,262,"The whole PENTHOUSE is available for events your caterer or one I can recommend.   But with my permission read on AND  s.v.p. plan in advance.   It's a ""quiet house"" so events like small graduation parties, corporate parties, small meet and greets are examples of good ideas for the space.   Bachelor parties, weddings, grooms dinners are not possible.   Although it's a good space for the Bride and Groom to stay if you plan to hold your reception at nearby venus.   THAT SAID, it's also a Quiet Spot on a quiet street in an historic (1860) neighborhood, ideal for professionals ""working-out-of -the-house, for authors, photographers, graduate students who need to study, or for people attending or presenting at conferences.     Check out is at 11am.      The apartment is completely private as is the patio...   The laundry room and mail room are both off the common foyer..    Please keep  TV, HULU,  Blu Ray DVD and music at a reasonable level between 7am and 11pm.      Maximum of two guests.  ",
48063924,In the heart of Williamsburg!,7884472874,verified,Guillermo,Brooklyn,Williamsburg,40.718059999999994,-73.95775,United States,US,True,moderate,Private room,2012,"$1,060 ",$212 ,1,4,10/2/2016,0.11,2,2.0,214,,
48064476,Loft,31323164986,unconfirmed,Claudine,Manhattan,Tribeca,40.721379999999996,-74.00766999999999,United States,US,False,flexible,Entire home/apt,2012,"$1,121 ",$224 ,4,0,,,4,1.0,218,,
48065028,SUNNY BEDROOM IN LARGE BK APT!,8519359198,verified,Sean,Brooklyn,Crown Heights,40.67068,-73.94084000000001,United States,US,True,strict,Private room,2017,$354 ,$71 ,3,32,6/3/2019,0.83,5,2.0,197,#NAME?,
48065581,Lovely West Harlem Apartment,42862339044,verified,Patrice,Manhattan,Washington Heights,40.83549,-73.94729,United States,US,False,strict,Entire home/apt,2020,$175 ,$35 ,3,8,7/5/2017,0.21,4,1.0,132,Smoking is forbidden in the apartment and on the rooftop.,
48066133,Newly Renovated Upper East Side Apartment,49354678071,verified,Madeleine,Manhattan,East Harlem,40.78993,-73.94718,United States,US,True,flexible,Private room,2013,$938 ,$188 ,1,0,,,2,1.0,-8,"House Rules The house rules are an important part of staying in this condo.  You will be sharing a living space with other guests and a high level of consideration, respect, communication and tolerance is expected from you.  They are meant to make your stay more pleasant, to prevent conflicts and to protect the property of any damage.  If you feel there is something that needs to be addressed and that is not covered in these rules, please make sure you communicate that to the host. 1.  Toilet · The toilettes can only be used with the toilet paper provided.  Any other material disposed of will cause the plumbing system to back up and create drainage problems.  No tissues, cotton balls, tampons, Q-tips cotton swabs or any kind of sanitary products are allowed down the toilets.  · Any plumbing work due to clogged toilets will be charged to the guests. 2. Noise and Quiet Hours · Quiet hours are from 10pm until 7am.  During quiet hours radios and stereos may be played at a level not to be h",
48066685,Private bedroom in high-ceiling 4BR apartment!,48926007189,verified,Alejandro,Manhattan,Hell's Kitchen,40.76116,-73.99016,United States,US,True,flexible,Private room,2006,$437 ,$87 ,2,17,4/28/2017,0.43,4,1.0,250,,
48067237,"Sunny, Spacious, Parkside Room!",57772914761,unconfirmed,Shean,Brooklyn,Flatbush,40.65402,-73.96073,United States,US,True,strict,Private room,2018,$252 ,$50 ,3,33,5/31/2019,0.85,5,3.0,390,"No smoking allowed in property or on roof deck. No pets allowed.  Please be respectful of other neighbors who live in close proximity, especially when enjoying the roof deck.",
48067790,Cozy&Spacious in Beautiful Astoria,58644166753,unconfirmed,Eliza,Queens,Astoria,40.76202,-73.91467,United States,US,True,strict,Entire home/apt,2016,$205 ,$41 ,1,1,6/12/2016,0.03,1,1.0,289,No Smoking No Pets,
48068342,Beautiful Room - Ideal for Business Travelers!,94379819896,unconfirmed,Danny,Manhattan,Midtown,40.74566,-73.9834,United States,US,True,moderate,Private room,2009,$877 ,$175 ,4,40,6/19/2019,3.36,5,2.0,181,,
48068894,Fabulously Located Comfortable 3 Bedroom Loft,44719588716,unconfirmed,E.C.,Manhattan,Flatiron District,40.7411,-73.99024,United States,US,False,flexible,Entire home/apt,2020,$997 ,$199 ,5,49,6/13/2019,1.26,5,1.0,397,"We require a signed lease as soon as we accept your request. No smoking, no pets, no parties. We strive to maintain a quiet, professional community. Two week minimum stay. Two occupants maximum per apartment. No Sunday checkins and no check in after 6:30 pm",
48069447,Centre of Williamsburg,52376871826,verified,Nicolin,Brooklyn,Williamsburg,40.71635,-73.95746,United States,US,False,flexible,Private room,2015,$372 ,$74 ,3,0,,,3,1.0,24,"House Rules The house rules are an important part of staying in this condo.  You will be sharing a living space with other guests and a high level of consideration, respect, communication and tolerance is expected from you.  They are meant to make your stay more pleasant, to prevent conflicts and to protect the property of any damage.  If you feel there is something that needs to be addressed and that is not covered in these rules, please make sure you communicate that to the host. 1.  Toilet · The toilettes can only be used with toilet paper provided.  Any other material disposed of will cause the plumbing system to back up and create drainage problems.  No tissues, cotton balls, tampons, Q-tips cotton swabs or any kind of sanitary products are allowed down the toilets.  · Any plumbing work due to clogged toilets will be charged to the guests. 2. Noise and Quiet Hours · Quiet hours are from 10pm until 7am.  During quiet hours radios and stereos may be played at a level not to be heard",
48069999,Cozy room in Prime Williamsburg,25169260790,verified,Alexis,Brooklyn,Williamsburg,40.718109999999996,-73.95793,United States,US,False,strict,Private room,2014,$741 ,$148 ,3,3,1/16/2017,0.09,2,1.0,363,"For Your CarYup! IT'S JUST THE PARKING SPACE.  And it's reasonable but not FREE, and not even a bed is included.  No Queen No Real Bed, No Beds at all, but I don't care how few or how many people use the car you park in the space.   I'm writing to AIRBNB's Help Desk, to get them to add OTHER to their ""Room Type"" menu, and to add a choice of 0 beds to the pull down menus.     Parking in Boston's South End is more scarce than Penthouses or Hen's Teeth.  And parking per square foot rents for more than a square foot of air-mattress-for-a-night!  Go To https://www.airbnb.com/rooms/",
48070551,JULY/AUG SUBLET,18911651262,unconfirmed,Carlos,Brooklyn,Sheepshead Bay,40.60754,-73.95297,United States,US,True,flexible,Entire home/apt,2005,$386 ,$77 ,1,0,,,5,1.0,269,NO SMOKING IN OR OUT THE APARTMENT. please be aware of the Neighbors and respect their space and privacy as well. No free parking,
48071104,Big sunny room in Bushwick,45010879931,unconfirmed,Kristina,Brooklyn,Bushwick,40.6879,-73.91767,United States,US,True,strict,Private room,2021,$909 ,$182 ,1,2,12/31/2016,0.06,4,2.0,423,#NAME?,
48071656,"NEWLY RENOVATED,  studio in Park Slope",44550682801,verified,Karen,Brooklyn,Park Slope,40.67522,-73.98063,United States,US,False,moderate,Entire home/apt,2004,$448 ,$90 ,1,67,6/27/2019,1.77,1,1.0,330,Please no smoking and no parties! Hope you don't mind if we let you know if you are too loud.,
48072208,Brand new luxury 2 br Harlem condo,84093568640,verified,Nick,Manhattan,Harlem,40.808820000000004,-73.94654,United States,US,True,moderate,Entire home/apt,2021,$500 ,$100 ,5,0,,,3,1.0,296,We just ask that you respect the other guests and residents in the building.,
48072760,Flushing Deluxe Room w/1Full and 1Twin Size Bed,43587873342,unconfirmed,Shirley,Queens,Flushing,40.748490000000004,-73.82914,United States,US,True,strict,Private room,2018,$857 ,$171 ,7,83,5/12/2019,2.15,2,12.0,252,"House handbook sent prior to arrival but please be considerate with noise, smoking on roofdeck only and parties are not allowed...thank you!",
48073313,Tidy relaxing and sunny bedroom,19518542366,unconfirmed,Fer,Manhattan,East Harlem,40.797109999999996,-73.93647,United States,US,True,moderate,Private room,2021,$524 ,$105 ,3,27,12/9/2016,0.69,4,1.0,0,,
48073865,Natural light comfortable room!,72427718698,unconfirmed,Danny,Bronx,Parkchester,40.83648,-73.85812,United States,US,True,flexible,Private room,2009,$132 ,$26 ,1,120,7/2/2019,3.11,3,2.0,355,**Complimentary breakfast is available only by request.,
48074417,Wonderful East Village Bedroom,89204524482,verified,Mike,Manhattan,East Village,40.72803,-73.98853000000001,United States,US,False,strict,Private room,2013,$348 ,$70 ,1,32,5/5/2019,0.85,4,1.0,272,No Smoking No Pets,
48074970,★ HEBREWS 13:2 ★,34745983030,verified,Buddy,Bronx,Pelham Gardens,40.86323,-73.84638000000001,United States,US,True,strict,Entire home/apt,2016,$601 ,$120 ,2,81,7/6/2019,2.07,1,4.0,364,,
48075522,Nice Room in a Sweet Bushwick Apt,1080093364,unconfirmed,Matt,Brooklyn,Williamsburg,40.70496,-73.93024,United States,US,True,flexible,Private room,2014,$537 ,$107 ,3,7,6/18/2019,0.41,2,1.0,302,No Smoking No Pets,
48076074,3F 4bd/2bath Luxury Apt in Manhattan/NYC,9555083633,unconfirmed,Bill & May,Manhattan,Washington Heights,40.83543,-73.94456,United States,US,True,flexible,Entire home/apt,2020,$128 ,$26 ,1,126,7/1/2019,3.21,1,4.0,362,No Smoking. No Pets.,
48076627,Highline view,48805520734,unconfirmed,Jonathan,Manhattan,Chelsea,40.74553,-73.99784,United States,US,False,flexible,Private room,2005,$898 ,$180 ,1,1,5/21/2016,0.03,1,1.0,159,"Common sense rules. No smoking indoors. Be courteous to the neighbors.  Please respect the property, this is our home. If you intend to entertain more than 5 people at any point during your stay, please seek approval from me in advance of booking your stay. Please make sure the door is locked each time you leave the apartment. ",
48077179,Spacious 1 BR by Central Park!,8001986224,verified,Cassandra,Manhattan,Upper West Side,40.79772,-73.9626,United States,US,True,flexible,Entire home/apt,2008,$708 ,$142 ,3,11,8/17/2017,0.32,4,1.0,154,"Iconic Boston Brownstone with amazing views, but no elevator. 3 flights of stairs up to the apartment, another set once in the unit up to the private roof deck. No smoking, no pets. My apartment is in a building with 2 other units, people who live there full time. Please be respectful of my neighbors and their privacy, no late night parties.  This is a quiet building.",
48077731,"Sunny, spacious Upper East Side studio, sleeps 3",17460667730,verified,Evan,Manhattan,Upper East Side,40.77667,-73.95463000000001,United States,US,False,flexible,Entire home/apt,2014,$289 ,$58 ,2,6,10/10/2016,0.17,3,1.0,80,"Please smoke outside in the front of the building, no additional guests.",
48078283,Big House near express trains,82507482550,unconfirmed,Doug,Brooklyn,Flatbush,40.63129,-73.96611,United States,US,True,flexible,Entire home/apt,2009,"$1,120 ",$224 ,3,9,7/2/2019,0.37,3,1.0,10,"House Rules The house rules are an important part of staying in this condo.  You will be sharing a living space with other guests and a high level of consideration, respect, communication and tolerance is expected from you.  They are meant to make your stay more pleasant, to prevent conflicts and to protect the property of any damage.  If you feel there is something that needs to be addressed and that is not covered in these rules, please make sure you communicate that to the host. 1.  Toilet · The toilettes can only be used with toilet paper provided.  Any other material disposed of will cause the plumbing system to back up and create drainage problems.  No tissues, cotton balls, tampons, Q-tips cotton swabs or any kind of sanitary products are allowed down the toilets.  · Any plumbing work due to clogged toilets will be charged to the guests. 2. Noise and Quiet Hours · Quiet hours are from 10pm until 7am.  During quiet hours radios and stereos may be played at a level not to be heard",
48078836,Sunny 1BR apartment in Chelsea,85723228479,unconfirmed,Bryan,Manhattan,Chelsea,40.74045,-73.99824,United States,US,False,flexible,Entire home/apt,2020,$605 ,$121 ,3,9,10/31/2016,0.23,3,1.0,264,,
48079388,Beautiful 1 bed Apt in Midtown!,79614098914,verified,Robby,Manhattan,Midtown,40.75761,-73.96217,United States,US,True,moderate,Entire home/apt,2009,"$1,158 ",$232 ,1,0,,,4,1.0,395,We expect our guests to treat this condo as their home and to be respectful of our wonderful neighbors.   This property is entirely non-smoking (including outside on the patio or front stoop).  Pets are not allowed.  No guests or parties.,
48079940,Spacious Place in Brooklyn New York,64467892123,verified,Young,Brooklyn,Bedford-Stuyvesant,40.68075,-73.91099,United States,US,False,strict,Entire home/apt,2019,$555 ,$111 ,30,38,9/21/2018,1.1,4,1.0,268,"*Please share with other guests in your reservation. Thanks!* [Security]  Unless otherwise specified, building and apartment access is for reserved guests only. Lock doors when coming and going; keep keys and windows secure.  [Courtesy]  Be mindful of neighbors. No smoking in/around the property. No shoes in the apartment. Pick up after yourself. [Be Green]  Turn off lights, electronics and faucets when not in use. Recycling bin (paper, plastic, glass, aluminum) and reusable shopping bags are in the pantry.  [Communicate]  Please tell me right away if you feel you're having less than a 5-star experience. So many of my trips were made better by caring, thoughtful hosts; it would make me happy to do the same for you.",
48080493,One station from Manhattan Bedford,2674511989,verified,Serra,Brooklyn,Williamsburg,40.715920000000004,-73.96265,United States,US,True,flexible,Entire home/apt,2022,$535 ,$107 ,5,35,6/26/2019,0.9,2,,24,,
48081045,Prime Williamsburg balcony cityview,1572114109,verified,Nicolas,Brooklyn,Williamsburg,40.71671,-73.94989,United States,US,True,moderate,Entire home/apt,2011,$956 ,$191 ,2,0,,,3,,329,"A residential, quiet, small building. Non- smoking. No heavy drinking. No pets",
48081597,Cozy Bdr 15 min from Manhattan!,80393450381,verified,Francisco,Brooklyn,Williamsburg,40.70661,-73.93642,United States,US,True,moderate,Private room,2004,$185 ,$37 ,1,2,4/17/2016,0.05,2,,233,New luxury furnishings provided.  Please be respectful.  If an accident happens please report and it will be resolved.  ,
48082150,Large Furnished room in New two bedroom apt.,67572656070,unconfirmed,Bob,Manhattan,Chinatown,40.71703,-73.99338,United States,US,False,moderate,Private room,2015,$267 ,$53 ,3,4,10/15/2017,0.1,4,,220,NO Smoking,
48082702,Upper West Side Quiet Gem,20561417282,verified,Poppi,Manhattan,Upper West Side,40.780390000000004,-73.98425999999999,United States,US,True,strict,Entire home/apt,2013,$271 ,$54 ,1,0,,,2,,419,"No kids, no pets, no smoking.",
48083254,Rent a room in modern Bushwick apt,3715148999,verified,Henrik,Brooklyn,Bushwick,40.699690000000004,-73.91896,United States,US,False,strict,Private room,2014,$710 ,$142 ,1,7,6/19/2016,0.18,1,,63,,
48083806,"Large Brooklyn Room, close to train",2333439064,unconfirmed,Nataly,Brooklyn,Cypress Hills,40.67708,-73.89236,United States,US,True,flexible,Private room,2013,$78 ,$16 ,3,2,7/13/2016,0.05,4,,112,,
48084359,Beautiful 2 bedroom Duplex Apartment,19731543892,verified,Luis,Queens,Maspeth,40.73976,-73.8954,United States,US,False,strict,Private room,2004,$663 ,$133 ,3,27,5/18/2019,0.78,3,,51,This is a residential property and quiet is maintained.   Absolutely zero smoking on or near the property.  Be respectful and kind.,
48084911,Cozy East Village Loft!,69239000766,verified,Britta,Manhattan,East Village,40.72444,-73.98136,United States,US,True,strict,Private room,2022,$896 ,$179 ,3,1,6/28/2016,0.03,5,1.0,68,"House Rules 1. Check-in is 4 pm local time. If the unit is ready earlier, we’ll let you know. Check-out is normally 11 am local time, but we’d be happy to extend it as long as we don’t have a cleaning scheduled. Just let us know.  2. All bookings require a security deposit of at least $300, which will be refunded within 7 days of your check-out. 3. For security measures we require all guests to provide proof of identification through ID verification on our own website. In order to check in we'll need a photo of your ID.  4. Our cancellation policy is as shown on our ad and defined by the site you are booking through.  5. Don’t let $300 go up in smoke. There's no smoking allowed in any Flatbook and a $300 fine for breaking this rule.  6. Unfortunately we don’t allow pets in any of our apartments. 7. Unless you’re staying in one of our specialty apartments, we don’t allow parties or excessive noise. 8. If we find the place very messy, we have to charge an extra $40 for every extra hour o",
48085463,Spacious 1BD/BA in heart of Bushwick,38429963275,unconfirmed,Alexi,Brooklyn,Bedford-Stuyvesant,40.695370000000004,-73.93494,United States,US,False,flexible,Private room,2014,$747 ,$149 ,1,12,5/19/2019,0.75,4,2.0,2,Enjoy the space responsibly. It's a quiet family-owned building on a very busy street. Only Airbnb-vetted individuals allowed in the house - for our security as well as our neighbors - we want to keep our space safe! No smoking or pets (sorry!) Please return space as you found it.,
48086016,Near to Central Park and 1 ride to Times Sq!,62665860168,verified,Gabi,Manhattan,East Harlem,40.79505,-73.94360999999999,United States,US,False,strict,Entire home/apt,2005,$889 ,$178 ,2,140,5/27/2019,3.6,2,3.0,103,"House Rules 1. Check-in is 4 pm local time. If the unit is ready earlier, we’ll let you know. Check-out is normally 11 am local time, but we’d be happy to extend it as long as we don’t have a cleaning scheduled. Just let us know.  2. All bookings require a security deposit of at least $300, which will be refunded within 7 days of your check-out. 3. For security measures we require all guests to provide proof of identification through ID verification on our own website. In order to check in we'll need a photo of your ID.  4. Our cancellation policy is as shown on our ad and defined by the site you are booking through.  5. Don’t let $300 go up in smoke. There's no smoking allowed in any Flatbook and a $300 fine for breaking this rule.  6. Unfortunately we don’t allow pets in any of our apartments. 7. Unless you’re staying in one of our specialty apartments, we don’t allow parties or excessive noise. 8. If we find the place very messy, we have to charge an extra $40 for every extra hour o",
48086568,Bergen Beach 3 or 4 Bedrooms 2 bath,75253627022,verified,Carmen,Brooklyn,Bergen Beach,40.6235,-73.91056,United States,US,True,moderate,Entire home/apt,2021,"$1,055 ",$211 ,4,32,6/11/2019,0.88,4,1.0,127,Enjoy!,
48087120,Large 1 Bdrm in Clinton Hill,16130501034,verified,Jackie,Brooklyn,Clinton Hill,40.68809,-73.96027,United States,US,True,strict,Entire home/apt,2004,$494 ,$99 ,3,2,6/29/2016,0.05,4,1.0,347,#NAME?,
48087673,I HEART LIC...you will too!,48745448677,verified,Allison,Queens,Astoria,40.7619,-73.91985,United States,US,False,strict,Private room,2019,$926 ,$185 ,1,1,8/6/2016,0.03,1,1.0,330,sorry: no smoking no pets no kids no parties ...,
48088225,Large cosy room-Financial District,29093072761,verified,Daniela,Manhattan,Financial District,40.708729999999996,-74.00601,United States,US,True,moderate,Private room,2010,$349 ,$70 ,1,5,11/9/2016,0.13,3,1.0,99,#NAME?,
48088777,Home 4 Medical Professionals-St Johns Hospital,52648172958,unconfirmed,Stat,Queens,Far Rockaway,40.5978,-73.75296,United States,US,True,strict,Private room,2014,$854 ,$171 ,30,0,,,1,43.0,226,,
48089329,Private room in a nice neighborhood,77473270918,verified,Ben,Queens,Astoria,40.76625,-73.91448000000001,United States,US,True,strict,Private room,2010,"$1,157 ",$231 ,2,14,1/3/2017,0.37,5,1.0,4,"Keep the place in the same condition as upon arrival. Be yourself, but please no wild parties, thanks :)",
48089882,Super Sunny Room with Fireplace!,37398669193,verified,Anthony,Brooklyn,Crown Heights,40.668820000000004,-73.9404,United States,US,False,strict,Private room,2015,$206 ,$41 ,2,107,6/29/2019,2.74,4,5.0,54,No smoking and no pets.  No parties without prior approval.  Names and ages of all guests is required for booking.,
48090434,Tompkins Square Apartment,13606700832,unconfirmed,Martin,Manhattan,East Village,40.72376,-73.97975,United States,US,False,strict,Entire home/apt,2006,"$1,026 ",$205 ,20,2,1/10/2017,0.06,2,1.0,57,,
48090986,SERENITY ROOM,7415157079,unconfirmed,Dlb,Queens,Laurelton,40.66952,-73.74624,United States,US,False,moderate,Private room,2007,$666 ,$133 ,2,47,2/15/2019,1.19,2,5.0,24,"Enjoy your stay in our home, simply be respectful of our neighbors, no smoking and no pet allowed.",
48091539,4 Bedroom Apartment on the UWS (1A),46784196962,unconfirmed,Irina,Manhattan,Upper West Side,40.798390000000005,-73.96804,United States,US,True,moderate,Entire home/apt,2013,"$1,052 ",$210 ,90,0,,,1,2.0,375,#NAME?,
48092091,New Colorful East Village Modern Apt off Bowery,30525167226,verified,Elizabeth,Manhattan,East Village,40.72421,-73.99041,United States,US,False,moderate,Private room,2014,$814 ,$163 ,1,14,9/6/2018,0.4,3,1.0,98,,
48092643,"1 BR/BA right next to trains, Central Park + more",34268632510,unconfirmed,Michael,Manhattan,Upper East Side,40.76769,-73.9585,United States,US,False,flexible,Entire home/apt,2009,$949 ,$190 ,2,7,6/18/2017,0.2,3,1.0,362,Yes please:  •  make yourself at home; •  ask questions. Please no: •  shoes inside; •  smoking; •  food in the bedroom; •  parties; •  pets.,
48093196,Cozy Bedroom with Balcony in Williamsburg Apt,50735723309,verified,Martina,Brooklyn,Williamsburg,40.71065,-73.95115,United States,US,True,strict,Private room,2021,$317 ,$63 ,2,19,6/30/2019,0.49,4,2.0,147,,
48093748,Glorious Williamsburg Penthouse,45792334887,unconfirmed,Jonathan,Brooklyn,Williamsburg,40.717420000000004,-73.95777,United States,US,False,strict,Entire home/apt,2019,$222 ,$44 ,4,12,6/21/2019,0.49,1,1.0,201,"Please just don't be loud at night or in the morning, we are just one wall/ceiling away from neighbors.  Also, just respect our things, wash dishes, keep it clean - the usual! - and everything will be peachy keen.",
48094300,Luxury 2BR Midtown East-Near the UN,8784812460,unconfirmed,Laura,Manhattan,Midtown,40.75322,-73.97321,United States,US,False,strict,Entire home/apt,2015,$965 ,$193 ,2,14,5/3/2019,0.36,4,3.0,173,No Smoking ,
48094852,Room in Renovated BK Brownstone,22094850561,unconfirmed,Caitlin,Brooklyn,Bedford-Stuyvesant,40.69443,-73.94315999999999,United States,US,True,moderate,Private room,2017,$649 ,$130 ,1,5,6/7/2016,0.13,2,1.0,372,"This is a quiet building and expect not to be disturbed, or to create disturbances.  There is a shared washer and dryer and it is not used after 11pm.  There is absolutely no smoking allowed in the building, on the fire escape or on the front steps.  We prefer that guests be non-smokers.  Guests are not permitted to bring pets, or have visitors with pets.  Bicycles can not be brought into the building.  The City of Boston collects trash two times per week and Guests are expected to observe local trash and re-cycling schedules.  There is a more detailed description available once reservation is completed.",
48095405,Cherry Blossom Room on East 95th Street,13912312903,verified,Alice,Manhattan,Upper East Side,40.78755,-73.95493,United States,US,True,moderate,Private room,2019,$56 ,$11 ,1,9,6/23/2019,0.23,5,1.0,292,,
48095957,Bright  Studio Near Time Square,78318994439,unconfirmed,Jeniffer,Manhattan,Hell's Kitchen,40.763020000000004,-73.99416,United States,US,True,strict,Entire home/apt,2017,$660 ,$132 ,30,7,4/10/2019,0.19,3,31.0,217,EACH ROOM HAS A FULL SIZED BED AND NORMALLY ROOMS ARE RENTED TO SINGLE GUESTS ONLY. OCCASIONALLY A COUPLE OF ADULTS WILL BE CONSIDERED BUT THERE IS AN ADDITIONAL CHARGE FOR MORE THAN ONE PERSON,
48096509,Private 1 Bedroom Apartment SLEEPS 4 -Close to All,25586402706,verified,Shanie,Queens,Jamaica,40.70085,-73.81284000000001,United States,US,True,flexible,Entire home/apt,2011,$760 ,$152 ,1,27,5/22/2019,0.7,3,2.0,115,"No smoking , The key located in front of the main door next to the railing   Inside of the locker , I will send the passcode to the guest prior check in , please remember to put the key back in the locker when check out .      With the key , please open with the passcode, take the key out , then close the locker , when you check out , please open the locker , place the key , then close the locker . Thank you  The Internet username : kenwang549 Password: columbus12345 The assigned parking in the behind of the building , you can follow the direction with the picture shown , and there is a sign for the parking space . Any questions or problems please contact me at (PHONE NUMBER HIDDEN) , or e mail me . Thank you",
48097062,"CLEAN,SPACIOUS,CONVENIENT,FiDi/NYC Apartment",84135594223,verified,Shan,Manhattan,Financial District,40.70799,-74.00976999999999,United States,US,True,strict,Entire home/apt,2010,$534 ,$107 ,3,100,6/22/2019,2.66,3,1.0,267,"Be respectful of our neighbors - No loud music or parties, please.",
48097614,One Bedroom Heart of New York City,64240791866,unconfirmed,Fataah,Manhattan,Gramercy,40.73365,-73.98481,United States,US,False,moderate,Private room,2017,$417 ,$83 ,1,0,,,1,2.0,397,No smoking please. No pets.,
48098166,Charming Private Library-Room,17369494658,verified,JoJo,Manhattan,Inwood,40.87133,-73.91561999999999,United States,US,False,strict,Private room,2022,$848 ,$170 ,2,74,4/27/2019,1.98,5,1.0,40,"Please no parties,  and no loud noise past 11p, out of respect for the neighbors.  Please no smoking inside the building.  If you cook or otherwise eat in the apartment, please reasonably clean up after yourself.",
48098719,Modern 1BR in Downtown Manhattan,55385568114,verified,Josef,Manhattan,Lower East Side,40.71894,-73.98738,United States,US,True,moderate,Entire home/apt,2005,$522 ,$104 ,1,0,,,4,1.0,93,No Pet. No Smoking. ,
48099271,Private Room with 1/2 Bath in LES!,88251613861,unconfirmed,Jessica,Manhattan,Lower East Side,40.71257,-73.98671,United States,US,False,strict,Private room,2022,$828 ,$166 ,1,0,,,1,1.0,283,smoke-free campus.,
48099823,BEAUTIFUL 1bd/1bath available in Williamsburg,48299810329,verified,Franco,Brooklyn,Williamsburg,40.70851,-73.95443,United States,US,True,flexible,Private room,2016,"$1,197 ",$239 ,4,2,5/6/2019,0.77,5,1.0,167,Please respect our privacy on 1st and 2nd floors.  We do appreciate you being quiet when coming in very late at night.  If you need anything we are happy to help in any way.,
48100375,Diamond in Upper West Side,19387314258,verified,Rem,Manhattan,Upper West Side,40.79749,-73.96307,United States,US,False,moderate,Private room,2019,$81 ,$16 ,7,1,6/5/2016,0.03,4,1.0,110,,
48100928,Designer 1BR in Hell's Kitchen NYC,8268812736,unconfirmed,Kyle,Manhattan,Hell's Kitchen,40.76038,-73.98781,United States,US,False,strict,Entire home/apt,2005,"$1,125 ",$225 ,7,100,6/22/2019,2.66,3,1.0,146,No Smoking No Pets,
48101480,Hells Kitchen Studio,11996964577,unconfirmed,Catherine,Manhattan,Hell's Kitchen,40.768,-73.98557,United States,US,True,strict,Entire home/apt,2015,$733 ,$147 ,1,0,,,5,1.0,152,,
48102032,"More Space, 3 BR, 2 Bath, 2 floors",16764953650,verified,Collin,Brooklyn,Bushwick,40.69294,-73.92286999999999,United States,US,False,strict,Entire home/apt,2019,$256 ,$51 ,4,105,6/15/2019,2.85,1,1.0,205,"Be yourself, but please no wild parties, thanks :)",
48102585,1 bedroom PRIVATE backyard in heart of Flatiron,59014202673,unconfirmed,Marie,Manhattan,Flatiron District,40.73922,-73.98886,United States,US,True,moderate,Entire home/apt,2009,"$1,174 ",$235 ,14,3,10/27/2018,0.13,5,1.0,224,,
48103137,Clean freshly renovated room,65764610014,verified,Danny,Bronx,Parkchester,40.83703,-73.85648,United States,US,False,moderate,Private room,2015,$682 ,$136 ,2,63,5/18/2019,1.8,2,2.0,47,please be quiet and respectful of the other renters,
48103689,Dean Street Oasis,71383737891,unconfirmed,Miriam,Brooklyn,Crown Heights,40.675290000000004,-73.93670999999999,United States,US,False,flexible,Private room,2010,"$1,128 ",$226 ,1,1,5/2/2016,0.03,3,1.0,326,,
48104242,Cozy big bedroom with private balcony,37425473445,unconfirmed,Aldo,Queens,Astoria,40.77479,-73.93545999999999,United States,US,True,moderate,Private room,2022,$520 ,$104 ,1,21,6/21/2019,0.55,2,1.0,201,,
48104794,Huge family friendly loft in Soho,32389534485,unconfirmed,Stacey,Manhattan,SoHo,40.7244,-74.00681,United States,US,True,moderate,Entire home/apt,2012,"$1,098 ",$220 ,2,0,,,1,1.0,269,"No smoking or additional guests, please.",
48105346,Spacious Brownstone with 5 beds on Second floor!,92374747645,verified,Jocelyne,Queens,Ridgewood,40.709179999999996,-73.90089,United States,US,False,strict,Entire home/apt,2014,$976 ,$195 ,1,38,6/28/2019,1.75,5,1.0,372,THE HOUSE HAS 4 FLOORS AND IS SHARED WITH THE OWNER AND ONE OR TWO OTHER OCCUPANTS.   QUIET IS ASSURED (ESPECIALLY LATE EVENINGS) SMOKING IS NOT PERMITTED INSIDE THE HOUSE. THERE ARE NO LOCKS ON ROOM DOORS AS THESE ARE BEDROOMS IN A PRIVATE HOME.  PRIVACY IS ASSURED AND RESPECT OTHERS' BELONGINGS ,
48105898,Suite One at Bryant Manor,80095741643,unconfirmed,Kevin,Manhattan,Harlem,40.809670000000004,-73.95295,United States,US,True,strict,Entire home/apt,2014,$992 ,$198 ,2,136,6/23/2019,3.51,1,2.0,170,It's a quiet building on a quiet street with many working professionals. Please be respectful of our neighbors and no additional guests or parties. No Smoking. No Pets.,
48106451,Cozy and privat studio near Times Sq,52448913494,verified,K.Arina,Manhattan,Hell's Kitchen,40.76058,-73.99603,United States,US,True,moderate,Entire home/apt,2007,$419 ,$84 ,7,131,6/28/2019,3.37,3,1.0,158,"Just be respectful, that's really all I ask.  I love my home and hope you do too. No smoking inside, please smoke on the stoop.  No pets please.",
48107003,Loft room by the Brooklyn Bridge!,97802020959,verified,Alex,Brooklyn,Downtown Brooklyn,40.69449,-73.98366999999999,United States,US,True,moderate,Private room,2008,$554 ,$111 ,1,0,,,2,1.0,19,Party hard just don't break things.,
48107555,Studio- Wyndham Midtown 45,36948354629,unconfirmed,Tania,Manhattan,Midtown,40.75228,-73.97336999999999,United States,US,False,moderate,Private room,2007,$361 ,$72 ,5,0,,,4,1.0,315,This is a quiet building with absolutely no smoking inside the property or on the steps.  ,
48108108,Clean and Cozy Room in Williamsburg!,25734225226,verified,Jackie,Brooklyn,Williamsburg,40.7121,-73.96155999999999,United States,US,True,strict,Private room,2010,$987 ,$197 ,1,1,5/23/2016,0.03,2,3.0,138,Please no smoking in the apartment.  There is a door to a balcony/fire escape for smoking.,
48108660,Perfect Neighborhood sublet,20969562941,unconfirmed,Daniel,Brooklyn,Park Slope,40.67086,-73.97847,United States,US,True,moderate,Private room,2008,"$1,119 ",$224 ,1,0,,,4,1.0,282,Have fun and please be respectful of the place. No parties Please do not smoke inside,
48109212,Cosy 1 bedroom apartment in Astoria,52594379481,verified,Kim,Queens,Astoria,40.76869,-73.91966,United States,US,True,flexible,Entire home/apt,2014,$832 ,$166 ,7,1,6/5/2016,0.03,5,1.0,384,,
48109765,Sunny + Family Friendly Artist's Apartment,36703045448,verified,Eugenia,Bronx,Longwood,40.81384,-73.90514,United States,US,True,moderate,Entire home/apt,2022,$162 ,$32 ,5,4,8/3/2018,0.31,5,1.0,156,"No guests can be allowed access to the building/grounds that have not been mentioned at the time the reservation was made.   This is to keep everyone, including my neighbors, safe. No smoking. No pets. Campsite rules - leave it as you found it please! (trash cans are right out the back door on the other side of the patio fence). Being low key/quiet after 10pm when on the patio is much appreciated by our neighbors.",
48110317,Sunny Spacious South Slope Studio,69378237828,unconfirmed,Jason,Brooklyn,Sunset Park,40.66248,-73.99667,United States,US,False,strict,Entire home/apt,2018,$337 ,$67 ,2,3,1/13/2017,0.1,4,1.0,-7,"No pets or smoking allowed any where on the premises.  Check-in is at 4:00 pm or later and check out is at 11 am.  After hours self check-in is available but MUST be PER-ARRANGED with host in advance. Bag storage is extra as are early check-in and late check out when possible. Guest are expected to be respectful of others in the building, neighbors, and the property.",
48110869,Bright Sunny Apartment Near Subway,73902898135,verified,Rishe,Brooklyn,Crown Heights,40.66753,-73.95099,United States,US,False,moderate,Private room,2006,$481 ,$96 ,5,7,9/9/2016,0.18,3,2.0,227,"Quiet hours 10pm -7AM. No additional people besides the reservation listing allowed in the apartment. Alcohol in moderation is allowed. No smoking, no drugs. Please, leave the apartment the way in which you found it! Females only.",
48111421,"Charming, Sunny Room in Amazing LES",54222532727,unconfirmed,Gracie,Manhattan,Lower East Side,40.7192,-73.98431,United States,US,False,flexible,Private room,2008,$874 ,$175 ,2,3,1/6/2017,0.08,5,1.0,266,Feel free to use any dishware in the house but please load and run the dishwasher when you leave.,
48111974,1 BR in 2 BR Apt (Upper East Side),56249573042,verified,Jeffrey Paul,Manhattan,East Harlem,40.78898,-73.95478,United States,US,False,strict,Private room,2021,$255 ,$51 ,1,32,10/1/2018,0.83,5,1.0,48,#NAME?,
48112526,Studio Near Time Square,40422360423,verified,Jeniffer,Manhattan,Hell's Kitchen,40.76347,-73.99296,United States,US,True,moderate,Entire home/apt,2020,$792 ,$158 ,30,5,6/10/2018,0.13,5,31.0,34,- I've got a parking space that I can rent to you separately for $20 a night,
48113078,Modern Luxury 1BR with Patio,77047906191,verified,Amber,Manhattan,Kips Bay,40.74462,-73.97746,United States,US,False,moderate,Entire home/apt,2010,$72 ,$14 ,3,0,,,5,1.0,136,"Smoking is not permitted inside the condo.  We do not have any pets and we also ask that you don't bring yours. Please remove shoes and place in the basket upon entering the door. Although we understand the wear and tear that little ones make, we expect that all messes will be cleaned up as they happen and you will be respectful of the neighbors. Persons booking must be 18 years or older in order to rent.",
48113631,"Cozy, Central Park, UES, Train 6",17199522917,unconfirmed,Christos,Manhattan,Upper East Side,40.7673,-73.9594,United States,US,True,strict,Entire home/apt,2019,$52 ,$10 ,1,0,,,3,1.0,243,Please respect the residents of the building by keeping noise down.,
48114183,Victorian Flatbush Family Friendly,76217590660,verified,Elizabeth,Brooklyn,Flatbush,40.64933,-73.96478,United States,US,True,flexible,Entire home/apt,2005,"$1,185 ",$237 ,5,4,8/19/2018,0.11,5,1.0,202,This is a quiet building and we would only like guests that want quiet and privacy.  Absolutely no smoking on the premises.,
48114735,Small Bedroom Steps From the 1 Train,13935399842,unconfirmed,Carole,Manhattan,Harlem,40.820879999999995,-73.95628,United States,US,False,moderate,Private room,2003,$697 ,$139 ,2,12,8/28/2017,0.31,3,2.0,81,,
48115288,Great Location 1 BR Apt - Manhattan,93244318386,verified,Abe,Manhattan,Midtown,40.76657,-73.98207,United States,US,False,strict,Entire home/apt,2016,$419 ,$84 ,2,0,,,2,1.0,53,"There are two other units in this building, quiet, clean and respectful of neighbors is all we request. Regrets, no pets and no smoking.",
48115840,Cozy 5Min2CentralPark/BroadwayShows/TimesSquareNY,78868646008,verified,Joseph,Manhattan,Hell's Kitchen,40.76535,-73.98874,United States,US,False,moderate,Private room,2008,$574 ,$115 ,4,27,6/25/2018,0.7,4,1.0,58,"House Rules The house rules are an important part of staying in this condo.  You will be sharing a living space with other guests and a high level of consideration, respect, communication and tolerance is expected from you.  They are meant to make your stay more pleasant, to prevent conflicts and to protect the property of any damage.  If you feel there is something that needs to be addressed and that is not covered in these rules, please make sure you communicate that to the host. 1.  Toilet · The toilettes can only be used with toilet paper provided.  Any other material disposed of will cause the plumbing system to back up and create drainage problems.  No tissues, cotton balls, tampons, Q-tips cotton swabs or any kind of sanitary products are allowed down the toilets.  · Any plumbing work due to clogged toilets will be charged to the guests. 2. Noise and Quiet Hours · Quiet hours are from 10pm until 7am.  During quiet hours radios and stereos may be played at a level not to be heard",
48116392,Largest room in Astoria! Close to all mass transit,42018561213,unconfirmed,Rob,Queens,Astoria,40.76555,-73.91458,United States,US,False,strict,Private room,2008,"$1,061 ",$212 ,2,18,11/15/2016,0.46,3,1.0,130,"Respect the apartment and neighbors.   Just three house rules:  I ask folks to keep noise down after 11 pm, take out the trash on trash day; and don't leave out any open food containers or dirty dishes.",
48116944,Cozy bedroom w/private bathroom & backyard,41330604248,verified,Manon,Brooklyn,Clinton Hill,40.68761,-73.95979,United States,US,False,flexible,Private room,2020,$429 ,$86 ,2,31,5/26/2019,0.83,1,1.0,382,Treat it as your own and have a blast!,
48117497,Spacious room with private rooftop!,94779097503,unconfirmed,Harry,Manhattan,East Village,40.72522,-73.98114,United States,US,True,strict,Private room,2005,$184 ,$37 ,3,0,,,2,1.0,70,No Pets. No Smoking.,
48118049,Williamsburg entire  apartment,29305289350,unconfirmed,Maya,Brooklyn,Williamsburg,40.70965,-73.95675,United States,US,True,strict,Entire home/apt,2004,$992 ,$198 ,4,10,6/23/2019,0.37,2,1.0,316,,
48118601,"Sunny Floor-thru, Prospect Heights",47332763358,verified,Donnell,Brooklyn,Crown Heights,40.67634,-73.96177,United States,US,True,flexible,Entire home/apt,2016,$811 ,$162 ,1,1,7/6/2016,0.03,4,1.0,354,,
48119154,Spacious Studio w/ Patio- Ft Greene,25054642862,verified,Shawn,Brooklyn,Fort Greene,40.687020000000004,-73.97506,United States,US,False,flexible,Entire home/apt,2015,$153 ,$31 ,2,136,6/16/2019,3.46,4,1.0,186,#NAME?,
48119706,Large room in 3 bedroom apartment,87774528104,verified,Zuri,Brooklyn,Cypress Hills,40.67893,-73.89423000000001,United States,US,False,flexible,Private room,2004,"$1,066 ",$213 ,1,0,,,2,1.0,299,,
48120258,Huge Flatiron Designer Studio,83405677532,unconfirmed,Chin-Feng,Manhattan,Flatiron District,40.74047,-73.98931999999999,United States,US,True,flexible,Entire home/apt,2021,$333 ,$67 ,1,0,,,5,1.0,372,,
48120811,Luxury building studio apartment,66093278286,verified,Viola,Manhattan,Midtown,40.76507,-73.98393,United States,US,False,flexible,Entire home/apt,2021,$564 ,$113 ,5,1,5/4/2016,0.03,2,1.0,308,,
48121363,Small Sunny 1BR Apt Bradhurst Park,6802270194,verified,Tim,Manhattan,Harlem,40.826159999999994,-73.94023,United States,US,False,strict,Entire home/apt,2011,$869 ,$174 ,2,5,10/30/2016,0.13,1,1.0,21,please be quiet and respectful of the other renters,
48121915,Violet Terrace,66757608203,unconfirmed,Clarissa,Brooklyn,Bedford-Stuyvesant,40.68607,-73.91761,United States,US,False,strict,Private room,2016,$493 ,$99 ,2,53,7/7/2019,1.37,2,2.0,369,"Enjoy your stay in our home, simply be respectful of our neighbors, no smoking and no pet allowed.",
48122467,Location/Charm/Comfort-Live the West Village dream,21842803940,verified,Rachel,Manhattan,West Village,40.73475,-74.0044,United States,US,False,strict,Entire home/apt,2004,"$1,186 ",$237 ,3,0,,,1,1.0,16,No Smoking No Pets,
48123020,"Great Room & Location, Williamsburg",19818657548,unconfirmed,Kevin,Brooklyn,Williamsburg,40.710190000000004,-73.95439,United States,US,True,strict,Private room,2021,$862 ,$172 ,3,2,6/29/2016,0.05,5,1.0,335,Please leave the home as it was when you entered :),
48123572,TH BRKLYN,51340806047,unconfirmed,Rob,Brooklyn,Boerum Hill,40.688340000000004,-73.98601,United States,US,True,flexible,Private room,2012,$579 ,$116 ,1,0,,,1,1.0,365,,
48124124,Room for 2,32118960602,verified,Bryant,Brooklyn,Bushwick,40.69336,-73.9213,United States,US,True,moderate,Private room,2022,$510 ,$102 ,2,2,6/16/2017,0.08,4,1.0,53,,
48124677,NEW Modern Apartment w/ OutdoorDeck,68438125037,verified,Arkadiy,Brooklyn,Sunset Park,40.66482,-73.99609,United States,US,True,strict,Entire home/apt,2020,$191 ,$38 ,1,164,6/20/2019,4.25,4,1.0,91,"Quiet. Residential. No smoking, no pets",
48125229,Beautiful 2 BR by Columbia,11689786979,verified,Jenna,Manhattan,Morningside Heights,40.80507,-73.96465,United States,US,False,strict,Entire home/apt,2009,$81 ,$16 ,4,3,1/5/2018,0.08,4,1.0,153,Smoking is not permitted inside the house.,
48125781,Brownstone charm-1st Fl with yard,18692385022,verified,Scott,Manhattan,Upper West Side,40.78054,-73.97779,United States,US,True,flexible,Entire home/apt,2005,$677 ,$135 ,2,7,6/26/2016,0.18,4,1.0,108,No smoking or pets.,
48126334,1 bed Apt Near to Time Square,2499616606,verified,Jeniffer,Manhattan,Hell's Kitchen,40.763059999999996,-73.99257,United States,US,False,moderate,Entire home/apt,2015,$313 ,$63 ,30,3,11/5/2018,0.12,4,31.0,322,"Please be quiet, kind and respectful. This building has both renters and many home occupants, it's a great place to make it your home for a stay! Please be mindful of other people on the building, and keep all questions to me, your host!",
48126886,Simple Suite with Private Bathroom,56981036430,unconfirmed,Mrs. Alabi,Brooklyn,Crown Heights,40.6736,-73.92612,United States,US,True,moderate,Entire home/apt,2004,$800 ,$160 ,2,23,6/27/2019,6.22,5,2.0,69,"This is a residential neighborhood, quiet is important.  No smoking. No pets.",
48127438,Lovely Brownstone Garden Apartment,19801665348,unconfirmed,Marni,Brooklyn,Bedford-Stuyvesant,40.6872,-73.95231,United States,US,False,moderate,Entire home/apt,2007,"$1,011 ",$202 ,5,55,7/3/2019,1.44,1,1.0,100,"Please be clean and respectful of the apartment, building and neighbors. No smoking indoors. Pets are allowed on a case by case basis.",
48127990,Cuarto muy confortable. 2 personas. Cerca de todo.,92111664730,unconfirmed,Dante,Queens,Jackson Heights,40.75302,-73.8797,United States,US,False,moderate,Private room,2020,$545 ,$109 ,1,15,12/20/2018,0.39,2,2.0,201,,
48128543,Comfortable Small Room with wifi,16376213581,verified,Anita,Brooklyn,Prospect-Lefferts Gardens,40.66113,-73.94542,United States,US,False,moderate,Private room,2022,$403 ,$81 ,2,60,6/23/2019,1.62,4,4.0,363,,
48129095,Private patio on the LES.,42787681891,unconfirmed,Phillip,Manhattan,Chinatown,40.71472,-73.99081,United States,US,False,flexible,Entire home/apt,2012,$384 ,$77 ,2,80,6/16/2019,2.04,3,1.0,397,This is not a party building. It is quiet and peaceful. Anyone who is looking to party/smoke should look elsewhere.,
48129647,"One train ride to Times SQ, Central Park, LOCATION",548848159,verified,Gabi,Manhattan,East Harlem,40.79456,-73.94345,United States,US,True,strict,Entire home/apt,2010,$990 ,$198 ,2,139,6/19/2019,3.6,5,3.0,413,"No Smoking, No additional guests,",
48130200,Sun kissed 1br Harlem (WHOLE apt),297005403,verified,Nkem,Manhattan,Harlem,40.825790000000005,-73.94324,United States,US,False,flexible,Entire home/apt,2019,$890 ,$178 ,1,3,5/29/2016,0.08,1,1.0,407,No Smoking,
48130752,Cozy 2Bed in Hell's Kitchen,30082678766,verified,Maggie,Manhattan,Hell's Kitchen,40.763040000000004,-73.99166,United States,US,False,moderate,Entire home/apt,2020,$72 ,$14 ,1,0,,,5,1.0,184,,
48131304,Sunny Quiet Bedroom in Brooklyn,25032494468,unconfirmed,David,Brooklyn,South Slope,40.66768,-73.98425,United States,US,False,strict,Private room,2008,$846 ,$169 ,3,27,5/20/2019,0.71,2,2.0,80,#NAME?,
48131857,Sunny room in 3 bedroom apt.,23619447367,unconfirmed,Grace,Brooklyn,Gowanus,40.684740000000005,-73.98862,United States,US,False,strict,Private room,2021,"$1,079 ",$216 ,1,1,5/15/2016,0.03,3,1.0,155,,
48132409,"2 bed, 2 bath near parks, subway",87621019934,unconfirmed,Heidi,Manhattan,Upper West Side,40.7992,-73.97158,United States,US,True,flexible,Entire home/apt,2008,$220 ,$44 ,5,3,6/29/2018,0.09,3,1.0,246,"Please no parties,  and no loud noise past 11p, out of respect for the neighbors.  Please no smoking in the building.  If you cook or otherwise eat in the apartment, please reasonably clean up after yourself.",
48132961,Ft Green Sunlit 1 Bedroom Apartment,69837727538,unconfirmed,Kali,Brooklyn,Fort Greene,40.68521,-73.97131,United States,US,True,moderate,Entire home/apt,2022,"$1,060 ",$212 ,2,68,6/23/2019,1.74,5,1.0,225,No Smoking No Pets,
48133513,amazing studio in heart of Manhatta,86348552871,unconfirmed,Nassim,Manhattan,Murray Hill,40.74893,-73.97036999999999,United States,US,True,strict,Entire home/apt,2014,$485 ,$97 ,1,3,4/19/2017,0.09,3,1.0,296,No pets allowed (sadly!) and no smoking allowed.,
48134066,Traveller's Flat – Hell's Kitchen,68329671318,verified,Marco,Manhattan,Hell's Kitchen,40.76386,-73.99707,United States,US,True,moderate,Entire home/apt,2014,$856 ,$171 ,4,104,6/23/2019,2.7,2,2.0,8,"Enjoy your stay in our home, simply be respectful of our neighbors, no smoking and no pet allowed.",
48134618,Stunning Central Park - 1BR,15936476646,verified,Martin,Manhattan,Harlem,40.80057,-73.9556,United States,US,False,strict,Private room,2014,$79 ,$16 ,3,44,5/26/2019,1.15,1,1.0,369,"Just be cool, we love our home and love our neighborhood - we're thrilled to have the opportunity to share it with you.",
48135170,Fun room in East Village,92417065628,verified,Atlanta,Manhattan,East Village,40.724140000000006,-73.9801,United States,US,False,moderate,Private room,2020,"$1,067 ",$213 ,2,3,5/31/2016,0.08,4,1.0,26,"I am opening my home to responsible renter(s) who are  looking for hotel alternative. I have consideration for your privacy and comfort and expect the same from you. Interaction can be as little or as much as you desire.  Smoking is allowed on Patio.  Basically, there are few house rules. Dog limited to owners bedroom and downstairs common space and patio.  Oh, did i mention there is a hot tub on the  patio, clocking in at 101 degrees.  Feel free to ask Boston question as I have about 40 years experience here.   ",
48135723,Sunny and Beautiful UWS 1BDRM,64546874690,verified,Alexis,Manhattan,Upper West Side,40.77775,-73.98169,United States,US,True,flexible,Entire home/apt,2007,$443 ,$89 ,2,5,11/18/2016,0.13,4,1.0,236,,
48136275,Sunny & Stylish 2BR in Williamsburg,31921334444,verified,Aunim,Brooklyn,Williamsburg,40.71774,-73.95466,United States,US,True,strict,Entire home/apt,2013,$325 ,$65 ,2,17,9/3/2017,0.44,2,1.0,104,No Smoking,
48136827,Sunny Room in NYC,35879549074,verified,Adrien,Manhattan,Chinatown,40.7133,-73.9956,United States,US,False,moderate,Private room,2015,$396 ,$79 ,3,1,5/20/2016,0.03,2,1.0,277,No Smoking No Pets,
48137380,Luxury studio heart of Manhattan,43454181663,verified,Grace.EJ,Manhattan,Upper West Side,40.775040000000004,-73.9896,United States,US,True,moderate,Entire home/apt,2016,$826 ,$165 ,1,0,,,4,1.0,-5,,
48137932,"High-end, garden view, near Prospect Park",94542467276,unconfirmed,Benjamin,Brooklyn,Prospect Heights,40.67631,-73.96635,United States,US,False,strict,Entire home/apt,2005,$763 ,$153 ,30,1,8/14/2018,0.09,3,21.0,128,"Thank you for your reservation. By placing your reservation online you indicated that you accepted the terms and conditions which have been printed below.  Please review your reservation summary as below - then print, sign and return the agreement to:  (EMAIL HIDDEN) or fax it to (PHONE NUMBER HIDDEN) or  mail it to: Spare Suite, Inc., 119 Braintree Street, Suite 510, Boston, MA 02134, USA Upon receipt, we will send you the welcome document with check in instructions and how to get your keys. ------------------------------------------------------------------------ ------------------------------------------------------------------------ Terms of the Agreement: BOOKING AND REFUND POLICY Once booked your reservation is guaranteed for the check in and check out times and dates specified. All reservations must be paid in advance, in full for the entire period of stay.  All reservations are final, and NON REFUNDABLE UNDER ANY CIRCUMSTANCES.  If you feel you may need to cancel once booked, yo",
48138484,Cozy East Village Apartment,45734692631,unconfirmed,Katherine,Manhattan,East Village,40.72952,-73.98214,United States,US,False,flexible,Private room,2021,$96 ,$19 ,1,4,7/31/2017,0.16,1,1.0,210,,
48139036,Great UWS 1 bedroom duplex,26267302232,unconfirmed,Sarah,Manhattan,Upper West Side,40.77835,-73.97655,United States,US,False,strict,Entire home/apt,2006,$502 ,$100 ,3,5,5/29/2016,0.13,4,1.0,141,,
48139589,Cozy Cat Cave in Bushwick,4302090817,verified,Samantha,Brooklyn,Bedford-Stuyvesant,40.696870000000004,-73.93542,United States,US,True,flexible,Private room,2012,$661 ,$132 ,1,0,,,5,1.0,287,No Smoking No Pets,
48140141,Private room in apt,58519400207,unconfirmed,Kaylin,Manhattan,Gramercy,40.736309999999996,-73.98525,United States,US,True,flexible,Private room,2004,$439 ,$88 ,7,0,,,4,1.0,96,100% smoke free. Quiet hours in this building are from 10pm-6am.  Garbage is collected by the city of Boston on Tuesday and Friday mornings and must be placed outside in designated area for pick up.,
48140693,QUEEN-SIZED ROOM IN LUXURIOUS PARK AVENUE FLAT,78383155828,verified,H,Manhattan,Murray Hill,40.7493,-73.9794,United States,US,False,flexible,Private room,2016,$493 ,$99 ,1,17,12/10/2017,0.44,3,2.0,355,To treat the place with utmost respect.,
48141246,Cozy private room with city charm,19860238640,unconfirmed,Ellen,Manhattan,Washington Heights,40.84659,-73.93252,United States,US,False,moderate,Private room,2018,$506 ,$101 ,5,11,8/22/2017,0.31,4,2.0,80,,
48141798,Charming 1 bedroom East Village Apt,16467579338,verified,Eli,Manhattan,East Village,40.72804,-73.98867,United States,US,False,moderate,Entire home/apt,2005,"$1,081 ",$216 ,5,12,4/26/2019,0.31,1,1.0,105,"- No smoking / pets / shoes (inside) - Please use coasters on any wooden or lacquer surfaces  - No groups of guests - Please pick up after yourself. Dishes in the dishwasher, etc. - Only registered guests may stay overnight. Also, I try to be as green as possible: - Heat and AC should be used sparingly, when needed - Recycling is co-mingled (makes it much easier) - Compost (of non-animal products) - Please turn lights off when you are not using them",
48142350,Sunny apt w/HUGE terrace & rooftop,27812240849,verified,Sara,Brooklyn,Williamsburg,40.711729999999996,-73.96646,United States,US,True,strict,Entire home/apt,2019,$142 ,$28 ,4,79,6/18/2019,2.21,3,1.0,257,just respect people in the other 5 apartments.,
48142903,旅途中的家,77408061023,verified,Mabel,Queens,Flushing,40.765640000000005,-73.82043,United States,US,False,flexible,Private room,2010,$113 ,$23 ,1,122,6/24/2019,3.16,2,1.0,202,No smoking!  Please be respectful of our neighbors and keep noise to a minimum.  Voices and music outside carry far.,
48143455,The Sunset Boudoir,35692864719,verified,Candi,Manhattan,Upper East Side,40.7842,-73.95105,United States,US,False,flexible,Entire home/apt,2018,$657 ,$131 ,1,0,,,1,1.0,213,"The art is for your enjoyment.  Please do not touch or move anything. Please make up beds with fresh linens and wash towels and linens before you leave.  Leave house broom clean.  Dishes should be washed and put away. Sorry, no pets and no smoking.  There are age restrictions for guests.",
48144007,Brooklyn bedroom near Prospect Park & subway,84303954060,unconfirmed,Joe,Brooklyn,Prospect-Lefferts Gardens,40.6613,-73.96193000000001,United States,US,False,flexible,Private room,2003,$236 ,$47 ,1,70,7/22/2018,1.79,5,2.0,88,,
48144559,Spacious Room with Private a Patio!,53022940457,verified,Paulette,Brooklyn,Bedford-Stuyvesant,40.683609999999994,-73.93845,United States,US,False,strict,Private room,2006,$605 ,$121 ,2,34,9/27/2017,0.88,1,1.0,198,No Smoking  No Parties No Excess Noise - We have neighbors in the building.,
48145112,Bright Airy Cozy Spacious Bedroom,62963855586,unconfirmed,Elika,Manhattan,Hell's Kitchen,40.76093,-73.99014,United States,US,False,moderate,Private room,2004,$320 ,$64 ,5,8,7/31/2017,0.21,1,1.0,281,"Guests are required to take their shoes off in the house (we have slippers for all), and to be respectful of the home.",
48145664,Sunny room with great transit,61114949479,unconfirmed,Rachel,Queens,Jackson Heights,40.750690000000006,-73.89475999999999,United States,US,True,flexible,Private room,2007,$438 ,$88 ,2,26,3/31/2019,0.78,2,1.0,38,"We do not permit smoking, pets or parties. Thank you!",
48146216,H. Potter theme place,89151346166,verified,Yunqiu,Manhattan,Upper West Side,40.803020000000004,-73.96511,United States,US,False,moderate,Entire home/apt,2016,$85 ,$17 ,10,0,,,1,2.0,306,This is a quiet building with great neighbors so please treat it with respect when late at night.  This is our 2nd home so please treat it like your own and leave it like you found it.  No Smoking (other than on the deck) and no pets please. Thanks!,
48146769,Private Room in Beautiful Apartment,97762842881,unconfirmed,Kiri,Brooklyn,Greenpoint,40.72619,-73.95563,United States,US,False,moderate,Private room,2011,"$1,197 ",$239 ,3,2,1/2/2017,0.06,1,1.0,177,,
48147321,Manhattan Club Penthouse Suite,34897196818,verified,Mario,Manhattan,Midtown,40.7659,-73.98210999999999,United States,US,True,flexible,Entire home/apt,2013,"$1,010 ",$202 ,1,0,,,4,1.0,400,Please respect the residents by keeping noise down and absolutely no smoking.  There is no bag storage at the building.  Please do not ask the concierges.  Thank you.,
48147873,Zen Artist Village Studio,41495889121,verified,Zach,Manhattan,Greenwich Village,40.73372,-73.99834,United States,US,True,flexible,Entire home/apt,2006,$131 ,$26 ,3,60,6/23/2019,1.54,2,1.0,411,"No smokers, please.  ",
48148426,Sunny studio loft in midtown with elevator!,10519711629,verified,Nathan,Manhattan,Midtown,40.75914,-73.96591,United States,US,True,moderate,Entire home/apt,2014,$774 ,$155 ,29,53,4/30/2019,1.4,5,1.0,37,Please be respectful of our belongings and leave things as your found them.,
48148978,Bright & Sunny Greenpoint Studio,44781170705,verified,Brendon,Brooklyn,Greenpoint,40.7369,-73.95288000000001,United States,US,True,flexible,Entire home/apt,2018,$624 ,$125 ,4,4,5/9/2017,0.1,4,1.0,49,,
48149530,1/2 block to Central Park - W 84th Street,14952888828,unconfirmed,Susan,Manhattan,Upper West Side,40.78475,-73.9717,United States,US,False,strict,Entire home/apt,2018,$557 ,$111 ,30,3,10/15/2018,0.09,1,1.0,53,No Smoking No Pets,
48150082,Entire Home in NYC- 1 bedroom/ Private Entrance,24663415589,unconfirmed,Yahaira,Bronx,Allerton,40.86947,-73.85993,United States,US,False,flexible,Entire home/apt,2011,$346 ,$69 ,2,33,6/12/2019,0.85,4,5.0,207,No smoking in condo or hallways of building.  No parties.  Well-behaved pets OK.  Quiet and respectful of our neighbors.,
48150635,"Large, beautiful 1 bedroom downtown Manhattan",38095176710,unconfirmed,Cristina,Manhattan,Chinatown,40.7164,-73.99743000000001,United States,US,True,moderate,Entire home/apt,2006,$987 ,$197 ,30,4,6/24/2018,0.11,1,1.0,290,No Smoking No Pets,
48151187,Fully Furnished Williamsburg Apt,53912030944,unconfirmed,Courtney,Brooklyn,Williamsburg,40.711999999999996,-73.94609,United States,US,True,strict,Private room,2004,"$1,114 ",$223 ,1,0,,,4,1.0,312,"Please be respectful of our neighbors and keep voices, music, etc at a reasonable volume.  Please be tidy and take good care of our home. No shoes on the area rug, be neat with food and drink.",
48151739,Clean and safe department in NYC.,88517979906,verified,Baochan,Manhattan,Upper West Side,40.8015,-73.96605,United States,US,True,moderate,Private room,2003,$390 ,$78 ,3,1,7/16/2016,0.03,3,1.0,170,We want you to treat our home as your own.  We have a few house rules- -Extra visitors and overnight guests are not allowed. - No pets -No smoking -Cooking facilities are not available -Minimum 2 night stay,
48152292,New Apt. in Park Slope / Gowanus,55061075227,unconfirmed,J. E,Brooklyn,Gowanus,40.667,-73.99233000000001,United States,US,True,flexible,Entire home/apt,2016,"$1,114 ",$223 ,1,378,7/7/2019,9.67,2,1.0,35,,
48152844,Charming Brooklyn Brownstone!,8694929449,unconfirmed,Joel,Brooklyn,Prospect Heights,40.67908,-73.97333,United States,US,True,flexible,Private room,2021,$791 ,$158 ,1,0,,,4,1.0,207,You can use our home as you would like us to use yours. We invite you to use our kitchen as you please. We would love to come home to our apartment in the manner we will leave it for you: clean and ready to use.,
48153396,Upper West Side 1 bedroom,6707295288,unconfirmed,Lindsey,Manhattan,Upper West Side,40.78406,-73.98431,United States,US,True,strict,Entire home/apt,2003,$859 ,$172 ,1,0,,,3,1.0,298,#NAME?,
48153949,"Convenient Room, at the Center of Manhattan Living",18529106566,verified,MaTT,Manhattan,Little Italy,40.719409999999996,-73.99706,United States,US,True,flexible,Private room,2010,$107 ,$21 ,5,26,5/6/2019,0.67,2,2.0,308,We live in a quiet neighborhood with respectful neighbors and we ask that you show them the same respect.  No unreasonable noise after 11pm - no smoking - no parties.,
48154501,Williamsburg/GreenPoint Room,52413150408,unconfirmed,Carlos Esteban,Brooklyn,Greenpoint,40.72191,-73.94405,United States,US,False,flexible,Private room,2005,$736 ,$147 ,1,2,5/8/2016,0.05,4,1.0,276,No smoking or parties. Please be courteous of my cordial neighbors.,
48155053,Historic Harlem 4,46085785518,verified,Rose,Manhattan,Harlem,40.816140000000004,-73.94429000000001,United States,US,True,strict,Private room,2003,$914 ,$183 ,6,8,12/25/2018,0.22,3,2.0,145,No Smoking No Pets,
48155605,Upper West Side Manhattan Comfort 1,75077948427,verified,Felipe,Manhattan,Upper West Side,40.78461,-73.97787,United States,US,False,flexible,Private room,2019,$223 ,$45 ,30,4,3/17/2019,0.17,1,3.0,170,,
48156158,Private-cozy Brooklyn Apt. Room,95239056409,verified,Juan,Brooklyn,Bedford-Stuyvesant,40.6851,-73.94793,United States,US,False,moderate,Private room,2011,$819 ,$164 ,3,26,10/14/2018,0.68,2,1.0,157,"House Rules 1. Check-in is 4 pm local time. If the unit is ready earlier, we’ll let you know. Check-out is normally 11 am local time, but we’d be happy to extend it as long as we don’t have a cleaning scheduled. Just let us know.  2. All bookings require a security deposit of at least $300, which will be refunded within 7 days of your check-out. 3. For security measures we require all guests to provide proof of identification through ID verification on our own website. In order to check in we'll need a photo of your ID.  4. Our cancellation policy is as shown on our ad and defined by the site you are booking through.  5. Don’t let $300 go up in smoke. There's no smoking allowed in any Flatbook and a $300 fine for breaking this rule.  6. Unfortunately we don’t allow pets in any of our apartments. 7. Unless you’re staying in one of our specialty apartments, we don’t allow parties or excessive noise. 8. If we find the place very messy, we have to charge an extra $40 for every extra hour o",
48156710,Upper East Side Room,71822690273,verified,Christa,Manhattan,East Harlem,40.788090000000004,-73.95333000000001,United States,US,True,moderate,Private room,2013,$485 ,$97 ,1,3,5/20/2016,0.08,1,1.0,363,#NAME?,
48157262,On Central Park West,48357911804,unconfirmed,John 'Lance',Manhattan,Upper West Side,40.799040000000005,-73.96045,United States,US,False,strict,Private room,2009,"$1,188 ",$238 ,4,7,12/30/2017,0.23,1,1.0,219,"Be kind, courteous, just as how you would want to be treated. No overnight guests or loud noises at night as it is a building full of young professionals.",
48157815,Sunny Two Bedroom in South Slope,47991096276,verified,Fiona,Brooklyn,Sunset Park,40.66127,-73.99154,United States,US,False,flexible,Entire home/apt,2003,$879 ,$176 ,7,0,,,1,1.0,150,"For instant book, only 4 or less guests. Otherwise send me a message, and we can chat about it. Smoking allowed on balcony or roof deck.",
48158367,Luxury townhouse Greenwich Village,56580835968,unconfirmed,Linda,Manhattan,Greenwich Village,40.73046,-73.99562,United States,US,False,flexible,Entire home/apt,2003,$291 ,$58 ,1,0,,,1,1.0,110,,
48158919,Cozy Apartment in Queens — 20 Min to Manhattan,5133067090,unconfirmed,Katie,Queens,Ridgewood,40.7003,-73.89983000000001,United States,US,False,strict,Private room,2006,$267 ,$53 ,2,0,,,2,1.0,418,"No pets, no smoking, no more than 6 guests. We welcome families traveling for pleasure.  No corporate customers. 2 nights minimum.",
48159472,GREAT STUDIO IN HEART OF EAST VILLAGE!,17413772216,verified,Tom,Manhattan,East Village,40.726259999999996,-73.9894,United States,US,True,moderate,Entire home/apt,2009,"$1,048 ",$210 ,4,3,5/29/2017,0.08,1,1.0,204,"No smoking in apartment, in building or within 50 feet of entrance.  No pets.  Quiet and respectful of our neighbors.",
48160024,"Clean Cozy Room, close to Subway Shops Restaurants",6426221393,verified,Hua,Queens,Forest Hills,40.71915,-73.84397,United States,US,False,flexible,Private room,2016,$283 ,$57 ,2,29,6/10/2019,0.77,5,1.0,126,"Ideally a person that is respectful of my home , non smokers and no parties",
48160576,Spacious Williamsburg Apartment,60066823730,unconfirmed,Josh,Brooklyn,Williamsburg,40.71513,-73.94848,United States,US,False,strict,Private room,2021,"$1,068 ",$214 ,2,1,5/1/2016,0.03,4,1.0,214,,
48161128,Spacious  Room in Downtown Brooklyn,58892558020,unconfirmed,Dhruti,Brooklyn,Downtown Brooklyn,40.69531,-73.98306,United States,US,False,strict,Private room,2021,$286 ,$57 ,5,0,,,4,1.0,270,"No smoking. Please do not use the fireplace. The porch is a lot fo fun, but make sure to keep Volume down after 11pm as neighbors can hear everything.",
48161681,LUX One Bedroom Doorman W&D 5133,41497246873,verified,Jeremy & Laura,Manhattan,Upper West Side,40.79433,-73.96518,United States,US,True,flexible,Entire home/apt,2019,"$1,071 ",$214 ,30,1,11/27/2018,0.13,1,96.0,358,No Smoking.,
48162233,Sunny & Luxurious West Village Apartment!,70701543849,unconfirmed,Mila & Jon,Manhattan,West Village,40.72981,-74.00348000000001,United States,US,False,strict,Entire home/apt,2009,"$1,096 ",$219 ,6,37,6/23/2019,0.94,5,1.0,255,,
48162785,CoZy RooM & Private Bathroom BK:) SUPERHOST :),76443427310,unconfirmed,Jasmin,Brooklyn,Bushwick,40.69758,-73.93493000000001,United States,US,False,strict,Private room,2015,$825 ,$165 ,2,93,6/18/2019,2.39,5,5.0,134,NO Smoking. Pets allow -- Breed Restrictions Apply.,
48163338,Great Location,2336444891,verified,Linda,Brooklyn,Prospect Heights,40.67947,-73.96466,United States,US,False,moderate,Private room,2016,"$1,001 ",$200 ,2,172,6/24/2019,4.5,1,1.0,62,No Smoking,
48163890,20 Day Room Rental in Manhattan!!,18139618291,unconfirmed,Indigo,Manhattan,Harlem,40.81498,-73.95078000000001,United States,US,True,flexible,Private room,2021,$768 ,$154 ,20,0,,,5,1.0,315,,
48164442,1BR in Midtown West Apartment,59418256354,verified,Peter,Manhattan,Hell's Kitchen,40.76148,-73.99489,United States,US,True,moderate,Private room,2008,"$1,028 ",$206 ,1,0,,,2,1.0,251,,
48164995,Cute and cosy one bedroom,24218883472,verified,Zineb,Manhattan,Upper East Side,40.78093,-73.95175,United States,US,True,moderate,Private room,2012,$485 ,$97 ,1,9,10/8/2016,0.23,5,1.0,63,"No smoking, pets or permitted",
48165547,2 BDRM Apt. in the Middle of NYC apt. 3B,2078969598,verified,Nina,Manhattan,Murray Hill,40.7493,-73.98132,United States,US,False,strict,Entire home/apt,2012,$653 ,$131 ,30,5,3/9/2019,0.14,5,14.0,167,,
48166099,Near Times Square,28929415177,verified,Michael,Manhattan,Hell's Kitchen,40.76231,-73.9952,United States,US,False,flexible,Entire home/apt,2013,$652 ,$130 ,4,128,7/7/2019,3.39,5,1.0,99,,
48166651,Huge 800 sq ft 1 bedroom apt,11080876913,verified,Janelle,Queens,Sunnyside,40.74706,-73.92076,United States,US,False,flexible,Entire home/apt,2016,"$1,020 ",$204 ,1,1,5/10/2016,0.03,1,1.0,111,,
48167204,Sunny Williamsburg Sublet,91392418944,verified,Greta,Brooklyn,Williamsburg,40.71183,-73.94918,United States,US,False,strict,Private room,2015,"$1,158 ",$232 ,1,0,,,1,1.0,37,,
48167756,A cozy home,84499719211,unconfirmed,常春,Manhattan,Washington Heights,40.83271,-73.94006999999999,United States,US,False,flexible,Private room,2012,$918 ,$184 ,1,5,4/1/2018,0.13,5,3.0,86,,
48168308,Beautiful Sunlight Studio Apt,61822628048,verified,Christie,Brooklyn,Bedford-Stuyvesant,40.69175,-73.95554,United States,US,False,moderate,Entire home/apt,2007,$356 ,$71 ,7,4,4/7/2018,0.12,5,1.0,242,No Smoking.  No Pets.,
48168861,"Prime, Modern & Spacious Williamsburg Apartment",29692028118,unconfirmed,Jay,Brooklyn,Williamsburg,40.714859999999994,-73.94826,United States,US,True,flexible,Private room,2009,$139 ,$28 ,60,0,,,1,2.0,54,"1. Please keep a quiet environment 2. I want friendly guests. Please be friendly to each other or other tenants and help me to manage situations easily.  3. No smoking in the room; smoking should be outside of the building 4. No pets 5. Fire pre-cauction by using kitchen; If cooking food, leaving kitchen with interruption should be less than one minute. There was a tenant in 6 weeks, cooking food and leaving kitchen for more than 30 minutes and forgot to turn off switch 3 times. One year it will have 25 times forgoting to turn off fire switch. Two tenants will be 50 times in one year. It will cause fire. This behavior is not acceptable. To cook food without a person in the kitchen is not acceptable. 6. Becareful of clots in the pipe for bathroom and kitchen. Don't remove the bathroom filter when taking shower. Flush the toilet by holding the switch for 4-5 seconds for full flush. You may flush the toilet first; when there is no clots, you can use. Please don't dump food in the kitchen ",
48169413,Spacious Bedroom on Eastern Parkway,51910501387,verified,Rebecca,Brooklyn,Crown Heights,40.67045,-73.95895,United States,US,True,strict,Private room,2013,"$1,186 ",$237 ,1,1,5/17/2016,0.03,4,1.0,192,No Smoking.  No Pets.,
48169965,Big 1BR apt near Central Park & Times Square!,79296535808,unconfirmed,Abe & Gail,Manhattan,Midtown,40.76589,-73.98068,United States,US,False,strict,Entire home/apt,2018,"$1,122 ",$224 ,2,1,6/25/2016,0.03,2,1.0,190,NO Smoking.  Pets permitted with fee.,
48170518,One Bedroom Wall St Luxury Apt,92792913913,verified,Mency,Manhattan,Financial District,40.70592,-74.00928,United States,US,False,strict,Private room,2016,$556 ,$111 ,3,3,8/26/2016,0.09,3,1.0,383,No smoking and no pets.,
48171070,Sunny Bedroom w/ Private Bathroom in Williamsburg,62329337375,unconfirmed,Monica,Brooklyn,Williamsburg,40.71353,-73.95260999999999,United States,US,False,moderate,Private room,2016,"$1,118 ",$224 ,2,15,6/16/2019,1.05,1,1.0,15,NO Smoking. Pets allowed with non-refundable pet fee.,
48171622,Manhattan Sunny Private Room,40111850427,verified,Grant,Manhattan,Harlem,40.82356,-73.95456999999999,United States,US,False,moderate,Private room,2004,$650 ,$130 ,5,8,1/5/2017,0.23,2,1.0,151,No Smoking,
48172174,Lovely flat heart of New-York,92446024890,unconfirmed,Chloé Et Jean-Philippe,Manhattan,Hell's Kitchen,40.76253,-73.98939,United States,US,False,strict,Entire home/apt,2014,$391 ,$78 ,2,0,,,3,1.0,89,No Smoking,
48172727,Studio Apt with Private Backyard,14571227122,unconfirmed,Joe,Brooklyn,Bedford-Stuyvesant,40.697559999999996,-73.93893,United States,US,True,strict,Entire home/apt,2018,$464 ,$93 ,21,0,,,1,1.0,424,,
48173279,Luxury 2BR Midtown East-Near UN!,35610812747,verified,Laura,Manhattan,Midtown,40.75207,-73.97351,United States,US,False,flexible,Entire home/apt,2004,$906 ,$181 ,2,5,5/5/2019,0.15,4,3.0,329,,
48173831,BK'S FINEST CLOSE 2 TRANSPORTATION-,57019459679,verified,Joyell,Brooklyn,Bushwick,40.694520000000004,-73.92806999999999,United States,US,False,moderate,Private room,2005,$166 ,$33 ,1,72,6/9/2018,1.88,2,7.0,274,,
48174384,"Private Bedroom, Bath & Living room",17112135054,verified,Neil,Brooklyn,Bedford-Stuyvesant,40.68288,-73.93526,United States,US,True,strict,Private room,2010,"$1,194 ",$239 ,2,1,6/1/2016,0.03,3,1.0,178,,
48174936,Sunny Studio Apartment in Ridgewood,22250842901,verified,Michael,Queens,Ridgewood,40.70005,-73.8952,United States,US,True,flexible,Entire home/apt,2018,$320 ,$64 ,1,5,8/7/2017,0.21,5,1.0,265,"Thank you for your reservation. By placing your reservation online you indicated that you accepted the terms and conditions which have been printed below.  Please review your reservation summary as below - then print, sign and return the agreement to:  (EMAIL HIDDEN) or fax it to (PHONE NUMBER HIDDEN) or  mail it to: Spare Suite, Inc., 119 Braintree Street, Suite 510, Boston, MA 02134, USA Upon receipt, we will send you the welcome document with check in instructions and how to get your keys. ------------------------------------------------------------------------ ------------------------------------------------------------------------ Terms of the Agreement: BOOKING AND REFUND POLICY Once booked your reservation is guaranteed for the check in and check out times and dates specified. All reservations must be paid in advance, in full for the entire period of stay.  All reservations are final, and NON REFUNDABLE UNDER ANY CIRCUMSTANCES.  If you feel you may need to cancel once booked, yo",
48175488,1BR. SugarHill. 15 Min Midtown.,66795348250,unconfirmed,Joe,Manhattan,Harlem,40.82302,-73.94476999999999,United States,US,True,flexible,Entire home/apt,2013,$256 ,$51 ,1,0,,,5,1.0,413,"Sorry, no smoking and no pets.",
48176041,QUIET CLEAN APT IN THE HEART OF IT ALL 4,34218540349,verified,Jc,Manhattan,Chelsea,40.74137,-74.00399,United States,US,False,strict,Entire home/apt,2004,$139 ,$28 ,4,49,6/26/2019,1.31,5,2.0,154,"No smoking, pets, overnight guests or loud noise.",
48176593,Stunning Bedroom in Midtown East,97441736648,verified,Athena,Manhattan,Midtown,40.757090000000005,-73.96327,United States,US,True,flexible,Private room,2021,$184 ,$37 ,3,98,7/3/2019,2.66,1,1.0,262,• Check-in time is 3PM.,
48177145,"Penthouse 2BR w skylight,terrace, and a roof deck.",88358161256,unconfirmed,Diane And Ward,Manhattan,Upper East Side,40.76532,-73.9615,United States,US,False,strict,Entire home/apt,2014,$428 ,$86 ,4,55,6/17/2019,1.47,3,2.0,272,,
48177697,"Lrg sunny aprtmt, UWS/Central Park",58605496831,unconfirmed,Jamie (& Jacob),Manhattan,Upper West Side,40.79865,-73.96419,United States,US,False,flexible,Entire home/apt,2018,$122 ,$24 ,4,12,12/26/2017,0.31,5,1.0,194,"Please be respectful of everything in our apartment. This is our primary residence, so please treat our home like it were your own! Thank you!",
48178250,High Rise Financial District Apt,82468422564,unconfirmed,Amy,Manhattan,Financial District,40.70666,-74.00529,United States,US,True,moderate,Private room,2020,$869 ,$174 ,1,0,,,4,1.0,141,,
48178802,Beautiful spacious brownstone in Central Harlem,20683863968,unconfirmed,Razia,Manhattan,Harlem,40.80276,-73.94976,United States,US,True,moderate,Entire home/apt,2016,$458 ,$92 ,28,53,3/3/2019,1.4,3,2.0,124,,
48179354,Modern & cosy Bronx apt w/ parking,17701214116,unconfirmed,Lydie,Bronx,Wakefield,40.89118,-73.84987,United States,US,False,strict,Entire home/apt,2006,$432 ,$86 ,3,68,4/30/2019,1.78,4,1.0,26,"-No smoking -No local guests -If you use the kitchen, please clean up after yourself. -I will leave maps/guides for your reference, but please do not remove anything from my home. -If you have any questions, please call or text me (phone number hidden). -Most importantly, enjoy yourself!",
48179907,2 bed apt: heart of Times Square,40651801930,unconfirmed,Gillian,Manhattan,Hell's Kitchen,40.75756,-73.99318000000001,United States,US,True,moderate,Entire home/apt,2014,$631 ,$126 ,1,0,,,5,1.0,199,"House Rules 1. Check-in is 4 pm local time. If the unit is ready earlier, we’ll let you know. Check-out is normally 11 am local time, but we’d be happy to extend it as long as we don’t have a cleaning scheduled. Just let us know.  2. All bookings require a security deposit of at least $300, which will be refunded within 7 days of your check-out. 3. For security measures we require all guests to provide proof of identification through ID verification on our own website. In order to check in we'll need a photo of your ID.  4. Our cancellation policy is as shown on our ad and defined by the site you are booking through.  5. Don’t let $300 go up in smoke. There's no smoking allowed in any Flatbook and a $300 fine for breaking this rule.  6. Unfortunately we don’t allow pets in any of our apartments. 7. Unless you’re staying in one of our specialty apartments, we don’t allow parties or excessive noise. 8. If we find the place very messy, we have to charge an extra $40 for every extra hour o",
48180459,Lovely Bed-Stuy Brownstone Parlor Apartment 1BR,94558975650,unconfirmed,Caleb,Brooklyn,Bedford-Stuyvesant,40.69065,-73.93708000000001,United States,US,False,moderate,Entire home/apt,2007,$845 ,$169 ,5,3,9/15/2017,0.12,3,1.0,355,"Please Note: This unit was just renovated last year and it comfortably accommodates 4 guests, but up to 5 guests are permitted if you so desire (two guests in each bedroom and 1 guest on the available twin size air mattress). Please request an air mattress (if needed) when making a reservation. No smoking, no pets, no parties, and must be 25 years old to book.   For check-out, please ensure: -  All plates and cups are left in the sink or dishwasher -  All trash is left in the kitchen trash can or bagged and left next to the trash can (additional bags are under the sink) -  All windows are closed and locked -  If used, the air mattresses are deflated and put away (please leave used linens for the air mattresses on the floor) -  If furniture was moved during your stay, please return to its original location Please be mindful to our neighbors in the building; quiet hours after 10pm. Please be considerate of our next guests who will be staying after you, if something is broken or needs fix",
48181011,Bedstuy Flat Sublet    3 WEEK MIN,36409154448,unconfirmed,Mathew,Brooklyn,Bedford-Stuyvesant,40.68459,-73.94993000000001,United States,US,False,strict,Entire home/apt,2014,$265 ,$53 ,1,0,,,3,1.0,320,No smoking. No parties. Respectful of property :),
48181564,Nice bedroom in east village apartment,60452763931,unconfirmed,Phil,Manhattan,East Village,40.72997,-73.98009,United States,US,True,strict,Private room,2015,$437 ,$87 ,3,50,6/23/2019,1.31,1,1.0,164,No Smoking  No Pets,
48182116,Private bedroom near L & M trains,56232404667,unconfirmed,Gary,Brooklyn,Bushwick,40.700759999999995,-73.92371,United States,US,False,moderate,Private room,2021,$530 ,$106 ,1,0,,,3,1.0,369,"House Rules 1. Check-in is 4 pm local time. If the unit is ready earlier, we’ll let you know. Check-out is normally 11 am local time, but we’d be happy to extend it as long as we don’t have a cleaning scheduled. Just let us know.  2. All bookings require a security deposit of at least $300, which will be refunded within 7 days of your check-out. 3. For security measures we require all guests to provide proof of identification through ID verification on our own website. In order to check in we'll need a photo of your ID.  4. Our cancellation policy is as shown on our ad and defined by the site you are booking through.  5. Don’t let $300 go up in smoke. There's no smoking allowed in any Flatbook and a $300 fine for breaking this rule.  6. Unfortunately we don’t allow pets in any of our apartments. 7. Unless you’re staying in one of our specialty apartments, we don’t allow parties or excessive noise. 8. If we find the place very messy, we have to charge an extra $40 for every extra hour o",
48182668,"West village, great location!",32158303844,verified,Anne,Manhattan,West Village,40.73764,-74.00146,United States,US,True,flexible,Entire home/apt,2016,"$1,169 ",$234 ,2,1,5/18/2016,0.03,1,1.0,319,No Smoking  No Pets,
48183220,Large 1bdr perfect Village location,7364831937,unconfirmed,Emory,Manhattan,Greenwich Village,40.734320000000004,-73.9972,United States,US,True,flexible,Entire home/apt,2012,$959 ,$192 ,2,75,6/2/2019,1.93,4,1.0,272,No Smoking  No Pets,
48183773,Sunny Private Bedroom in Park Slope,56723917389,unconfirmed,Maya,Brooklyn,South Slope,40.66383,-73.98252,United States,US,True,moderate,Private room,2022,$961 ,$192 ,1,0,,,4,1.0,153,No Smoking  No Pets,
48184325,Large room in Astoria home,26814187787,unconfirmed,Rina,Queens,Astoria,40.7704,-73.91701,United States,US,False,strict,Private room,2012,$734 ,$147 ,2,11,11/25/2017,0.29,2,1.0,61,"Please Note: This unit was just renovated last year and it comfortably accommodates 6 guests, but up to 7 guests are permitted if you so desire (two guests in each bedroom and 1 or 2 guests on the available queen size air mattress). Please request an air mattress (if needed) when making a reservation. No smoking, no pets, no parties, and must be 25 years old to book.   For check-out, please ensure: -  All plates and cups are left in the sink or dishwasher -  All trash is left in the kitchen trash can or bagged and left next to the trash can (additional bags are under the sink) -  All windows are closed and locked -  If used, the air mattresses are deflated and put away (please leave used linens for the air mattresses on the floor) -  If furniture was moved during your stay, please return to its original location Please be mindful to our neighbors in the building; quiet hours after 10pm. Please be considerate of our next guests who will be staying after you, if something is broken or ne",
48184877,"1 Bedroom, Close to 4, 5, 6 trains",32848503509,unconfirmed,Anna,Manhattan,East Harlem,40.80015,-73.93764,United States,US,True,moderate,Private room,2006,$454 ,$91 ,1,137,6/30/2019,3.55,4,2.0,84,"House Rules 1. All bookings made at least a week before check in are fully refundable if cancelled within 24 hours of booking. After this, you will receive a 50% refund if you cancel at least 7 days before the start of your trip. 2. Check-in time is any time after 4 pm local time. If the unit is ready earlier, we’ll let you know. Check-out is normally 11 am local time, but we’d be happy to extend it as long as we don’t have a cleaning scheduled. Just let us know.  3. All bookings require a security deposit of at least $300. 4. For security measures we require all guests to provide proof of identification through ID verification on our own website. In order to check in, we'll need a photo of your ID.  5. Don’t let $300 go up in smoke. There's no smoking allowed in any Flatbook and a $300 fine for breaking this rule.  6. Unfortunately we don’t allow pets in most of our apartments. 7. Unless you’re staying in one of our specialty apartments, we don’t allow parties or excessive noise. 8. I",
48185430,Historic Gem Close to SI Ferry,32936236714,verified,Natalia,Staten Island,Clifton,40.623490000000004,-74.07596,United States,US,False,flexible,Entire home/apt,2010,$153 ,$31 ,1,108,6/20/2019,2.78,5,1.0,357,No Smoking  No Pets,
48185982,FANTASTIC FLOOR THROUGH ONE BEDROOM,9512376966,verified,Ronald,Manhattan,Midtown,40.755,-73.96670999999999,United States,US,False,moderate,Entire home/apt,2014,$637 ,$127 ,5,69,6/30/2019,1.81,3,2.0,130,,
48186534,Greenwich village West 4th Street,84010080715,verified,Takagi,Manhattan,West Village,40.733259999999994,-74.00186,United States,US,False,flexible,Entire home/apt,2004,$292 ,$58 ,1,0,,,2,1.0,417,,
48187087,Airy Apt w/ Balcony by Central Park,60322036503,unconfirmed,Madeleine,Manhattan,Upper West Side,40.78434,-73.97867,United States,US,True,flexible,Entire home/apt,2007,$171 ,$34 ,2,154,5/31/2019,4.02,2,1.0,385,"The building has a very strict no smoking policy, please do not smoke in the apartment.  Our neighbors are very conservative, please be respectful, and discreet. No grilling is allowed on the roof.",
48187639,Spacious Loft in Williamsburg,9172566941,verified,Christopher,Brooklyn,Williamsburg,40.71468,-73.95841,United States,US,True,strict,Private room,2015,$924 ,$185 ,2,2,5/21/2018,0.14,2,1.0,78,,
48188191,Brooklyn Beauty - Private Room,18981384757,unconfirmed,Xiomara,Brooklyn,Bushwick,40.686009999999996,-73.91167,United States,US,False,moderate,Private room,2014,$888 ,$178 ,3,76,6/25/2019,1.98,4,1.0,374,,
48188743,Sunny Duplex in Brooklyn's Best Area,39829527003,unconfirmed,Viviana,Brooklyn,South Slope,40.66872,-73.98906,United States,US,False,strict,Entire home/apt,2005,"$1,194 ",$239 ,3,30,6/10/2019,0.79,1,3.0,181,,
48189296,"Private room in Charming, Cozy and Sunny Apt",75212610947,verified,Pillo,Brooklyn,Clinton Hill,40.68374,-73.96719,United States,US,True,moderate,Private room,2003,$921 ,$184 ,1,67,6/22/2019,1.85,1,1.0,364,,
48189848,2 Bedroom next to Prospect Park!,34659754862,verified,Elizabeth,Brooklyn,Prospect-Lefferts Gardens,40.65785,-73.96068000000001,United States,US,True,moderate,Entire home/apt,2006,$974 ,$195 ,1,4,5/22/2016,0.1,2,1.0,91,,
48190400,Lovely apartment as home,50629934495,verified,Cindy,Queens,Flushing,40.72635,-73.80237,United States,US,True,moderate,Entire home/apt,2015,$977 ,$195 ,1,229,6/24/2019,5.97,4,1.0,34,,
48190953,"Modern, Central Park relaxation",86871701753,unconfirmed,David,Manhattan,Upper West Side,40.7998,-73.96098,United States,US,False,strict,Entire home/apt,2003,$743 ,$149 ,30,18,9/30/2018,0.47,3,10.0,285,I expect you to keep the apartment picked up and left how it was when you arrived.,
48191505,1BR Avaliable in 3Br Condo,13387133438,unconfirmed,Kaan,Manhattan,Harlem,40.824709999999996,-73.94332,United States,US,False,moderate,Private room,2021,"$1,009 ",$202 ,4,27,7/1/2019,0.75,1,2.0,415,1. No house parties 2. Do not damage any of the furniture or appliances.  3. Do not take anything that has been provided for your comfort and enjoyment.  4. Enjoy yourself! And please reach out if you have any questions or concerns.,
48192057,UWS Duplex 3bdrm next to Central Pk,14220653782,verified,Amy,Manhattan,Upper West Side,40.79895,-73.95949,United States,US,True,strict,Entire home/apt,2018,$423 ,$85 ,30,4,12/22/2018,0.1,1,12.0,208,"Please remember that this is a residential building. The building rules, apartment occupancy restrictions and the year-round tenants must be respected.  Parties, pets and smoking are not allowed under any circumstances and incur significant fees.",
48192610,Spacious 4bdrm next to CentralPk,56941588908,unconfirmed,Amy,Manhattan,Upper West Side,40.7986,-73.96229,United States,US,True,flexible,Entire home/apt,2022,$817 ,$163 ,30,4,1/9/2019,0.15,2,12.0,105,,
48193162,Luminous room,56446526503,verified,Julian,Queens,Astoria,40.76494,-73.92752,United States,US,True,moderate,Private room,2004,$62 ,$12 ,4,28,1/3/2019,0.74,3,2.0,397,No smoking. Please be respectful of our neighbors.,
48193714,Shared Bedroom in Upper East Side!,75189153207,unconfirmed,Jackie,Manhattan,Upper East Side,40.78305,-73.95381,United States,US,True,flexible,Shared room,2015,$788 ,$158 ,1,3,5/19/2016,0.08,1,3.0,34,"6 nights minimum stay No pets at any time No smoking Please be mindful of the furniture and personal belongings, it was all furnished with designer pieces and hard to replace things.",
48194266,Sunny light filled comfy bedroom,44929540687,unconfirmed,Randy,Manhattan,East Harlem,40.80118,-73.94513,United States,US,True,moderate,Private room,2015,$171 ,$34 ,3,86,6/16/2019,2.28,4,2.0,23,No smoking or pets allowed,
48194819,"Astoria living, like a true NY'er",60618746364,unconfirmed,Seth,Queens,Astoria,40.76465,-73.92625,United States,US,False,flexible,Entire home/apt,2012,"$1,082 ",$216 ,1,10,7/11/2016,0.26,5,1.0,272,,
48195371,Sunny light filled bedroom,40264108941,verified,Randy,Manhattan,East Harlem,40.80073,-73.94465,United States,US,True,strict,Private room,2021,$173 ,$35 ,3,89,6/5/2019,2.37,1,2.0,200,,
48195923,Magical 1 BR in Crown Heights,36777922986,verified,Jacob,Brooklyn,Crown Heights,40.67426,-73.93968000000001,United States,US,True,strict,Entire home/apt,2010,$304 ,$61 ,2,2,6/4/2016,0.05,4,1.0,39,,
48196476,Violet Sunset Room,4607809449,unconfirmed,Clarissa,Brooklyn,Bedford-Stuyvesant,40.686009999999996,-73.91771999999999,United States,US,True,strict,Private room,2019,$512 ,$102 ,2,71,6/30/2019,1.84,3,2.0,422,,
48197028,Cozy little room in beautiful brownstone house !,53050487166,verified,Jeanne,Brooklyn,Bedford-Stuyvesant,40.692209999999996,-73.93823,United States,US,False,flexible,Private room,2013,$489 ,$98 ,20,19,8/31/2018,0.56,4,1.0,358,No smoking or pets,
48197580,A top floor in Midtown,55628631473,verified,Ronald,Manhattan,Midtown,40.75369,-73.96632,United States,US,True,flexible,Entire home/apt,2003,$98 ,$20 ,5,81,6/29/2019,2.1,5,2.0,314,,
48198133,SPACIOUS 2 BR APT WITH PRIVATE BACKYARD,58473987283,unconfirmed,Inna,Manhattan,East Harlem,40.7888,-73.94247,United States,US,False,flexible,Entire home/apt,2018,$885 ,$177 ,30,13,1/24/2019,0.37,1,16.0,137,#NAME?,
48198685,"Large, next to park, subway gardens",33553464799,unconfirmed,Brian,Brooklyn,Prospect-Lefferts Gardens,40.66223,-73.95955,United States,US,True,moderate,Private room,2009,$958 ,$192 ,2,2,1/1/2017,0.06,1,1.0,265,"House rules: Guests agree to the following terms and conditions 1.Guest(s) agree to NO PARTIES anywhere on the property. Legal action will be taken for parties that cause damages to the unit, property, reputation, or relationship with building staff or other residents.  2.Smoking of any kind is not permitted in the unit or on the premises.  3.Guests agree to abide by maximum occupancy of unit, and observe quiet hours between 9pm and 9am 4.Guests are responsible for action of ALL GUESTS occupying their unit at all times.  5.Guests agree to return all keys, remotes, and parking passes. Replacement fees may apply for unreturned items 6.Guests understand that onsite building staff (maintenance and concierge) are not affiliated with Jordan or AIRBNB. Please contact me directly for any needed items. 7.Guests understand that no pets are to be in the unit.  8.Guests agree to pay replacement cost for any unreturned items, and $125 per hour fee for unauthorized early checkin or late checkout.  13",
48199237,Comfy in Queens!,13642996515,unconfirmed,Laura,Queens,Astoria,40.76188,-73.91766,United States,US,False,flexible,Private room,2006,$128 ,$26 ,3,3,8/24/2016,0.08,3,2.0,169,No smoking and no parties.,
48199789,"Styled, Spacious Ft Greene Studio",15429274611,verified,Emily,Brooklyn,Fort Greene,40.68672,-73.97555,United States,US,False,flexible,Entire home/apt,2006,$374 ,$75 ,2,7,5/15/2017,0.19,4,1.0,228,"No smoking, no pets. Please keep the noise at a respectful level at all times - *particularly after 10pm (as other units in the building are owner-occupied). Please treat it as though it were your own home.",
48200342,Quiet-Private Large Brooklyn Studio,41308709680,verified,Ron,Brooklyn,Kensington,40.63568,-73.97383,United States,US,True,moderate,Entire home/apt,2010,$544 ,$109 ,2,10,5/27/2019,0.26,3,1.0,89,No smoking. Not pets/animals. No parties or events. No entertaining beyond confirmed booked guests.,
48200894,"Clean, Mod & Quick to Times Square",81960694166,verified,Ronald,Manhattan,Harlem,40.812509999999996,-73.95411999999999,United States,US,True,strict,Private room,2005,$499 ,$100 ,7,0,,,3,1.0,275,,
48201446,1 Block from Times Sq. and Broadway,26650510959,verified,Joei,Manhattan,Hell's Kitchen,40.76192,-73.98817,United States,US,False,moderate,Entire home/apt,2004,"$1,177 ",$235 ,2,150,6/24/2019,4.06,5,1.0,243,"Absolutely no smoking, no pets, parties or excessive noise in the apartment.  This is a quiet residential building, perfect for travelers wanting a quiet refuge at the end of a fun filled day in Greater Boston.",
48201999,Your SUNNYROOM 15mnts to Manhattan!,94106066848,verified,Penélope,Queens,Sunnyside,40.74431,-73.92024,United States,US,False,flexible,Private room,2006,$154 ,$31 ,2,105,6/30/2019,2.72,4,1.0,71,"House rules: Guests agree to the following terms and conditions 1.Guest(s) agree to NO PARTIES anywhere on the property. Legal action will be taken for parties that cause damages to the unit, property, reputation, or relationship with building staff or other residents.  2.Smoking of any kind is not permitted in the unit or on the premises.  3.Guests agree to abide by maximum occupancy of unit, and observe quiet hours between 9pm and 9am 4.Guests are responsible for action of ALL GUESTS occupying their unit at all times.  5.Guests agree to return all keys, remotes, and parking passes. Replacement fees may apply for unreturned items 6.Guests understand that onsite building staff (maintenance and concierge) are not affiliated with Jordan or AIRBNB. Please contact me directly for any needed items. 7.Guests understand that no pets are to be in the unit.  8.Guests agree to pay replacement cost for any unreturned items, and $125 per hour fee for unauthorized early checkin or late checkout.  13",
48202551,Sun-drenched Park Slope Studio,27615960012,verified,Megan,Brooklyn,Park Slope,40.67776,-73.9743,United States,US,True,flexible,Entire home/apt,2019,$450 ,$90 ,4,33,6/15/2019,0.87,3,1.0,37,"Please remember that this is a residential building. The building rules, apartment occupancy restrictions and the year-round tenants must be respected.",
48203103,Pull-out Sofa in Central Harlem,84112547515,verified,J,Manhattan,Harlem,40.81027,-73.9408,United States,US,True,flexible,Shared room,2016,"$1,137 ",$227 ,4,47,6/9/2019,1.22,1,2.0,362,"No smoking, no parties, no pets.",
48203656,Rest and Relax,29386033593,unconfirmed,Natalie,Manhattan,Harlem,40.82458,-73.95175,United States,US,False,moderate,Private room,2011,"$1,088 ",$218 ,3,49,6/21/2019,1.26,5,1.0,419,"Please remember that this is a residential building. The building rules, apartment occupancy restrictions and the year-round tenants must be respected.  Parties, pets and smoking are not allowed under any circumstances and incur significant fees.",
48204208,"XL room in artists' home, Flatbush/Ditmas Park",54245731550,verified,Liz,Brooklyn,Flatbush,40.64966,-73.96459,United States,US,True,strict,Private room,2022,"$1,179 ",$236 ,3,5,7/29/2017,0.19,2,1.0,382,No Smoking,
48204760,Private oasis in Hamilton Heights.,9648780388,verified,Sandra,Manhattan,Harlem,40.828590000000005,-73.9497,United States,US,False,moderate,Private room,2017,$349 ,$70 ,1,0,,,1,1.0,169,"House rules: Guests agree to the following terms and conditions 1.Guest(s) agree to NO PARTIES anywhere on the property. Legal action will be taken for parties that cause damages to the unit, property, reputation, or relationship with building staff or other residents.  2.Smoking of any kind is not permitted in the unit or on the premises.  3.Guests agree to abide by maximum occupancy of unit, and observe quiet hours between 9pm and 9am 4.Guests are responsible for action of ALL GUESTS occupying their unit at all times.  5.Guests agree to return all keys, remotes, and parking passes. Replacement fees may apply for unreturned items 6.Guests understand that onsite building staff (maintenance and concierge) are not affiliated with Jordan or AIRBNB. Please contact me directly for any needed items. 7.Guests understand that no pets are to be in the unit.  8.Guests agree to pay replacement cost for any unreturned items, and $125 per hour fee for unauthorized early checkin or late checkout.  13",
48205312,Private room for sublet,9324695047,unconfirmed,Alice,Brooklyn,Bushwick,40.69285,-73.92703,United States,US,False,strict,Private room,2007,$313 ,$63 ,12,0,,,1,1.0,271,No Smoking,
48205865,Gorgeous Harlem 1br best location,29728583671,verified,Noreen,Manhattan,Harlem,40.80854,-73.94305,United States,US,True,strict,Entire home/apt,2004,$656 ,$131 ,7,1,1/7/2017,0.03,5,1.0,410,,
48206417,Private room for 2  NY Close to LGA No hidden fees,29341557401,unconfirmed,Dante,Queens,Jackson Heights,40.75123,-73.87993,United States,US,True,strict,Private room,2009,$173 ,$35 ,1,204,12/16/2018,5.27,5,2.0,24,ABSOLUTELY NO SMOKING.,
48206969,NEW! American Private Cozy Room,90645503750,verified,Anton,Brooklyn,Bedford-Stuyvesant,40.68634,-73.94414,United States,US,True,flexible,Private room,2019,$237 ,$47 ,3,0,,,3,1.0,346,"House Rules 1. Check-in is 4 pm local time. If the unit is ready earlier, we’ll let you know. Check-out is normally 11 am local time, but we’d be happy to extend it as long as we don’t have a cleaning scheduled. Just let us know.  2. All bookings require a security deposit of at least $300, which will be refunded within 7 days of your check-out. 3. For security measures we require all guests to provide proof of identification through ID verification on our own website. In order to check in we'll need a photo of your ID.  4. Our cancellation policy is as shown on our ad and defined by the site you are booking through.  5. Don’t let $300 go up in smoke. There's no smoking allowed in any Flatbook and a $300 fine for breaking this rule.  6. Unfortunately we don’t allow pets in any of our apartments. 7. Unless you’re staying in one of our specialty apartments, we don’t allow parties or excessive noise. 8. If we find the place very messy, we have to charge an extra $40 for every extra hour o",
48207522,APT in LES with view,95130221333,verified,Michael,Manhattan,Lower East Side,40.71412,-73.98984,United States,US,True,flexible,Entire home/apt,2016,$648 ,$130 ,6,5,1/3/2019,0.13,5,1.0,165,,
48208074,"Huge,  Sunny,  Good Vibes Authentic Artist's LOFT",53064972806,unconfirmed,Kimberly,Brooklyn,Bedford-Stuyvesant,40.69508,-73.95952,United States,US,True,moderate,Entire home/apt,2011,$526 ,$105 ,4,82,1/26/2019,2.22,3,1.0,332,No party No alcohol,
48208626,Cozy Sunny room,94735512074,verified,Marilyn,Queens,Ridgewood,40.70595,-73.90871,United States,US,False,moderate,Private room,2004,$766 ,$153 ,5,0,,,3,1.0,175,"Please remember that this is a residential building. The building rules, apartment occupancy restrictions and the year-round tenants must be respected.",
48209179,Park Slope Gem,31496862105,verified,Cristina,Brooklyn,Park Slope,40.674659999999996,-73.97711,United States,US,False,moderate,Entire home/apt,2008,$642 ,$128 ,3,0,,,3,1.0,349,No smoking or partying.,
