id,NAME,host id,host_identity_verified,host name,neighbourhood group,neighbourhood,lat,long,country,country code,instant_bookable,cancellation_policy,room type,Construction year,price,service fee,minimum nights,number of reviews,last review,reviews per month,review rate number,calculated host listings count,availability 365,house_rules,license
15416366,Spacious Split Level  Apartment,58452180498,unconfirmed,Maggy,Brooklyn,Flatlands,40.62365,-73.93171,United States,US,False,strict,Entire home/apt,2008,"$1,111 ",$222 ,3,17.0,7/1/2019,1.64,2,1,89,"--The building has 5 units in total and all other units are occupied by year-round young professionals who work at the local hospitals, law firms, consulting companies and University professors.  Please be mindful of them and act as you would with your year-round neighbors. Please keep quiet, clean and respectful at all hours. --Absolutely NO SMOKING, of any kind, in the apartment or the building's stoop. There is a park with benches across the street if you must have a smoke.",
15416918,House of Moon Dog,51067100586,unconfirmed,Eli,Brooklyn,Bushwick,40.696529999999996,-73.91492,United States,US,True,flexible,Private room,2009,$538 ,$108 ,3,29.0,6/24/2019,1.3,2,1,63,"Please no parties, guests, and loud noise past 11p out of respect for neighbors and my roommates. Please no smoking inside the building. If you cook or otherwise eat in the apartment, please reasonably clean up after yourself.",
15417471,Private Room in Trendy Williamsburg Loft,82005406740,verified,Sam,Brooklyn,Williamsburg,40.71591,-73.95513000000001,United States,US,False,moderate,Private room,2004,$694 ,$139 ,4,56.0,6/20/2019,2.53,3,4,8,Please tidy up and leave place clean. Dishes are to be placed in dishwasher and cleaned. Laundry to be placed in washer and turned on before leaving.,
15418023,Room o4,47917256829,verified,Justine,Bronx,University Heights,40.85751,-73.90805,United States,US,True,flexible,Private room,2005,$109 ,$22 ,3,12.0,5/26/2019,0.54,5,5,365,Quiet building,
15418575,"Cute, airy attic room",36626367864,unconfirmed,Frankie,Brooklyn,Bedford-Stuyvesant,40.69332,-73.95085,United States,US,True,moderate,Private room,2003,$522 ,$104 ,1,1.0,9/21/2017,0.05,3,2,0,Sorry No Smoking  Sorry No Pets This is an elegant property for those who appreciate a quiet environment. Our property has no elevator and because of its historic nature is not Handicap Accessible.,
15419128,Cozy Room in a Friendly House CLOSE TO SUBWAY,57652063634,verified,Lise,Queens,Woodhaven,40.69621,-73.8502,United States,US,True,strict,Private room,2016,$51 ,$10 ,2,8.0,5/19/2019,0.51,3,2,96,"Events and parties YES...   but NON SMOKERS only and this is a ""quiet"" house -- so no bachelor parties, or large graduation parties.    Check out is at 11am.      The apartment is completely private as is the patio...   The laundry room and mail room are both off the common foyer..    Your private foyer is down a flight of stairs leading to your apartment an the mechanical room.   Please keep (SENSITIVE CONTENTS HIDDEN) TV, HULU,  Blu Ray DVD and music at a reasonable level between 7am and 11pm.      Maximum of two guests.   It's not possible to bring in an air mattress.   Sleeping in a car in the parking space is also not possible.     -- No smoking, pets, or (loud) parties.  158 is a Quiet building w Quiet Zones.. suitable for professionals, work at home, study, research.  There are events at Christmas and occasional meet-and-greets -- scheduled in the afternoon and early evening -- late night entertainment is easy at Sister Sorel, or 647 Tremont just steps away -- some restaurant's ",
15419680,Cozy & Charming Uptown NYC Bedroom Near Subway,44920577576,unconfirmed,Carla,Manhattan,Harlem,40.818670000000004,-73.95293000000001,United States,US,True,moderate,Private room,2008,$587 ,$117 ,2,80.0,4/21/2019,3.6,3,1,0,No Smoking No Pets,
15420232,My Little Cottage,75184425423,unconfirmed,Kimberly,Queens,Corona,40.75015,-73.85961,United States,US,False,flexible,Entire home/apt,2006,$254 ,$51 ,2,166.0,7/7/2019,7.5,4,2,140,This is a family property with an 86 year old living in the 2nd floor unit. I live in the first floor unit. This home is not suitable for party people etc.  This is also a no smoking home both inside the house and on the front steps.,
15420784,"2 bed, 2 full bath quaint street in Brooklyn",54034477772,unconfirmed,Sabrina,Brooklyn,Boerum Hill,40.68592,-73.98181,United States,US,False,moderate,Entire home/apt,2004,"$1,179 ",$236 ,1,7.0,12/16/2018,0.43,3,1,129,,
15421337,"Sunny, Happy Space in Manhattan!",43247842857,verified,Melissa,Manhattan,Washington Heights,40.84381,-73.9385,United States,US,True,strict,Entire home/apt,2007,$79 ,$16 ,2,4.0,5/20/2018,0.19,4,1,0,"There are only a few rules: 1. Take good care of yourself, any visitors, and the place 2. Absolutely no smoking permitted on the premises including the outside space. The smoke detectors are hard wired and cannot be disabled. 3. Four guest maximum 4. Check in is at 3 pm.  Check out is at 11 am.  The apartment is usually occupied so a late check out or early check in is usually not possible.  There is also no capacity for luggage storage. 5. This apartment is not a party venue.   6. The private park is bordered by the homes of dozens of residents and all sounds echo in this space so please be respectful about noise. 7. Please refer to the ""house manual"" on the Airbnb site for any questions you may have about the apartment 8. If you turn something on i.e. heated towel rack, warming lights, etc,  please make sure to turn it back off.  9. There is usually no one available to accept deliveries and items left at the door are often taken so please no deliveries of packages, fruit, flowers, et",
15421889,The Penthouse,91365624727,unconfirmed,Eric,Manhattan,East Harlem,40.79398,-73.94159,United States,US,True,moderate,Entire home/apt,2013,$215 ,$43 ,2,14.0,6/2/2019,0.91,3,1,179,This is the house where I live all year around; please be respectful of the place as if it was yours and leave it as you found it upon arrival.,
15422441,Sunny apartment in the heart of trendy Greenpoint,80905359810,unconfirmed,Chris,Brooklyn,Greenpoint,40.72917,-73.95130999999999,United States,US,False,flexible,Entire home/apt,2006,$909 ,$182 ,30,44.0,5/25/2019,2.07,5,1,205,No smoking. No loud music.  Please leave the place as you found it!   Put your dirty linens in the laundry basket and please be respectful of our neighbors.   Please run the dishwasher with your dirty dishes when you leave.   Please do not put the trash out on curb or the trash cans in the back yard. Our cleaning person will remove the trash from the unit.  Do tie up any trash bags if there are food items in the garbage though.,
15422994,PRISTINE STUDIO IN THE HEART OF THE E.  VILLAGE,58269311632,unconfirmed,Luz,Manhattan,East Village,40.72945,-73.97986999999999,United States,US,False,flexible,Entire home/apt,2022,$257 ,$51 ,30,136.0,5/24/2019,6.18,2,1,291,,
15423546,Lo Studio/15 min central park/wifi+ street parking,38074239392,unconfirmed,Ez,Queens,Astoria,40.76064,-73.92481,United States,US,False,moderate,Entire home/apt,2015,$490 ,$98 ,30,48.0,6/23/2019,2.97,3,5,217,"We're happy to be flexible with check-in and check-out times, so let us know what you need.  We expect guests to be courteous and respectful, and we will do the same.   We like to coordinate schedules for the bathroom on weekday mornings - we're both typically out of the house by 9am.   Since it is a small space that we share, please let us know in advance if you would like to have any visitors.  No need to wash your sheets or towels when you leave - we're happy to handle that for you! Please alert us immediately to any damage. Thank you!",
15424098,HI END LIVING IN UES LUXURY CONDOS-EAST 80TH ST,31860659869,unconfirmed,Rated,Manhattan,Upper East Side,40.771229999999996,-73.95040999999999,United States,US,True,strict,Entire home/apt,2007,"$1,021 ",$204 ,30,0.0,,,5,33,284,"We require a signed lease as soon as we accept your request. No smoking, no pets, no parties. We strive to maintain a quiet, professional community. Two week minimum stay. Two occupants maximum per apartment. No Sunday checkins and no check in after 6:30 pm",
15424651,Suite Di CLASSE East village-free Str.parking+wifi,87494239092,verified,Ez,Manhattan,East Village,40.73105,-73.98195,United States,US,True,flexible,Entire home/apt,2016,$88 ,$18 ,30,48.0,6/24/2019,3.03,5,5,199,"Guests must be quiet and clean adults,all the other apartments in the building are leased long term to working professionals. No students. The welcome/ check-in letter will be forwarded to you several days before your check in date.",
15425203,Sublet for Oct (Phone number hidden by Airbnb) utilities included,85259696598,unconfirmed,Jeanette,Queens,Ridgewood,40.7025,-73.90985,United States,US,False,moderate,Private room,2010,$995 ,$199 ,1,0.0,,,3,1,0,No Smoking No Pets,
15425755,Small Bedroom in Dreamy Brownstone,97912249662,verified,Brielle,Brooklyn,Williamsburg,40.71353,-73.96453000000001,United States,US,True,strict,Private room,2007,$318 ,$64 ,3,1.0,3/16/2018,0.06,2,1,0,"There is a gas grill on the roof, but unfortunately, we cannot allow guests to use it due to safety concerns. Please make sure to close the door to the roof when not in use.",
15426307,SUPER LUXURY FOR 2 IN FINANCIAL DISTRICT,2971960773,verified,,Manhattan,Financial District,40.708490000000005,-74.01486,United States,US,True,flexible,Entire home/apt,2018,$206 ,$41 ,30,0.0,,,5,33,329,#NAME?,
15426860,The ocean view room size 12x14,42382464488,verified,,Brooklyn,Crown Heights,40.67139,-73.93131,United States,US,False,flexible,Private room,2020,$709 ,$142 ,5,11.0,1/1/2019,0.6,2,7,278,#NAME?,
15427412,"Harlem intimate room,20 min to Time Square,by Park",26609643546,unconfirmed,,Manhattan,Harlem,40.806709999999995,-73.95382,United States,US,False,flexible,Private room,2016,$357 ,$71 ,3,5.0,5/8/2018,0.23,3,2,89,This is a residential property and quiet is maintained.  Absolutely zero smoking on or close to the property.  Be respectful and kind.,
15427964,Midtown Apt. with a great view and everything near,94222479880,unconfirmed,,Manhattan,Hell's Kitchen,40.76697,-73.99134000000001,United States,US,True,moderate,Private room,2006,"$1,006 ",$201 ,1,74.0,1/15/2019,3.32,2,1,157,,
15428517,3 Bedroom in Great Midtown Location,37055957011,verified,Deo,Manhattan,Midtown,40.761140000000005,-73.97596,United States,US,False,strict,Entire home/apt,2007,$630 ,$126 ,30,1.0,12/18/2018,0.15,2,4,151,This is a residential property and quiet is maintained.   Absolutely zero smoking on or close to the property.  Be respectful and kind.,
15429069,Cozy room in lovely apartment close to subway,35400524239,unconfirmed,Farrel,Bronx,Claremont Village,40.835,-73.91114,United States,US,False,moderate,Private room,2022,$427 ,$85 ,4,30.0,7/7/2019,1.38,5,2,179,,
15429621,cozy & clean room in the Bronx,67564544303,unconfirmed,Bonissat,Bronx,Concourse,40.83497,-73.9189,United States,US,False,moderate,Private room,2012,$956 ,$191 ,7,32.0,6/25/2019,1.68,2,1,50,"No loud parties, no smoking",
15430174,Astoria apartment near Manhattan/LaGuardia,8022274491,unconfirmed,Zachary,Queens,Astoria,40.76271,-73.92213000000001,United States,US,False,moderate,Entire home/apt,2011,$363 ,$73 ,3,5.0,4/22/2019,0.23,5,1,0,A residential building. Quiet is important. No smoking. No Pets.,
15430726,The Peach Room,95808301670,verified,Denise,Brooklyn,Crown Heights,40.67302,-73.93143,United States,US,False,moderate,Private room,2013,$528 ,$106 ,4,17.0,6/9/2019,0.76,4,7,303,"We're always happy to welcome considerate and respectful guests into our home. To us this means picking up after yourself (dishes in the dishwasher, coats hung up), bringing your own food, enjoying our space quietly after 11PM, and letting us know what we can do to make your stay enjoyable. 1. Please make sure to keep your bedroom door and the door to the bathroom closed or our puppy will steal all of your socks/drag the toilet paper across the living room. 2. Feel free to use whatever you need:  -cups are in the cabinet to the right of the sink  -there are towels on your bed if you'd like to shower  -the roofdeck is a great place to unwind after traveling- just push up on the handle (it's a little heavy). -feel free to put food in the refrigerator. -there is tea in the cabinet to the right of the stove. 3. Shoes off in the house please. 4. We try to keep the living room and common areas free of ""stuff"" and there's a decent sized closet in your room, but if you need more space let us k",
15431278,Bright charming studio in quiet treelined Brooklyn,64867285226,unconfirmed,Rhianna,Brooklyn,Crown Heights,40.67064,-73.9476,United States,US,True,flexible,Private room,2022,$799 ,$160 ,4,2.0,10/1/2017,0.09,5,1,0,"Pets are allowed but no smoking inside the house. You're welcome to smoke outside. Quiet building overall, respect the other tenants and please no large parties.",
15431830,My studio,4765625152,unconfirmed,Rubén,Brooklyn,Williamsburg,40.70732,-73.94385,United States,US,True,flexible,Entire home/apt,2015,$972 ,$194 ,2,13.0,1/4/2019,0.59,2,1,6,"We kindly ask that you clean up after yourselves, especially in the kitchen. We will have someone clean the linens, the bathroom, and floors after your stay.",
15432383,CHARMING OLD WORLD FLAT - WEST VILLAGE NEAR SOHO,67061799867,unconfirmed,Juliana,Manhattan,West Village,40.73145,-74.00184,United States,US,True,strict,Private room,2022,"$1,189 ",$238 ,1,10.0,11/28/2017,0.47,2,1,0,respect others in the building,
15432935,"2017 Renovated Central Flushing, NYC法拉盛中心的新装修房Wifi",47278174741,unconfirmed,M,Queens,Flushing,40.75918,-73.82921999999999,United States,US,False,moderate,Entire home/apt,2015,$522 ,$104 ,3,22.0,4/15/2019,0.99,5,1,96,No more than 2 people. I have neighbors above and below and to each side. Please be respectful in avoiding noises that will disturb the neighbors.,
15433487,Apartment-Styled space in Queens. 10Min from JFK.,30926564721,verified,Daré,Queens,Rosedale,40.66183,-73.72943000000001,United States,US,False,flexible,Private room,2006,$199 ,$40 ,1,65.0,6/30/2019,2.92,3,2,84,No Smoking No Pets,
15434040,450sqft Studio Stunning Water Front Balcony View,40654015333,verified,Brandon,Queens,Ditmars Steinway,40.77691,-73.92662,United States,US,False,flexible,Entire home/apt,2013,$59 ,$12 ,3,6.0,6/21/2019,0.28,3,1,15,No Smoking No Pets,
15434592,Beautiful bright 1 bedroom in Greenwich Village,42937616465,unconfirmed,Cat,Manhattan,Greenwich Village,40.73127,-73.99939,United States,US,True,flexible,Entire home/apt,2021,$64 ,$13 ,1,1.0,9/21/2017,0.05,2,1,0,"•  Please respect the privacy of other residents of the building and keep the noise level down. •  No parties, no outside visitors, no overnight guests without previous approval from your host. •  No Smoking. •  No Pets. •  Please do not drink the host's alcohol. •  Use of any rooftop grill is prohibited. •  Do not engage in any illegal activities anywhere on the property. •  If you break or damage something, please let me know and arrange for its replacement or repair. •  Return all keys / Leave them on the counter upon exit.",
15435144,Sunny & Stylish Room in lush apartment,48090605642,unconfirmed,Jae,Brooklyn,Williamsburg,40.71725,-73.9438,United States,US,False,flexible,Private room,2009,"$1,063 ",$213 ,5,15.0,8/23/2018,0.71,4,3,0,"Some of these rules may sound silly but they have been written because we have seen some silly behavior ; )  • Please only leave with what you came with. Our towels, sheets, shampoo, Q tips, cotton pads, cups, plates, decorative items, trash bags, toilet paper, TV remotes, etc are not parting gifts or favors : )  Use what you need while you are here and leave the rest behind please.  • We love a good party but not in our ABnB unit unless its discussed well in advance. Please no parties, gatherings or events over the registered number of guests! If you would like to have friends over for a gathering please let us know! We understand you are on vacation but ask that late night drunken excursions choose another property. We expect quiet hours after 10 PM and until 6:30 AM. We will commit to the same respect upstairs for you.  • Please come and go quietly. We will do the same. Although we do have 2 children and sometimes they ""forget"" to use their quiet voices.  • Please keep pass code and",
15435697,1 Bedroom in 2 bedroom Apartment,27016565812,unconfirmed,Mirko,Brooklyn,Flatbush,40.647059999999996,-73.96056999999999,United States,US,False,strict,Private room,2011,$286 ,$57 ,30,1.0,5/22/2019,0.63,2,1,0,"The whole PENTHOUSE is available for events your caterer or one I can recommend.   But with my permission read on AND  s.v.p. plan in advance.   It's a ""quiet house"" so events like small graduation parties, corporate parties, small meet and greets are examples of good ideas for the space.   Bachelor parties, weddings, grooms dinners are not possible.   Although it's a good space for the Bride and Groom to stay if you plan to hold your reception at nearby venus.   THAT SAID, it's also a Quiet Spot on a quiet street in an historic (1860) neighborhood, ideal for professionals ""working-out-of -the-house, for authors, photographers, graduate students who need to study, or for people attending or presenting at conferences.     Check out is at 11am.      The apartment is completely private as is the patio...   The laundry room and mail room are both off the common foyer..    Please keep  TV, HULU,  Blu Ray DVD and music at a reasonable level between 7am and 11pm.      Maximum of two guests.  ",
15436249,"Pretty 1 bedroom apt, Williamsburg/ Females only",80337341933,unconfirmed,Michelle,Brooklyn,Williamsburg,40.7069,-73.95371999999999,United States,US,True,moderate,Private room,2016,$160 ,$32 ,5,61.0,7/3/2019,2.84,2,1,53,,
15436801,Ocean Room at Great Location,83130628231,unconfirmed,Gulcin,Manhattan,Chinatown,40.713640000000005,-73.99153000000001,United States,US,True,flexible,Private room,2022,$826 ,$165 ,1,42.0,6/19/2019,1.91,3,4,257,,
15437353,"Homey Midtown East 1BR w/ Gym, Doorman, near the 6th street by Blueground",15555880318,verified,Blueground,Manhattan,Kips Bay,40.7451,-73.97915,United States,US,True,strict,Entire home/apt,2003,"$1,068 ",$214 ,30,0.0,,,5,232,156,#NAME?,
15437906,Entire Private Brownstone in Brooklyn,40052170491,unconfirmed,Sam,Brooklyn,Dyker Heights,40.624990000000004,-74.01684,United States,US,False,strict,Entire home/apt,2012,"$1,157 ",$231 ,1,69.0,6/29/2019,3.15,2,1,127,Smoking is forbidden in the apartment and on the rooftop.,
15438458,Cozy Room in Bushwick.,75698260845,verified,Kennedy,Brooklyn,Bushwick,40.69813,-73.91991,United States,US,True,moderate,Private room,2019,$303 ,$61 ,7,1.0,10/4/2017,0.05,4,1,0,"House Rules The house rules are an important part of staying in this condo.  You will be sharing a living space with other guests and a high level of consideration, respect, communication and tolerance is expected from you.  They are meant to make your stay more pleasant, to prevent conflicts and to protect the property of any damage.  If you feel there is something that needs to be addressed and that is not covered in these rules, please make sure you communicate that to the host. 1.  Toilet · The toilettes can only be used with the toilet paper provided.  Any other material disposed of will cause the plumbing system to back up and create drainage problems.  No tissues, cotton balls, tampons, Q-tips cotton swabs or any kind of sanitary products are allowed down the toilets.  · Any plumbing work due to clogged toilets will be charged to the guests. 2. Noise and Quiet Hours · Quiet hours are from 10pm until 7am.  During quiet hours radios and stereos may be played at a level not to be h",
15439010,Bright UES 1-BR. Walk to Central Park and museums,87787943748,verified,Jorge,Manhattan,Upper East Side,40.78539,-73.95056,United States,US,False,strict,Entire home/apt,2017,$948 ,$190 ,2,13.0,12/16/2018,0.69,3,1,0,,
15439563,INVITING BRIGHT & STYLISH STUDIO,7597648630,unconfirmed,Stephon,Brooklyn,Bedford-Stuyvesant,40.683279999999996,-73.93719,United States,US,False,flexible,Entire home/apt,2018,$667 ,$133 ,2,20.0,2/15/2019,0.9,4,1,0,"No smoking allowed in property or on roof deck. No pets allowed.  Please be respectful of other neighbors who live in close proximity, especially when enjoying the roof deck.",
15440115,Charming Apartment on Central Park West!,10660338439,unconfirmed,Abigail,Manhattan,Upper West Side,40.78717,-73.96806,United States,US,True,flexible,Entire home/apt,2021,"$1,054 ",$211 ,1,24.0,5/2/2019,1.08,3,1,27,No Smoking No Pets,
15440667,Brand New Apt In A Beautiful Elevator Building,81277077882,verified,Ramonex,Manhattan,Harlem,40.81643,-73.94041999999999,United States,US,True,moderate,Private room,2009,$746 ,$149 ,3,,6/22/2019,3.8,2,1,205,,
15441220,Modern Loft overlooking McCarren Park,19678396408,unconfirmed,Dan,Brooklyn,Greenpoint,40.71986,-73.95344,United States,US,False,flexible,Entire home/apt,2013,$301 ,$60 ,6,0.0,,,2,1,0,"We require a signed lease as soon as we accept your request. No smoking, no pets, no parties. We strive to maintain a quiet, professional community. Two week minimum stay. Two occupants maximum per apartment. No Sunday checkins and no check in after 6:30 pm",
15441772,Sunny 1 bedroom apartment on quiet block,40395024537,verified,Fay,Brooklyn,Carroll Gardens,40.6802,-73.99739,United States,US,True,strict,Entire home/apt,2011,"$1,024 ",$205 ,1,117.0,7/6/2019,5.31,3,1,15,"House Rules The house rules are an important part of staying in this condo.  You will be sharing a living space with other guests and a high level of consideration, respect, communication and tolerance is expected from you.  They are meant to make your stay more pleasant, to prevent conflicts and to protect the property of any damage.  If you feel there is something that needs to be addressed and that is not covered in these rules, please make sure you communicate that to the host. 1.  Toilet · The toilettes can only be used with toilet paper provided.  Any other material disposed of will cause the plumbing system to back up and create drainage problems.  No tissues, cotton balls, tampons, Q-tips cotton swabs or any kind of sanitary products are allowed down the toilets.  · Any plumbing work due to clogged toilets will be charged to the guests. 2. Noise and Quiet Hours · Quiet hours are from 10pm until 7am.  During quiet hours radios and stereos may be played at a level not to be heard",
15442324,NYC private room in Private house|Mt Vernon area,7021188964,unconfirmed,Tunzil,Bronx,Wakefield,40.90356,-73.84172,United States,US,False,strict,Private room,2014,"$1,035 ",$207 ,1,11.0,6/10/2019,0.5,3,1,35,"For Your CarYup! IT'S JUST THE PARKING SPACE.  And it's reasonable but not FREE, and not even a bed is included.  No Queen No Real Bed, No Beds at all, but I don't care how few or how many people use the car you park in the space.   I'm writing to AIRBNB's Help Desk, to get them to add OTHER to their ""Room Type"" menu, and to add a choice of 0 beds to the pull down menus.     Parking in Boston's South End is more scarce than Penthouses or Hen's Teeth.  And parking per square foot rents for more than a square foot of air-mattress-for-a-night!  Go To https://www.airbnb.com/rooms/",
15442876,East Village Penthouse Terrace,40262467264,verified,Spiritt,Manhattan,East Village,40.72737,-73.98815,United States,US,False,moderate,Private room,2017,$484 ,$97 ,2,0.0,,,5,1,0,NO SMOKING IN OR OUT THE APARTMENT. please be aware of the Neighbors and respect their space and privacy as well. No free parking,
15443429,Brooklyn’s finest pt. Deux,10115289030,unconfirmed,Xie,Brooklyn,Canarsie,40.63295,-73.89202,United States,US,True,strict,Private room,2005,$971 ,$194 ,2,19.0,6/19/2019,1.23,3,3,331,#NAME?,
15443981,Restaurants- Nightlife-  Greenpoint - Williamsburg,35695325334,unconfirmed,Eric,Brooklyn,Greenpoint,40.723929999999996,-73.95347,United States,US,False,moderate,Entire home/apt,2013,$919 ,$184 ,2,0.0,,,5,2,0,Please no smoking and no parties! Hope you don't mind if we let you know if you are too loud.,
15444533,Bedford Bungalow  5  min cab from Williamsburg,38884848760,verified,Malcolm,Brooklyn,Bedford-Stuyvesant,40.69211,-73.95496,United States,US,True,flexible,Entire home/apt,2015,"$1,110 ",$222 ,1,61.0,6/19/2019,2.83,3,1,113,We just ask that you respect the other guests and residents in the building.,
15445086,Perfect one bedroom in midtown Manhattan,30751939137,verified,Stanley,Manhattan,Murray Hill,40.74814,-73.97554000000001,United States,US,True,flexible,Entire home/apt,2011,"$1,191 ",$238 ,30,1.0,8/11/2018,0.09,3,50,365,"House handbook sent prior to arrival but please be considerate with noise, smoking on roofdeck only and parties are not allowed...thank you!",
15445638,Two bedroom Beauty in midtown Manhattan,37119068338,verified,Stanley,Manhattan,Murray Hill,40.74844,-73.97694,United States,US,True,flexible,Entire home/apt,2014,$607 ,$121 ,30,1.0,8/19/2018,0.09,5,50,358,,
15446190,Nettie's Brooklyn Dream Space,28028770198,verified,Nikki,Brooklyn,Flatbush,40.64108,-73.96378,United States,US,True,strict,Private room,2014,"$1,076 ",$215 ,2,25.0,5/20/2019,1.16,5,4,0,**Complimentary breakfast is available only by request.,
15446743,Artist's Studio in historic Manhattan neighborhood,8457566728,verified,Christian,Manhattan,Upper East Side,40.77426,-73.94893,United States,US,True,flexible,Entire home/apt,2018,$212 ,$42 ,5,0.0,,,5,1,0,No Smoking No Pets,
15447295,Cozi property near Ocean,15122567009,unconfirmed,Alex,Brooklyn,Brighton Beach,40.58102,-73.95782,United States,US,True,moderate,Entire home/apt,2008,"$1,166 ",$233 ,2,2.0,6/2/2019,0.3,4,5,350,,
15447847,Fabulous Sun-kissed Room in Heart of Chelsea!,94102309727,verified,Jamal,Manhattan,Chelsea,40.74821,-74.0018,United States,US,False,strict,Private room,2013,$314 ,$63 ,1,17.0,8/31/2018,0.78,3,1,0,No Smoking No Pets,
15448399,"ROOM EN NEW YORK, MANHATTAN",41590461128,unconfirmed,Juan,Queens,Holliswood,40.71768,-73.77308000000001,United States,US,True,moderate,Private room,2015,$789 ,$158 ,3,0.0,,,3,1,363,No Smoking. No Pets.,
15448952,East Village Rooftop Oasis w/ Private Entrance!,12493720974,verified,Ryan,Manhattan,East Village,40.724109999999996,-73.97825999999999,United States,US,True,moderate,Private room,2013,$361 ,$72 ,3,103.0,7/1/2019,4.71,3,4,94,"Common sense rules. No smoking indoors. Be courteous to the neighbors.  Please respect the property, this is our home. If you intend to entertain more than 5 people at any point during your stay, please seek approval from me in advance of booking your stay. Please make sure the door is locked each time you leave the apartment. ",
15449504,Spacious Garden Apartment,27193015140,unconfirmed,Frederick,Brooklyn,Bushwick,40.69566,-73.91314,United States,US,False,flexible,Entire home/apt,2019,$373 ,$75 ,1,22.0,5/6/2018,1.01,4,1,0,"Iconic Boston Brownstone with amazing views, but no elevator. 3 flights of stairs up to the apartment, another set once in the unit up to the private roof deck. No smoking, no pets. My apartment is in a building with 2 other units, people who live there full time. Please be respectful of my neighbors and their privacy, no late night parties.  This is a quiet building.",
15450056,women only great place in Forest Hills NY,75592212693,unconfirmed,Liliana,Queens,Forest Hills,40.73715,-73.84792,United States,US,True,strict,Private room,2007,"$1,092 ",$218 ,5,18.0,6/3/2019,0.83,4,2,80,"Please smoke outside in the front of the building, no additional guests.",
15450609,Yankee Stadium Superhost! A 1BR/1BA City Escape!,54829488312,unconfirmed,Elliot,Bronx,Concourse Village,40.82638,-73.92225,United States,US,False,strict,Private room,2011,$655 ,$131 ,1,46.0,7/3/2019,2.16,2,1,46,"House Rules The house rules are an important part of staying in this condo.  You will be sharing a living space with other guests and a high level of consideration, respect, communication and tolerance is expected from you.  They are meant to make your stay more pleasant, to prevent conflicts and to protect the property of any damage.  If you feel there is something that needs to be addressed and that is not covered in these rules, please make sure you communicate that to the host. 1.  Toilet · The toilettes can only be used with toilet paper provided.  Any other material disposed of will cause the plumbing system to back up and create drainage problems.  No tissues, cotton balls, tampons, Q-tips cotton swabs or any kind of sanitary products are allowed down the toilets.  · Any plumbing work due to clogged toilets will be charged to the guests. 2. Noise and Quiet Hours · Quiet hours are from 10pm until 7am.  During quiet hours radios and stereos may be played at a level not to be heard",
15451161,Perrier Palace,18356389297,unconfirmed,Stephanie,Brooklyn,Bedford-Stuyvesant,40.69102,-73.94898,United States,US,False,flexible,Entire home/apt,2003,$512 ,$102 ,4,2.0,12/11/2017,0.09,2,1,0,,
15451713,"Bright Private room, perfect for fashion week!",30360902869,unconfirmed,Sean,Queens,Ridgewood,40.6988,-73.90725,United States,US,False,strict,Private room,2021,"$1,189 ",$238 ,2,0.0,,,5,1,0,We expect our guests to treat this condo as their home and to be respectful of our wonderful neighbors.   This property is entirely non-smoking (including outside on the patio or front stoop).  Pets are not allowed.  No guests or parties.,
15452266,Private 1BR w/ Queen bed & TV next to Central Park,34474496150,unconfirmed,Anh,Manhattan,East Harlem,40.7954,-73.94926,United States,US,False,moderate,Private room,2006,"$1,102 ",$220 ,2,56.0,6/5/2019,2.54,4,1,14,"*Please share with other guests in your reservation. Thanks!* [Security]  Unless otherwise specified, building and apartment access is for reserved guests only. Lock doors when coming and going; keep keys and windows secure.  [Courtesy]  Be mindful of neighbors. No smoking in/around the property. No shoes in the apartment. Pick up after yourself. [Be Green]  Turn off lights, electronics and faucets when not in use. Recycling bin (paper, plastic, glass, aluminum) and reusable shopping bags are in the pantry.  [Communicate]  Please tell me right away if you feel you're having less than a 5-star experience. So many of my trips were made better by caring, thoughtful hosts; it would make me happy to do the same for you.",
15452818,High Line Sun Drenched Home,30880504214,unconfirmed,Elvis,Manhattan,Chelsea,40.7469,-73.99494,United States,US,True,moderate,Entire home/apt,2006,"$1,039 ",$208 ,2,40.0,6/19/2019,1.81,3,1,288,,
15453370,Gorgeous Studio + Fully-stocked Italian Kitchen,91223384003,unconfirmed,Sarah,Brooklyn,Bedford-Stuyvesant,40.68071,-73.91873000000001,United States,US,True,moderate,Entire home/apt,2021,"$1,139 ",$228 ,1,15.0,12/18/2017,0.69,5,1,0,"A residential, quiet, small building. Non- smoking. No heavy drinking. No pets",
15453922,Worlds cutest apt in Boerum Hill / Carroll Gardens,90183030380,verified,Samera,Brooklyn,Carroll Gardens,40.68332,-73.99084,United States,US,True,moderate,Entire home/apt,2008,$731 ,$146 ,5,40.0,6/15/2019,1.84,2,1,88,New luxury furnishings provided.  Please be respectful.  If an accident happens please report and it will be resolved.  ,
15454475,Great location!,31685434602,verified,Beth,Manhattan,Upper East Side,40.76117,-73.96104,United States,US,False,strict,Entire home/apt,2015,$857 ,$171 ,7,5.0,6/4/2019,0.8,4,1,25,NO Smoking,
15455027,"Prime Location in Manhattan, near Central Park",67165416418,verified,Arata,Manhattan,Harlem,40.8062,-73.95528,United States,US,True,moderate,Entire home/apt,2003,"$1,182 ",$236 ,2,11.0,6/30/2019,0.51,3,1,18,"No kids, no pets, no smoking.",
15455579,Sunny and Spacious Private Room,26684092444,unconfirmed,Lola,Queens,Astoria,40.76059,-73.92168000000001,United States,US,True,flexible,Private room,2008,"$1,037 ",$207 ,1,0.0,,,2,1,0,,
15456132,Williamsburg Bedroom in a Beautiful  Home,54932879986,verified,Ashley,Brooklyn,Williamsburg,40.71706,-73.94091,United States,US,True,flexible,Private room,2021,$190 ,$38 ,2,3.0,11/2/2018,0.34,5,2,1,,
15456684,"Kings Plz Mall, Flatbush Ave, 30 mins to Manhattan",44272566850,verified,Medea,Brooklyn,Flatlands,40.62191,-73.93428,United States,US,False,strict,Entire home/apt,2020,$913 ,$183 ,2,35.0,7/5/2019,1.59,2,2,357,This is a residential property and quiet is maintained.   Absolutely zero smoking on or near the property.  Be respectful and kind.,
15457236,Airway,45013840485,unconfirmed,Mauricio,Queens,East Elmhurst,40.764,-73.88718,United States,US,False,flexible,Private room,2005,"$1,121 ",$224 ,2,0.0,,,4,1,83,"House Rules 1. Check-in is 4 pm local time. If the unit is ready earlier, we’ll let you know. Check-out is normally 11 am local time, but we’d be happy to extend it as long as we don’t have a cleaning scheduled. Just let us know.  2. All bookings require a security deposit of at least $300, which will be refunded within 7 days of your check-out. 3. For security measures we require all guests to provide proof of identification through ID verification on our own website. In order to check in we'll need a photo of your ID.  4. Our cancellation policy is as shown on our ad and defined by the site you are booking through.  5. Don’t let $300 go up in smoke. There's no smoking allowed in any Flatbook and a $300 fine for breaking this rule.  6. Unfortunately we don’t allow pets in any of our apartments. 7. Unless you’re staying in one of our specialty apartments, we don’t allow parties or excessive noise. 8. If we find the place very messy, we have to charge an extra $40 for every extra hour o",
15457789,Green Oasis 15 min from Downtown Manhattan!,95274493026,unconfirmed,Nik,Brooklyn,Williamsburg,40.71244,-73.94384000000001,United States,US,True,flexible,Entire home/apt,2019,$346 ,$69 ,6,2.0,12/29/2018,0.11,5,1,0,Enjoy the space responsibly. It's a quiet family-owned building on a very busy street. Only Airbnb-vetted individuals allowed in the house - for our security as well as our neighbors - we want to keep our space safe! No smoking or pets (sorry!) Please return space as you found it.,
15458341,"Söderläge - 3 bedrooms in Williamsburg, Brooklyn",62039823084,verified,Glenn,Brooklyn,Williamsburg,40.71075,-73.9564,United States,US,True,strict,Entire home/apt,2007,"$1,102 ",$220 ,2,124.0,7/7/2019,5.71,5,3,106,"House Rules 1. Check-in is 4 pm local time. If the unit is ready earlier, we’ll let you know. Check-out is normally 11 am local time, but we’d be happy to extend it as long as we don’t have a cleaning scheduled. Just let us know.  2. All bookings require a security deposit of at least $300, which will be refunded within 7 days of your check-out. 3. For security measures we require all guests to provide proof of identification through ID verification on our own website. In order to check in we'll need a photo of your ID.  4. Our cancellation policy is as shown on our ad and defined by the site you are booking through.  5. Don’t let $300 go up in smoke. There's no smoking allowed in any Flatbook and a $300 fine for breaking this rule.  6. Unfortunately we don’t allow pets in any of our apartments. 7. Unless you’re staying in one of our specialty apartments, we don’t allow parties or excessive noise. 8. If we find the place very messy, we have to charge an extra $40 for every extra hour o",
15458893,2 Bedroom/2 Bath Spacious Loft in Clinton Hill,8769037384,verified,Stefanie,Brooklyn,Clinton Hill,40.68657,-73.96003,United States,US,True,flexible,Entire home/apt,2021,$253 ,$51 ,3,3.0,10/8/2018,0.16,4,1,0,Enjoy!,
15459445,Cozy&Quiet One Bedroom Full Unit Near F/G train,94842728823,unconfirmed,Qingming,Brooklyn,Kensington,40.64099,-73.98029,United States,US,True,strict,Entire home/apt,2007,$609 ,$122 ,2,32.0,6/10/2019,1.45,5,4,153,#NAME?,
15459998,Luxury Midtown Manhattan Condo with 24hr Doorman,72100371265,verified,Sam,Manhattan,Midtown,40.75288,-73.97703,United States,US,True,moderate,Entire home/apt,2007,$406 ,$81 ,2,25.0,3/3/2019,1.14,3,1,0,sorry: no smoking no pets no kids no parties ...,
15460550,"Good Access to Everywhere:)Bushwick, Brooklyn NY",20906454672,verified,Takanori,Brooklyn,Bushwick,40.70544,-73.91828000000001,United States,US,True,flexible,Private room,2011,$197 ,$39 ,1,90.0,6/22/2019,4.26,5,1,42,#NAME?,
15461102,Big Luxury Apartment by Times Square,45974055162,verified,Raul,Manhattan,Hell's Kitchen,40.766709999999996,-73.98849,United States,US,False,strict,Entire home/apt,2019,"$1,053 ",$211 ,15,8.0,5/30/2019,0.37,5,1,30,,
15461655,Cozy private room in Midtown with private bathroom,51374467815,unconfirmed,Trinh,Manhattan,Hell's Kitchen,40.76495,-73.9853,United States,US,False,strict,Private room,2007,$446 ,$89 ,3,6.0,5/10/2018,0.27,5,1,0,"Keep the place in the same condition as upon arrival. Be yourself, but please no wild parties, thanks :)",
15462207,Cute little room,85328360657,verified,Cristina,Queens,East Elmhurst,40.755959999999995,-73.89702,United States,US,False,strict,Private room,2021,$638 ,$128 ,4,17.0,6/10/2019,0.79,3,1,314,No smoking and no pets.  No parties without prior approval.  Names and ages of all guests is required for booking.,
15462759,Urban Bungalow Loft in Heart of Williamsburg!,56692866587,unconfirmed,Su,Brooklyn,Williamsburg,40.71992,-73.96029,United States,US,True,moderate,Entire home/apt,2007,$722 ,$144 ,2,3.0,5/12/2018,0.14,3,2,184,,
15463312,"Only woman ..  East elmhurts ,queens , ny 11369",91174802581,unconfirmed,Lore,Queens,East Elmhurst,40.76381,-73.87748,United States,US,False,strict,Private room,2013,$91 ,$18 ,1,0.0,,,2,1,359,"Enjoy your stay in our home, simply be respectful of our neighbors, no smoking and no pet allowed.",
15463864,Living room available! Modern apartment in midtown,8753014015,verified,Haley,Manhattan,Murray Hill,40.7487,-73.97479,United States,US,False,moderate,Shared room,2020,"$1,004 ",$201 ,1,47.0,5/20/2019,2.2,5,2,365,#NAME?,
15464416,Private room near train into midtown Manhattan,46046400186,unconfirmed,Oliver,Queens,Sunnyside,40.7448,-73.92364,United States,US,False,flexible,Private room,2008,$97 ,$19 ,2,2.0,10/16/2017,0.09,4,2,0,,
15464968,Clean and cozy private bedroom in Central Harlem.,45751506900,verified,Mariaelena,Manhattan,Harlem,40.81888,-73.94345,United States,US,False,strict,Private room,2014,$388 ,$78 ,2,47.0,11/21/2018,2.16,4,1,0,Yes please:  •  make yourself at home; •  ask questions. Please no: •  shoes inside; •  smoking; •  food in the bedroom; •  parties; •  pets.,
15465521,Master room w/terrace/private bath near Mall queen,35901116663,unconfirmed,,Queens,Elmhurst,40.73612,-73.87822,United States,US,True,moderate,Private room,2018,$718 ,$144 ,3,10.0,7/28/2018,0.47,5,3,0,,
15466073,COZY BEAUTIFUL 1 BEDROOM APT FOR 3PPL,58675840996,unconfirmed,,Manhattan,Hell's Kitchen,40.76536,-73.98878,United States,US,True,strict,Entire home/apt,2020,$964 ,$193 ,3,104.0,6/30/2019,4.79,3,1,34,"Please just don't be loud at night or in the morning, we are just one wall/ceiling away from neighbors.  Also, just respect our things, wash dishes, keep it clean - the usual! - and everything will be peachy keen.",
15466625,Gorgeous single room in Sunnyside near Manhattan,87843674896,unconfirmed,,Queens,Sunnyside,40.74722,-73.9186,United States,US,False,moderate,Private room,2020,"$1,149 ",$230 ,2,20.0,7/1/2019,0.91,5,4,365,No Smoking ,
15467178,Comfortable stay,76394219766,verified,,Staten Island,New Springville,40.580909999999996,-74.15485,United States,US,True,strict,Private room,2022,"$1,105 ",$221 ,1,74.0,6/25/2019,3.34,3,3,78,"This is a quiet building and expect not to be disturbed, or to create disturbances.  There is a shared washer and dryer and it is not used after 11pm.  There is absolutely no smoking allowed in the building, on the fire escape or on the front steps.  We prefer that guests be non-smokers.  Guests are not permitted to bring pets, or have visitors with pets.  Bicycles can not be brought into the building.  The City of Boston collects trash two times per week and Guests are expected to observe local trash and re-cycling schedules.  There is a more detailed description available once reservation is completed.",
15467730,Private bed & bath by JFK & LGA; Easy NYC access!,57839781459,verified,David,Queens,Kew Gardens,40.70874,-73.82616999999999,United States,US,True,moderate,Private room,2009,$666 ,$133 ,2,137.0,6/23/2019,6.27,3,1,32,,
15468282,Cozy 2 bedroom apt in Lower East Side,34824341103,verified,Aura,Manhattan,Chinatown,40.71418,-73.99208,United States,US,True,strict,Entire home/apt,2005,$450 ,$90 ,3,92.0,6/22/2019,4.73,4,3,63,EACH ROOM HAS A FULL SIZED BED AND NORMALLY ROOMS ARE RENTED TO SINGLE GUESTS ONLY. OCCASIONALLY A COUPLE OF ADULTS WILL BE CONSIDERED BUT THERE IS AN ADDITIONAL CHARGE FOR MORE THAN ONE PERSON,
15468835,"Modern, natural light + in the best location",98053511299,unconfirmed,Natalija,Brooklyn,Williamsburg,40.71253,-73.96123,United States,US,False,moderate,Private room,2019,$346 ,$69 ,2,0.0,,,4,1,36,"No smoking , The key located in front of the main door next to the railing   Inside of the locker , I will send the passcode to the guest prior check in , please remember to put the key back in the locker when check out .      With the key , please open with the passcode, take the key out , then close the locker , when you check out , please open the locker , place the key , then close the locker . Thank you  The Internet username : kenwang549 Password: columbus12345 The assigned parking in the behind of the building , you can follow the direction with the picture shown , and there is a sign for the parking space . Any questions or problems please contact me at (PHONE NUMBER HIDDEN) , or e mail me . Thank you",
15469387,Homey & Cozy Near Pratt! (Cat Lovers Only),17361974462,unconfirmed,Karina,Brooklyn,Bedford-Stuyvesant,40.689890000000005,-73.93746999999999,United States,US,False,strict,Private room,2019,"$1,086 ",$217 ,1,21.0,6/26/2019,0.95,3,2,82,"Be respectful of our neighbors - No loud music or parties, please.",
15469939,Upper West Side Room,68851167770,unconfirmed,Ayelet,Manhattan,Upper West Side,40.794990000000006,-73.97669,United States,US,True,strict,Private room,2006,$550 ,$110 ,5,2.0,9/16/2017,0.09,4,1,0,No smoking please. No pets.,
15470491,A Gem in the Heart of Brooklyn_(Rm#1),77430706897,verified,Charlene,Brooklyn,East Flatbush,40.64051,-73.93224000000001,United States,US,False,strict,Private room,2021,$65 ,$13 ,7,37.0,11/15/2018,1.92,2,4,29,"Please no parties,  and no loud noise past 11p, out of respect for the neighbors.  Please no smoking inside the building.  If you cook or otherwise eat in the apartment, please reasonably clean up after yourself.",
15471044,Tristan's House,71570338606,verified,Jeny,Queens,Long Island City,40.76462,-73.9319,United States,US,True,strict,Private room,2019,$903 ,$181 ,1,16.0,7/7/2019,1.37,4,1,95,No Pet. No Smoking. ,
15471596,Colorful entire studio with city views by subway!,76810173199,unconfirmed,Nick,Manhattan,Harlem,40.81953,-73.95665,United States,US,False,flexible,Entire home/apt,2007,$874 ,$175 ,5,0.0,,,3,1,0,smoke-free campus.,
15472148,Franklin Guest Apt,81349040857,unconfirmed,Sonya,Brooklyn,Bedford-Stuyvesant,40.6835,-73.957,United States,US,False,flexible,Entire home/apt,2015,$780 ,$156 ,2,51.0,6/10/2019,2.53,5,1,10,Please respect our privacy on 1st and 2nd floors.  We do appreciate you being quiet when coming in very late at night.  If you need anything we are happy to help in any way.,
15472701,Extra Large 1 Bedroom Park Slope / Prospect Park,56050130756,verified,Amar,Brooklyn,South Slope,40.66163,-73.98265,United States,US,True,flexible,Entire home/apt,2016,$879 ,$176 ,2,5.0,5/16/2018,0.26,5,2,0,,
15473253,Charming & Cozy Room in East Village Apt!,57645059080,unconfirmed,Louisa,Manhattan,East Village,40.72413,-73.98216,United States,US,True,strict,Private room,2019,"$1,110 ",$222 ,2,13.0,7/27/2018,0.61,2,1,0,No Smoking No Pets,
15473805,Sun-filled Park Slope Gem - Location!,85859419011,verified,Dylan,Brooklyn,Park Slope,40.679629999999996,-73.97849000000001,United States,US,False,flexible,Entire home/apt,2019,$666 ,$133 ,3,12.0,7/8/2019,0.55,4,1,47,,
15474358,Quaint room in Park Slope with awesome deck,96293692999,verified,Gabriella,Brooklyn,Park Slope,40.67781,-73.98083000000001,United States,US,False,strict,Private room,2008,$126 ,$25 ,2,7.0,5/28/2018,0.32,4,1,0,"Be yourself, but please no wild parties, thanks :)",
15474910,Cozy Park Slope 1br Bungalo,68435666796,verified,Liam,Brooklyn,Park Slope,40.67518,-73.98119,United States,US,False,strict,Private room,2014,$375 ,$75 ,1,4.0,9/29/2017,0.18,5,1,0,,
15475462,Harlem Cozy Studio,21892164062,unconfirmed,Roselin,Manhattan,Harlem,40.81301,-73.94502,United States,US,True,moderate,Entire home/apt,2010,$954 ,$191 ,4,9.0,6/8/2019,0.94,3,1,245,please be quiet and respectful of the other renters,
15476014,AMAZING KING 1 BEDROOM MIDTOWN,74970511512,verified,Corporate Housing,Manhattan,Hell's Kitchen,40.761359999999996,-73.99361,United States,US,False,flexible,Entire home/apt,2016,$843 ,$169 ,30,6.0,7/1/2019,0.29,5,91,314,,
15476567,1st floor room in the heart of Williamsburg,80500109684,verified,Blake,Brooklyn,Williamsburg,40.71139,-73.96353,United States,US,False,flexible,Private room,2014,$869 ,$174 ,1,0.0,,,3,1,0,,
15477119,"Long Island city, 15 min to Bryant Park",85436666334,verified,Robert,Queens,Long Island City,40.76096,-73.93836,United States,US,True,strict,Private room,2013,$423 ,$85 ,4,0.0,,,3,1,0,"No smoking or additional guests, please.",
15477671,Lower East Side Spot,8780690209,verified,Nick,Manhattan,Lower East Side,40.71881,-73.98378000000001,United States,US,False,moderate,Entire home/apt,2006,"$1,168 ",$234 ,2,5.0,4/21/2019,0.23,4,1,0,THE HOUSE HAS 4 FLOORS AND IS SHARED WITH THE OWNER AND ONE OR TWO OTHER OCCUPANTS.   QUIET IS ASSURED (ESPECIALLY LATE EVENINGS) SMOKING IS NOT PERMITTED INSIDE THE HOUSE. THERE ARE NO LOCKS ON ROOM DOORS AS THESE ARE BEDROOMS IN A PRIVATE HOME.  PRIVACY IS ASSURED AND RESPECT OTHERS' BELONGINGS ,
15478224,Bright W.burg 2 bedroom with Giant Private Garden,17429815098,verified,Zoe,Brooklyn,Williamsburg,40.71459,-73.94485,United States,US,True,flexible,Entire home/apt,2006,$659 ,$132 ,1,17.0,6/30/2019,0.77,2,2,87,It's a quiet building on a quiet street with many working professionals. Please be respectful of our neighbors and no additional guests or parties. No Smoking. No Pets.,
15478776,Cabin in Bushwick,77662719259,verified,Thomas,Brooklyn,Bushwick,40.69533,-73.9132,United States,US,False,flexible,Entire home/apt,2022,$671 ,$134 ,2,10.0,5/4/2018,0.47,5,1,0,"Just be respectful, that's really all I ask.  I love my home and hope you do too. No smoking inside, please smoke on the stoop.  No pets please.",
15479328,"Historic (& happening!) Prospect Heights, BK",53348765543,unconfirmed,Leah,Brooklyn,Prospect Heights,40.67556,-73.96427,United States,US,False,strict,Private room,2013,"$1,126 ",$225 ,1,1.0,9/13/2017,0.05,4,1,0,Party hard just don't break things.,
15479881,Hamilton Heights 2 (1/2) bedroom apartment,81679088490,verified,Ted,Manhattan,Harlem,40.8292,-73.94742,United States,US,True,strict,Private room,2005,$147 ,$29 ,7,6.0,8/23/2018,0.34,2,1,0,This is a quiet building with absolutely no smoking inside the property or on the steps.  ,
15480433,Artist space,35715160740,verified,Samuel,Manhattan,Lower East Side,40.71822,-73.99263,United States,US,True,moderate,Entire home/apt,2003,$516 ,$103 ,6,0.0,,,5,1,0,Please no smoking in the apartment.  There is a door to a balcony/fire escape for smoking.,
15480985,Amazing loft 1200 sqft in the best of Williamsburg,36861799100,verified,Gilles,Brooklyn,Williamsburg,40.71967,-73.96001,United States,US,True,strict,Entire home/apt,2003,$194 ,$39 ,2,6.0,7/7/2019,0.27,4,1,4,Have fun and please be respectful of the place. No parties Please do not smoke inside,
15481537,Beautiful Brooklyn Brownstone w/private parking,11066778991,verified,Domonique,Brooklyn,Bedford-Stuyvesant,40.69064,-73.93559,United States,US,True,moderate,Entire home/apt,2005,$299 ,$60 ,1,77.0,7/1/2019,3.51,4,1,347,,
15482090,Authentic New York Artist Loft on the Bowery,13991597488,unconfirmed,Fred,Manhattan,Lower East Side,40.719440000000006,-73.99396,United States,US,False,flexible,Entire home/apt,2007,$892 ,$178 ,2,47.0,7/1/2019,2.19,2,1,34,"No guests can be allowed access to the building/grounds that have not been mentioned at the time the reservation was made.   This is to keep everyone, including my neighbors, safe. No smoking. No pets. Campsite rules - leave it as you found it please! (trash cans are right out the back door on the other side of the patio fence). Being low key/quiet after 10pm when on the patio is much appreciated by our neighbors.",
15482642,Harlem Heavenly Apartment,81791302569,unconfirmed,Vered,Manhattan,Harlem,40.80672,-73.94648000000001,United States,US,False,strict,Entire home/apt,2004,$634 ,$127 ,4,2.0,8/6/2018,0.09,2,1,0,"No pets or smoking allowed any where on the premises.  Check-in is at 4:00 pm or later and check out is at 11 am.  After hours self check-in is available but MUST be PER-ARRANGED with host in advance. Bag storage is extra as are early check-in and late check out when possible. Guest are expected to be respectful of others in the building, neighbors, and the property.",
15483194,Hidden Gem in the Heart of Park Slope,73366800413,verified,Jason,Brooklyn,South Slope,40.66675,-73.988,United States,US,True,moderate,Entire home/apt,2019,$275 ,$55 ,2,4.0,7/2/2018,0.19,2,1,0,"Quiet hours 10pm -7AM. No additional people besides the reservation listing allowed in the apartment. Alcohol in moderation is allowed. No smoking, no drugs. Please, leave the apartment the way in which you found it! Females only.",
15483747,Great budget private room,9890190654,unconfirmed,Estevan,Brooklyn,Bedford-Stuyvesant,40.67969,-73.93974,United States,US,False,strict,Private room,2006,$546 ,$109 ,3,0.0,,,2,1,0,Feel free to use any dishware in the house but please load and run the dishwasher when you leave.,
15484299,"Clean, bright room Williamsburg  near L and JMZ .",8362426312,unconfirmed,Alex,Brooklyn,Williamsburg,40.71229,-73.95782,United States,US,True,flexible,Private room,2003,$920 ,$184 ,1,0.0,,,2,1,0,#NAME?,
15484851,Cosy & quiet room in Brooklyn steps to the subway,69952078021,unconfirmed,Pauline,Brooklyn,Greenpoint,40.72965,-73.95707,United States,US,True,flexible,Private room,2019,$408 ,$82 ,2,7.0,4/1/2018,0.34,3,1,0,- I've got a parking space that I can rent to you separately for $20 a night,
15485404,Prime Location! Luxury Bldg-Lg Rm w/ City Views!,34658524486,verified,Sonia,Manhattan,Hell's Kitchen,40.76078,-73.99683,United States,US,False,moderate,Private room,2009,$538 ,$108 ,5,1.0,9/25/2017,0.05,3,2,0,"Smoking is not permitted inside the condo.  We do not have any pets and we also ask that you don't bring yours. Please remove shoes and place in the basket upon entering the door. Although we understand the wear and tear that little ones make, we expect that all messes will be cleaned up as they happen and you will be respectful of the neighbors. Persons booking must be 18 years or older in order to rent.",
15485956,Luxury Tiny house • Ohka,54832414595,unconfirmed,Journee,Bronx,Allerton,40.86144,-73.86426999999999,United States,US,True,strict,Entire home/apt,2007,$144 ,$29 ,2,95.0,6/27/2019,4.46,5,1,225,Please respect the residents of the building by keeping noise down.,
15486508,Cozy and Light Filled East Village Apartment,71771230267,unconfirmed,Carmel,Manhattan,Gramercy,40.73166,-73.98299,United States,US,False,flexible,Private room,2019,$499 ,$100 ,3,6.0,1/1/2018,0.27,5,1,0,This is a quiet building and we would only like guests that want quiet and privacy.  Absolutely no smoking on the premises.,
15487060,Spatious Park Ave Studio,30240211237,verified,Matthew,Manhattan,Murray Hill,40.74943,-73.97945,United States,US,True,moderate,Entire home/apt,2003,$721 ,$144 ,2,14.0,6/25/2019,0.64,4,1,13,,
15487613,Classic Harlem Garden Apartment,64282248749,verified,Jed,Manhattan,East Harlem,40.809979999999996,-73.93899,United States,US,True,moderate,Entire home/apt,2019,$88 ,$18 ,5,31.0,5/11/2019,1.47,4,1,24,"There are two other units in this building, quiet, clean and respectful of neighbors is all we request. Regrets, no pets and no smoking.",
15488165,2 bdrm quiet guest area in Times Square Townhouse,68367567650,verified,Michal,Manhattan,Hell's Kitchen,40.76104,-73.99255,United States,US,False,strict,Entire home/apt,2020,$451 ,$90 ,2,21.0,7/3/2019,1.04,3,2,222,"House Rules The house rules are an important part of staying in this condo.  You will be sharing a living space with other guests and a high level of consideration, respect, communication and tolerance is expected from you.  They are meant to make your stay more pleasant, to prevent conflicts and to protect the property of any damage.  If you feel there is something that needs to be addressed and that is not covered in these rules, please make sure you communicate that to the host. 1.  Toilet · The toilettes can only be used with toilet paper provided.  Any other material disposed of will cause the plumbing system to back up and create drainage problems.  No tissues, cotton balls, tampons, Q-tips cotton swabs or any kind of sanitary products are allowed down the toilets.  · Any plumbing work due to clogged toilets will be charged to the guests. 2. Noise and Quiet Hours · Quiet hours are from 10pm until 7am.  During quiet hours radios and stereos may be played at a level not to be heard",
15488717,East Harlem 1 bed apt- central location!,5903653734,verified,Caryn,Manhattan,East Harlem,40.80002,-73.94136999999999,United States,US,True,strict,Entire home/apt,2016,"$1,000 ",$200 ,3,10.0,6/18/2019,0.51,2,1,0,"Respect the apartment and neighbors.   Just three house rules:  I ask folks to keep noise down after 11 pm, take out the trash on trash day; and don't leave out any open food containers or dirty dishes.",
15489270,**Amazing Studio Balcony Steps from Time Square**,96597850161,unconfirmed,Gal,Manhattan,Hell's Kitchen,40.7605,-73.99189,United States,US,True,strict,Entire home/apt,2022,$246 ,$49 ,30,1.0,12/5/2017,0.05,5,12,310,Treat it as your own and have a blast!,
15489822,2 bedroom Modern Apt. in Prime Williamsburg,9888425390,unconfirmed,Deniz,Brooklyn,Williamsburg,40.71317,-73.94518000000001,United States,US,True,flexible,Entire home/apt,2016,$962 ,$192 ,2,5.0,6/30/2019,0.23,2,1,157,No Pets. No Smoking.,
15490374,"Room in duplex  w/sep. bathroom, close to J train",50772727723,unconfirmed,Semih,Brooklyn,Bedford-Stuyvesant,40.688590000000005,-73.92238,United States,US,False,strict,Private room,2008,$803 ,$161 ,2,8.0,2/11/2019,0.38,4,1,0,,
15490927,Two Bedroom Pied A Terre,18250853838,verified,Jj,Brooklyn,Clinton Hill,40.68939,-73.96474,United States,US,False,moderate,Entire home/apt,2005,$444 ,$89 ,5,6.0,4/10/2019,0.28,4,2,354,,
15491479,Tiny homes on water,47908661144,unconfirmed,Marie L,Brooklyn,Mill Basin,40.60903,-73.91846,United States,US,False,moderate,Entire home/apt,2007,"$1,009 ",$202 ,1,5.0,7/7/2019,1.7,5,1,360,#NAME?,
15492031,Spacious 2-bedroom townhouse apt in Clinton Hill,98471188845,unconfirmed,Daniel,Brooklyn,Clinton Hill,40.684509999999996,-73.96051999999999,United States,US,False,flexible,Entire home/apt,2016,$667 ,$133 ,4,29.0,6/23/2019,2.2,4,1,43,,
15492583,HUGE apartment in Crown Heights,75967198438,unconfirmed,Melissa,Brooklyn,Crown Heights,40.66689,-73.92806,United States,US,False,flexible,Private room,2012,$509 ,$102 ,21,1.0,10/2/2017,0.05,5,1,44,,
15493136,Oversized Studio Flat,7749993910,unconfirmed,Jj,Brooklyn,Clinton Hill,40.69072,-73.96539,United States,US,False,moderate,Entire home/apt,2006,"$1,195 ",$239 ,14,4.0,7/27/2018,0.19,4,2,179,,
15493688,AWESOME APARTMENT mins from JFK and LGA,5570837074,unconfirmed,Melrose,Queens,St. Albans,40.6959,-73.75159000000001,United States,US,True,moderate,Entire home/apt,2017,$724 ,$145 ,2,59.0,6/17/2019,2.69,2,1,36,please be quiet and respectful of the other renters,
15494240,"@FERRY, Private Cozy Room, Renovated&Stylish.",77769115083,unconfirmed,Dine,Staten Island,St. George,40.645790000000005,-74.08027,United States,US,True,moderate,Private room,2012,$900 ,$180 ,4,61.0,6/24/2019,2.81,4,6,178,"Enjoy your stay in our home, simply be respectful of our neighbors, no smoking and no pet allowed.",
15494793,"Huge Room, Access to Garden,Prime Williamsburg",63744696660,unconfirmed,Sahar,Brooklyn,Williamsburg,40.71732,-73.94027,United States,US,False,moderate,Private room,2010,$599 ,$120 ,3,15.0,6/22/2019,0.7,2,3,19,No Smoking No Pets,
15495345,Big Bright Clean Room Near MANHATTAN and JFK,66762111883,unconfirmed,Haider & Galiya,Brooklyn,Bay Ridge,40.63498,-74.01966,United States,US,True,strict,Private room,2003,"$1,111 ",$222 ,1,39.0,8/1/2018,1.81,3,1,0,Please leave the home as it was when you entered :),
15495897,Upper west side gem,98318217316,verified,John,Manhattan,Upper West Side,40.78747,-73.96928,United States,US,True,strict,Entire home/apt,2007,$340 ,$68 ,3,0.0,,,4,1,0,,
15496450,Cozy room in Sunset Park,63820051698,verified,Kirstie,Brooklyn,Sunset Park,40.65027,-74.01101,United States,US,False,strict,Private room,2019,$307 ,$61 ,1,35.0,6/10/2019,1.6,2,2,59,,
15497002,Cozy Private Bedroom/Bathroom,70289184776,unconfirmed,David,Manhattan,Harlem,40.80508,-73.94941999999999,United States,US,False,strict,Private room,2006,$381 ,$76 ,2,70.0,1/9/2019,3.24,5,2,0,"Quiet. Residential. No smoking, no pets",
15497554,Roomy Riverside Apartment,42680735953,verified,Alyssa,Manhattan,Washington Heights,40.83571,-73.94756,United States,US,False,flexible,Private room,2016,$561 ,$112 ,2,4.0,5/18/2019,0.28,5,1,0,Smoking is not permitted inside the house.,
15498106,Private room in 2br apartment near subway (train),43686943292,unconfirmed,Zack,Queens,Flushing,40.75484,-73.82323000000001,United States,US,True,strict,Private room,2019,$572 ,$114 ,1,0.0,,,2,2,0,No smoking or pets.,
15498659,Beautiful Home in Queens,33623635831,verified,LaToya,Queens,Springfield Gardens,40.66257,-73.76514,United States,US,True,strict,Entire home/apt,2014,$282 ,$56 ,2,55.0,7/1/2019,2.5,5,1,297,"Please be quiet, kind and respectful. This building has both renters and many home occupants, it's a great place to make it your home for a stay! Please be mindful of other people on the building, and keep all questions to me, your host!",
15499211,Bedstuy/Bushwick 3 FLOOR TOWNHOUSE,73346549237,verified,Jeremy,Brooklyn,Bedford-Stuyvesant,40.69031,-73.93903,United States,US,False,strict,Entire home/apt,2011,$251 ,$50 ,5,23.0,6/23/2019,1.25,2,2,171,"This is a residential neighborhood, quiet is important.  No smoking. No pets.",
15499763,Newly renovated garden apartment in brownstone!,87083679946,unconfirmed,Michael,Brooklyn,Carroll Gardens,40.68227,-73.99948,United States,US,False,flexible,Entire home/apt,2013,$513 ,$103 ,30,5.0,3/6/2019,0.44,5,1,79,"Please be clean and respectful of the apartment, building and neighbors. No smoking indoors. Pets are allowed on a case by case basis.",
15500316,PRIVATE CLEAN ROOM,51811496290,verified,Shuly,Queens,Ditmars Steinway,40.77156,-73.90521,United States,US,True,strict,Private room,2008,"$1,106 ",$221 ,1,48.0,1/3/2019,2.27,5,8,128,,
15500868,Private cozy room- W 145st & Saint Nicholas Ave,43827035779,unconfirmed,Gustavo,Manhattan,Harlem,40.8233,-73.94461,United States,US,False,flexible,Private room,2014,$583 ,$117 ,1,26.0,5/12/2018,1.18,3,1,0,,
15501420,"STUNNING, HUGE 1 bed apartment, steps from train!",30718579446,verified,Gabrielle,Manhattan,Washington Heights,40.84434,-73.94229,United States,US,True,flexible,Entire home/apt,2004,$900 ,$180 ,4,18.0,11/24/2018,0.84,3,1,0,This is not a party building. It is quiet and peaceful. Anyone who is looking to party/smoke should look elsewhere.,
15501973,Charming & Convenient Brooklyn Bedroom,92895783013,unconfirmed,Lauren,Brooklyn,Crown Heights,40.67394,-73.94991,United States,US,True,flexible,Private room,2014,"$1,002 ",$200 ,5,0.0,,,3,1,0,"No Smoking, No additional guests,",
15502525,Great Location to Explore NYC,14872380765,verified,Eunice,Manhattan,Upper East Side,40.77751,-73.95575,United States,US,True,flexible,Private room,2006,$273 ,$55 ,4,10.0,12/2/2017,0.46,2,1,0,No Smoking,
15503077,Well-Located Private Bedroom in Williamsburg,42792025694,unconfirmed,Devon,Brooklyn,Williamsburg,40.714690000000004,-73.93970999999999,United States,US,False,moderate,Private room,2004,$560 ,$112 ,3,2.0,12/7/2017,0.09,4,1,0,,
15503629,Cozy Moroccan 1BR APT in the heart of Astoria,3301561602,verified,Rhita,Queens,Astoria,40.767590000000006,-73.92463000000001,United States,US,False,flexible,Private room,2018,"$1,034 ",$207 ,1,142.0,6/21/2019,6.44,4,1,115,#NAME?,
15504182,Prime Location of Flushing Queens 豪华卧室 旅途中的家 A,11536459689,unconfirmed,Max,Queens,Flushing,40.74893,-73.82046,United States,US,False,moderate,Private room,2005,$267 ,$53 ,1,39.0,6/23/2019,1.79,5,6,359,,
15504734,the best you can find,64804701452,unconfirmed,Qiuchi,Manhattan,Murray Hill,40.75091,-73.97596999999999,United States,US,True,moderate,Entire home/apt,2009,$894 ,$179 ,3,0.0,,,4,1,0,"Please no parties,  and no loud noise past 11p, out of respect for the neighbors.  Please no smoking in the building.  If you cook or otherwise eat in the apartment, please reasonably clean up after yourself.",
15505286,"Beautiful, spacious apartment in Brooklyn",67390482904,verified,Awilda,Brooklyn,Kensington,40.64674,-73.97946999999999,United States,US,False,flexible,Private room,2007,"$1,056 ",$211 ,3,5.0,1/2/2019,0.23,2,3,0,No Smoking No Pets,
15505839,"Huge historical 1 bedroom in South Park Slope, BK",68730846891,unconfirmed,Derek,Brooklyn,Sunset Park,40.66232,-73.9939,United States,US,True,flexible,Entire home/apt,2008,$109 ,$22 ,3,5.0,4/7/2019,0.23,2,1,83,No pets allowed (sadly!) and no smoking allowed.,
15506391,Huge Homey Relaxing room 25 mins from Times Sq!,74113721367,verified,Cherie,Manhattan,Washington Heights,40.84594,-73.94039000000001,United States,US,False,flexible,Private room,2006,$446 ,$89 ,2,0.0,,,5,1,0,"Enjoy your stay in our home, simply be respectful of our neighbors, no smoking and no pet allowed.",
15506943,Spacious bedroom in Artist's Apartment-Atelier,5642791107,verified,Nastya,Manhattan,Lower East Side,40.71818,-73.99015,United States,US,True,moderate,Private room,2006,"$1,049 ",$210 ,1,72.0,6/29/2019,3.38,5,2,50,"Just be cool, we love our home and love our neighborhood - we're thrilled to have the opportunity to share it with you.",
15507496,Modern Penthouse Apartment with Private Roof Deck,14188510298,verified,Doug,Manhattan,East Village,40.72232,-73.98055,United States,US,False,moderate,Entire home/apt,2018,"$1,183 ",$237 ,14,1.0,12/17/2017,0.05,2,1,0,"I am opening my home to responsible renter(s) who are  looking for hotel alternative. I have consideration for your privacy and comfort and expect the same from you. Interaction can be as little or as much as you desire.  Smoking is allowed on Patio.  Basically, there are few house rules. Dog limited to owners bedroom and downstairs common space and patio.  Oh, did i mention there is a hot tub on the  patio, clocking in at 101 degrees.  Feel free to ask Boston question as I have about 40 years experience here.   ",
15508048,Private Sunny Room with Balcony in Bushwick,3537806809,unconfirmed,Frances,Brooklyn,Bushwick,40.69827,-73.92493,United States,US,True,moderate,Private room,2022,$901 ,$180 ,3,2.0,12/25/2018,0.1,3,1,0,,
15508600,"Luxury High-Rise, Floor-Ceiling Windows, Balcony",53180570849,verified,Billy,Manhattan,Murray Hill,40.745779999999996,-73.97595,United States,US,False,strict,Entire home/apt,2007,$346 ,$69 ,5,7.0,5/6/2019,0.32,2,1,22,No Smoking,
15509152,Room in Chelsea,97685120767,unconfirmed,Sorcha,Manhattan,Chelsea,40.740629999999996,-73.99998000000001,United States,US,False,flexible,Private room,2010,"$1,183 ",$237 ,2,4.0,10/30/2017,0.19,5,1,0,No Smoking No Pets,
15509705,Cozy and comfy apartment in Sunset-Newly renovated,4791085126,verified,Men Yee,Brooklyn,Sunset Park,40.65157,-74.01089,United States,US,False,moderate,Entire home/apt,2003,$898 ,$180 ,5,47.0,7/2/2019,2.26,3,1,76,,
15510257,Large Bedroom near Manhattan,8367603150,unconfirmed,Dimitri,Staten Island,St. George,40.64123,-74.08169000000001,United States,US,False,flexible,Private room,2006,$784 ,$157 ,2,0.0,,,4,2,356,"Thank you for your reservation. By placing your reservation online you indicated that you accepted the terms and conditions which have been printed below.  Please review your reservation summary as below - then print, sign and return the agreement to:  (EMAIL HIDDEN) or fax it to (PHONE NUMBER HIDDEN) or  mail it to: Spare Suite, Inc., 119 Braintree Street, Suite 510, Boston, MA 02134, USA Upon receipt, we will send you the welcome document with check in instructions and how to get your keys. ------------------------------------------------------------------------ ------------------------------------------------------------------------ Terms of the Agreement: BOOKING AND REFUND POLICY Once booked your reservation is guaranteed for the check in and check out times and dates specified. All reservations must be paid in advance, in full for the entire period of stay.  All reservations are final, and NON REFUNDABLE UNDER ANY CIRCUMSTANCES.  If you feel you may need to cancel once booked, yo",
15510809,Huge Bedroom with Private bath - Close to Subway,40707686073,unconfirmed,Dylan,Brooklyn,Bath Beach,40.60303,-73.99596,United States,US,True,strict,Private room,2015,$759 ,$152 ,2,45.0,6/24/2019,2.05,5,1,324,,
15511362,LUXURY BROADWAY/FINANCIAL DISTRICT,79487368328,unconfirmed,Rated,Manhattan,Financial District,40.70903,-74.01401,United States,US,False,flexible,Entire home/apt,2013,$550 ,$110 ,30,0.0,,,4,33,351,,
15511914,Private Room in Astoria minutes to NYC,64140705150,unconfirmed,Mayra,Queens,Ditmars Steinway,40.77864,-73.91445,United States,US,True,moderate,Private room,2003,$667 ,$133 ,1,90.0,5/13/2019,4.13,2,2,100,No Smoking No Pets,
15512466,MOST CENTRAL LOCATION,93301229889,unconfirmed,Lara,Manhattan,Hell's Kitchen,40.768879999999996,-73.98639,United States,US,True,strict,Private room,2013,$663 ,$133 ,2,1.0,9/30/2018,0.11,4,3,316,100% smoke free. Quiet hours in this building are from 10pm-6am.  Garbage is collected by the city of Boston on Tuesday and Friday mornings and must be placed outside in designated area for pick up.,
15513019,Williamsburg's BEST location Apartment,75601580914,verified,Daniela,Brooklyn,Greenpoint,40.71951,-73.95397,United States,US,True,strict,Entire home/apt,2005,$825 ,$165 ,7,6.0,12/10/2017,0.27,5,1,0,To treat the place with utmost respect.,
15513571,Best Space near Manhattan!,58800187213,unconfirmed,Lu,Manhattan,Roosevelt Island,40.76846,-73.94461,United States,US,True,strict,Entire home/apt,2010,$975 ,$195 ,4,1.0,12/31/2017,0.05,2,1,0,,
15514123,Prime location.near all 20 mins to manhattan.apt1B,6999875641,verified,Taka,Queens,Elmhurst,40.73742,-73.87026999999999,United States,US,True,moderate,Entire home/apt,2005,$63 ,$13 ,4,5.0,11/13/2017,0.23,5,2,5,"- No smoking / pets / shoes (inside) - Please use coasters on any wooden or lacquer surfaces  - No groups of guests - Please pick up after yourself. Dishes in the dishwasher, etc. - Only registered guests may stay overnight. Also, I try to be as green as possible: - Heat and AC should be used sparingly, when needed - Recycling is co-mingled (makes it much easier) - Compost (of non-animal products) - Please turn lights off when you are not using them",
15514675,The Little Nook 1,6033123130,unconfirmed,,Brooklyn,East Flatbush,40.63568,-73.94745999999999,United States,US,False,strict,Private room,2022,"$1,046 ",$209 ,4,0.0,,,2,1,88,just respect people in the other 5 apartments.,
15515228,UES Renovated Safe Location,51010070650,verified,,Manhattan,Upper East Side,40.76798,-73.95274,United States,US,False,flexible,Entire home/apt,2019,$451 ,$90 ,1,68.0,6/17/2019,3.09,2,1,98,No smoking!  Please be respectful of our neighbors and keep noise to a minimum.  Voices and music outside carry far.,
15515780,Arts / Nightlife Central,71219301156,verified,,Brooklyn,Bushwick,40.69814,-73.93033,United States,US,True,moderate,Private room,2018,$167 ,$33 ,14,2.0,12/22/2018,0.11,3,2,180,"The art is for your enjoyment.  Please do not touch or move anything. Please make up beds with fresh linens and wash towels and linens before you leave.  Leave house broom clean.  Dishes should be washed and put away. Sorry, no pets and no smoking.  There are age restrictions for guests.",
15516332,Some fresh air,53756700140,unconfirmed,,Queens,Far Rockaway,40.5975,-73.7397,United States,US,False,flexible,Entire home/apt,2008,$974 ,$195 ,7,0.0,,,5,1,0,,
15516885,Beautiful apt. in Upper West Side close to subway,92377758557,verified,,Manhattan,Morningside Heights,40.814,-73.96228,United States,US,True,strict,Entire home/apt,2003,$856 ,$171 ,2,3.0,10/29/2017,0.14,4,1,0,No Smoking  No Parties No Excess Noise - We have neighbors in the building.,
15517437,"Room with View, close to Central Park & Rockfeller",6216191107,unconfirmed,Jennifer,Manhattan,Roosevelt Island,40.763220000000004,-73.94899000000001,United States,US,True,flexible,Private room,2009,"$1,123 ",$225 ,28,0.0,,,2,1,0,"Guests are required to take their shoes off in the house (we have slippers for all), and to be respectful of the home.",
15517989,Welcoming New York,52601458297,verified,Orain,Queens,St. Albans,40.70791,-73.75625,United States,US,False,flexible,Private room,2021,$828 ,$166 ,1,30.0,10/20/2018,1.37,2,1,0,"We do not permit smoking, pets or parties. Thank you!",
15518542,Private cozy and large room(103),23479683258,unconfirmed,Wenqin,Queens,Flushing,40.76376,-73.83094,United States,US,True,moderate,Private room,2006,$509 ,$102 ,1,40.0,5/26/2019,1.83,2,4,342,This is a quiet building with great neighbors so please treat it with respect when late at night.  This is our 2nd home so please treat it like your own and leave it like you found it.  No Smoking (other than on the deck) and no pets please. Thanks!,
15519094,Best of Brooklyn,64653762415,verified,Candi,Brooklyn,Bedford-Stuyvesant,40.69342,-73.95881,United States,US,False,flexible,Private room,2010,$930 ,$186 ,30,8.0,12/3/2017,0.38,4,3,89,,
15519646,Private Room in East Village  *FEMALE Guests only*,14729020229,unconfirmed,Laura,Manhattan,East Village,40.72793,-73.98876,United States,US,True,strict,Private room,2010,$71 ,$14 ,1,44.0,6/13/2019,2.01,5,1,19,Please respect the residents by keeping noise down and absolutely no smoking.  There is no bag storage at the building.  Please do not ask the concierges.  Thank you.,
15520198,Washington Park,22865045660,unconfirmed,Nina,Brooklyn,Fort Greene,40.691759999999995,-73.97413,United States,US,True,strict,Entire home/apt,2011,$735 ,$147 ,3,9.0,7/1/2019,1.46,4,1,5,"No smokers, please.  ",
15520751,Elegant 1 BR with amazing view in Park Slope,57667595626,unconfirmed,Sasha,Brooklyn,Park Slope,40.66803,-73.97869,United States,US,True,flexible,Entire home/apt,2011,$947 ,$189 ,4,6.0,3/17/2019,0.56,5,1,16,Please be respectful of our belongings and leave things as your found them.,
15521303,Tastetic,58987302786,unconfirmed,Jotham,Brooklyn,East Flatbush,40.64521,-73.94751,United States,US,False,moderate,Private room,2013,$240 ,$48 ,2,9.0,4/12/2019,0.42,5,4,49,,
15521855,Arthur Ave 2BDR sleeps 6! (15 mins from Manhattan),89119114801,unconfirmed,Nihad,Bronx,Belmont,40.85362,-73.8896,United States,US,False,moderate,Entire home/apt,2010,$720 ,$144 ,2,71.0,6/23/2019,3.45,3,1,291,No Smoking No Pets,
15522408,The Blue House in Ft Greene,43007685826,verified,Tony,Brooklyn,Fort Greene,40.69563,-73.97051,United States,US,False,flexible,Entire home/apt,2006,"$1,196 ",$239 ,3,53.0,6/22/2019,2.5,3,1,75,No smoking in condo or hallways of building.  No parties.  Well-behaved pets OK.  Quiet and respectful of our neighbors.,
15522960,Private room with private bathroom,29259670825,verified,Ghislain Serge,Brooklyn,Bedford-Stuyvesant,40.69081,-73.92679,United States,US,False,flexible,Private room,2003,$58 ,$12 ,2,30.0,6/22/2019,1.39,3,1,13,No Smoking No Pets,
15523512,"Charming, comfy, cozy, safe getaway.",98092321326,verified,Medea,Brooklyn,Flatlands,40.62072,-73.93265,United States,US,False,strict,Private room,2017,$405 ,$81 ,1,1.0,12/30/2018,0.16,2,2,342,"Please be respectful of our neighbors and keep voices, music, etc at a reasonable volume.  Please be tidy and take good care of our home. No shoes on the area rug, be neat with food and drink.",
15524065,Spacious 1 bedroom in Prime Williamsburg,65243667809,unconfirmed,Amit,Brooklyn,Williamsburg,40.71168,-73.96338,United States,US,False,moderate,Entire home/apt,2018,$515 ,$103 ,3,2.0,9/25/2017,0.09,2,1,0,We want you to treat our home as your own.  We have a few house rules- -Extra visitors and overnight guests are not allowed. - No pets -No smoking -Cooking facilities are not available -Minimum 2 night stay,
15524617,Californiacation Studio with Garden in Bushwick,56703002424,verified,Arina,Brooklyn,Bushwick,40.70163,-73.92366,United States,US,True,moderate,Entire home/apt,2018,$184 ,$37 ,4,3.0,1/9/2019,0.14,2,1,0,,
15525169,Little Slice of Brooklyn!,21858591993,unconfirmed,Nikki,Brooklyn,Flatbush,40.641040000000004,-73.96337,United States,US,True,moderate,Private room,2007,$697 ,$139 ,2,45.0,6/30/2019,2.06,5,4,17,You can use our home as you would like us to use yours. We invite you to use our kitchen as you please. We would love to come home to our apartment in the manner we will leave it for you: clean and ready to use.,
15525721,汤姆公寓,95706205879,unconfirmed,Dong Ming,Queens,Flushing,40.764070000000004,-73.83051999999999,United States,US,False,moderate,Private room,2019,$51 ,$10 ,1,4.0,5/18/2018,0.2,5,2,179,#NAME?,
15526274,Luxurious 1BR apt! Amazing Views & Full Amenities!,59454551192,verified,William,Manhattan,Murray Hill,40.744279999999996,-73.97364,United States,US,True,strict,Entire home/apt,2019,$975 ,$195 ,3,16.0,1/27/2018,0.74,5,1,0,We live in a quiet neighborhood with respectful neighbors and we ask that you show them the same respect.  No unreasonable noise after 11pm - no smoking - no parties.,
15526826,"Beautiful RoomwBackyard near Trains,Astoria NY",17479818926,verified,Chimme,Queens,Astoria,40.75633,-73.92777,United States,US,False,flexible,Private room,2012,$99 ,$20 ,3,5.0,9/18/2018,0.24,4,1,0,No smoking or parties. Please be courteous of my cordial neighbors.,
15527378,Shay's Place #2 ( Studio Apt. ) 5 mins from JFK,15068053023,unconfirmed,Sheila,Queens,Springfield Gardens,40.66648,-73.76286,United States,US,False,strict,Entire home/apt,2016,$631 ,$126 ,1,146.0,6/23/2019,6.87,2,2,281,No Smoking No Pets,
15527931,Cute room in Bushwick,31762260568,unconfirmed,Enrique,Brooklyn,Bushwick,40.69686,-73.91431,United States,US,False,moderate,Private room,2003,"$1,199 ",$240 ,1,0.0,,,3,1,0,,
15528483,Gorgeous One Bedroom in Clinton Hill,97905626271,verified,Lilja,Brooklyn,Clinton Hill,40.69027,-73.96795999999999,United States,US,False,strict,Entire home/apt,2019,$634 ,$127 ,2,17.0,5/15/2019,0.8,3,1,0,"House Rules 1. Check-in is 4 pm local time. If the unit is ready earlier, we’ll let you know. Check-out is normally 11 am local time, but we’d be happy to extend it as long as we don’t have a cleaning scheduled. Just let us know.  2. All bookings require a security deposit of at least $300, which will be refunded within 7 days of your check-out. 3. For security measures we require all guests to provide proof of identification through ID verification on our own website. In order to check in we'll need a photo of your ID.  4. Our cancellation policy is as shown on our ad and defined by the site you are booking through.  5. Don’t let $300 go up in smoke. There's no smoking allowed in any Flatbook and a $300 fine for breaking this rule.  6. Unfortunately we don’t allow pets in any of our apartments. 7. Unless you’re staying in one of our specialty apartments, we don’t allow parties or excessive noise. 8. If we find the place very messy, we have to charge an extra $40 for every extra hour o",
15529035,Bright & Large Open Studio 15 Min To Manhattan,21545786437,unconfirmed,Elan,Queens,Sunnyside,40.74205,-73.92394,United States,US,False,strict,Entire home/apt,2021,$160 ,$32 ,30,7.0,5/1/2019,0.39,5,1,38,#NAME?,
15529588,The Real B&B Home,75869516085,unconfirmed,J. Beverly,Brooklyn,Canarsie,40.64399,-73.89315,United States,US,False,flexible,Entire home/apt,2019,$971 ,$194 ,7,11.0,9/22/2018,0.64,3,1,1,"Be kind, courteous, just as how you would want to be treated. No overnight guests or loud noises at night as it is a building full of young professionals.",
15530140,★ Cosy room in Brooklyn ★ 20-min to Manhattan,49949077880,verified,Marlice,Brooklyn,Bushwick,40.68833,-73.90691,United States,US,False,flexible,Private room,2007,$750 ,$150 ,3,60.0,6/22/2019,2.79,4,4,336,"For instant book, only 4 or less guests. Otherwise send me a message, and we can chat about it. Smoking allowed on balcony or roof deck.",
15530692,★Bushwick Charming Room★ Great for Solo Travellers,22100143269,verified,Marlice,Brooklyn,Bushwick,40.68868,-73.90598,United States,US,False,flexible,Private room,2011,$215 ,$43 ,3,79.0,6/24/2019,3.67,2,4,312,,
15531244,★Luminous and vivid room in NYC★,59071247091,unconfirmed,Marlice,Brooklyn,Bushwick,40.6871,-73.90545999999999,United States,US,True,moderate,Private room,2011,$753 ,$151 ,3,26.0,6/23/2019,1.21,4,4,347,"No pets, no smoking, no more than 6 guests. We welcome families traveling for pleasure.  No corporate customers. 2 nights minimum.",
15531797,"Best Artist's fun loft in Williamsburg, mins 2 NYC",41464540258,unconfirmed,Leonor And Luca,Brooklyn,Williamsburg,40.71416,-73.95357,United States,US,True,strict,Entire home/apt,2003,$819 ,$164 ,2,7.0,5/31/2019,0.33,4,1,37,"No smoking in apartment, in building or within 50 feet of entrance.  No pets.  Quiet and respectful of our neighbors.",
15532349,Pet & Tony's Residence,4473794733,unconfirmed,Petra,Brooklyn,East Flatbush,40.654540000000004,-73.91569,United States,US,True,flexible,Entire home/apt,2016,$271 ,$54 ,1,187.0,7/4/2019,8.75,3,1,318,"Ideally a person that is respectful of my home , non smokers and no parties",
15532901,Cozy Quiet Studio in the Heart of Upper East Side,73897060299,verified,Tiffany,Manhattan,Upper East Side,40.77406,-73.94788,United States,US,True,flexible,Entire home/apt,2006,$157 ,$31 ,2,8.0,12/18/2017,0.38,4,1,0,,
15533454,Cosy & chic room in luxury hi-rise at Times Square,5969218944,verified,Nish,Manhattan,Theater District,40.75974,-73.98623,United States,US,False,moderate,Private room,2018,$612 ,$122 ,1,41.0,1/14/2019,1.87,2,1,3,"No smoking. Please do not use the fireplace. The porch is a lot fo fun, but make sure to keep Volume down after 11pm as neighbors can hear everything.",
15534006,Private room in Upper Manhattan near City College.,89352257183,unconfirmed,Cleber,Manhattan,Harlem,40.828759999999996,-73.94538,United States,US,True,strict,Private room,2013,$62 ,$12 ,8,20.0,5/26/2019,0.97,2,1,26,No Smoking.,
15534558,Spacious Bedroom near Prospect Park,784684720,verified,Sonya,Brooklyn,Kensington,40.647729999999996,-73.97499,United States,US,False,flexible,Private room,2008,$712 ,$142 ,1,28.0,6/30/2019,1.44,4,1,21,,
15535111,Sunny One Bedroom in Historic Fort Greene,79647042972,verified,Chris,Brooklyn,Fort Greene,40.6931,-73.9723,United States,US,True,strict,Entire home/apt,2005,"$1,121 ",$224 ,3,6.0,11/23/2018,0.27,2,1,0,NO Smoking. Pets allow -- Breed Restrictions Apply.,
15535663,Light and airy room in Soho/Nolita,29060182663,verified,Tobi,Manhattan,Nolita,40.72234,-73.99625,United States,US,True,strict,Private room,2009,$173 ,$35 ,7,0.0,,,4,1,0,No Smoking,
15536215,Big 1 bedrm St Marks Apt,40317257755,unconfirmed,Petko,Manhattan,East Village,40.7301,-73.98841,United States,US,False,strict,Entire home/apt,2004,$247 ,$49 ,2,30.0,6/23/2019,1.41,4,1,34,,
15536767,Lovely Bushwick Townhouse - steps from subway!,20155493240,verified,Anna,Brooklyn,Bushwick,40.6838,-73.91015,United States,US,True,flexible,Private room,2009,$200 ,$40 ,1,8.0,11/1/2018,0.36,2,1,0,,
15537320,Midtown East Sunny Studio Apartment,91633946751,unconfirmed,Glenn Thomas,Manhattan,Kips Bay,40.74395,-73.98049,United States,US,False,moderate,Entire home/apt,2006,$185 ,$37 ,3,9.0,6/14/2019,0.42,2,1,47,"No smoking, pets or permitted",
15537872,Kosher Basement Apt. for men in Crown Heights,39501423505,unconfirmed,Yosef,Brooklyn,Crown Heights,40.664229999999996,-73.94046999999999,United States,US,False,strict,Private room,2017,$925 ,$185 ,7,0.0,,,2,1,0,,
15538424,*Private-Comfortable space 2 min from train,31364224652,verified,Linda,Brooklyn,Bushwick,40.68157,-73.90547,United States,US,False,flexible,Private room,2017,"$1,085 ",$217 ,2,84.0,6/30/2019,3.93,4,1,310,,
15538977,BROOKLYN'S BROWNSTONE SPECIAL BUDGET IN NYC :),54818012836,unconfirmed,Majar,Brooklyn,Bushwick,40.68949,-73.91763,United States,US,True,moderate,Private room,2016,$91 ,$18 ,3,3.0,1/2/2019,0.14,2,8,352,,
15539529,LONG TERM 3 BEDROOMS APARTMENT BROOKLYN NYC,56037518775,unconfirmed,Martin,Brooklyn,Bedford-Stuyvesant,40.69233,-73.94688000000001,United States,US,False,strict,Entire home/apt,2011,$764 ,$153 ,90,2.0,3/24/2019,0.18,4,2,170,,
15540081,"Massive, airy room with balcony in Crown Heights",73334222371,verified,Max,Brooklyn,Crown Heights,40.67145,-73.93007,United States,US,False,flexible,Private room,2012,"$1,155 ",$231 ,5,6.0,3/29/2019,0.28,3,1,0,,
15540634,Comfortable and Clean Private Room,32258916771,verified,David,Brooklyn,Williamsburg,40.711,-73.9387,United States,US,True,strict,Private room,2003,$570 ,$114 ,6,1.0,4/20/2018,0.07,4,2,0,No Smoking.  No Pets.,
15541186,Bright Spacious Room in BedStuy - 20min from City,69426589808,unconfirmed,Paula,Brooklyn,Bedford-Stuyvesant,40.68909,-73.95281999999999,United States,US,False,flexible,Private room,2009,$749 ,$150 ,2,29.0,6/30/2019,1.36,2,2,167,"1. Please keep a quiet environment 2. I want friendly guests. Please be friendly to each other or other tenants and help me to manage situations easily.  3. No smoking in the room; smoking should be outside of the building 4. No pets 5. Fire pre-cauction by using kitchen; If cooking food, leaving kitchen with interruption should be less than one minute. There was a tenant in 6 weeks, cooking food and leaving kitchen for more than 30 minutes and forgot to turn off switch 3 times. One year it will have 25 times forgoting to turn off fire switch. Two tenants will be 50 times in one year. It will cause fire. This behavior is not acceptable. To cook food without a person in the kitchen is not acceptable. 6. Becareful of clots in the pipe for bathroom and kitchen. Don't remove the bathroom filter when taking shower. Flush the toilet by holding the switch for 4-5 seconds for full flush. You may flush the toilet first; when there is no clots, you can use. Please don't dump food in the kitchen ",
15541738,Private room in Bushwick.,97014100851,unconfirmed,Daniella,Brooklyn,Bedford-Stuyvesant,40.68475,-73.93589,United States,US,False,moderate,Private room,2009,"$1,128 ",$226 ,3,1.0,11/11/2017,0.05,2,1,0,No Smoking.  No Pets.,
15542290,Fan&Chill,17514527610,verified,Jotham,Brooklyn,East Flatbush,40.64434,-73.94635,United States,US,True,moderate,Private room,2005,$291 ,$58 ,2,2.0,1/6/2018,0.1,3,4,54,NO Smoking.  Pets permitted with fee.,
15542843,Fan'tastic,15495246072,verified,Jotham,Brooklyn,East Flatbush,40.64516,-73.94751,United States,US,False,strict,Private room,2011,$435 ,$87 ,2,10.0,6/1/2019,0.47,3,4,41,No smoking and no pets.,
15543395,Söderläge - Spacious full bedroom in Williamsburg,61751633698,unconfirmed,Glenn,Brooklyn,Williamsburg,40.70982,-73.95602,United States,US,True,moderate,Private room,2004,$720 ,$144 ,1,15.0,4/27/2019,0.69,3,3,12,NO Smoking. Pets allowed with non-refundable pet fee.,
15543947,Charming Apartment near Empire State Building,23992701397,verified,Cezar,Manhattan,Murray Hill,40.74818,-73.98025,United States,US,False,moderate,Entire home/apt,2019,$220 ,$44 ,3,4.0,10/21/2018,0.22,4,1,0,No Smoking,
15544500,Home Away From Home -3,4255793964,unconfirmed,Karen,Brooklyn,East New York,40.6661,-73.87469,United States,US,True,strict,Entire home/apt,2014,$466 ,$93 ,3,4.0,6/6/2019,0.18,3,2,36,No Smoking,
15545052,"Spacious, Modern Uptown Getaway with Balcony",64134231846,verified,Wakahiu,Manhattan,East Harlem,40.80012,-73.94549,United States,US,True,moderate,Entire home/apt,2007,$993 ,$199 ,4,7.0,4/24/2019,0.33,4,1,0,,
15545604,Spacious NYC Duplex- 1 Bedroom & 2 Bathrooms,66427836320,unconfirmed,Ant,Queens,Elmhurst,40.728590000000004,-73.87276,United States,US,True,moderate,Entire home/apt,2022,$269 ,$54 ,2,10.0,1/1/2019,0.46,5,1,89,,
15546157,Large Comfortable Cozy Room,95091726120,verified,Henry,Queens,Richmond Hill,40.690020000000004,-73.83688000000001,United States,US,False,flexible,Private room,2019,$877 ,$175 ,3,0.0,,,4,1,88,,
15546709,"Bright Warm Home. A little old, a little new!",14363511215,verified,Grace,Brooklyn,Prospect Heights,40.67525,-73.96408000000001,United States,US,True,moderate,Private room,2022,"$1,056 ",$211 ,2,1.0,9/22/2017,0.05,5,1,0,,
15547261,Brooklyn's Cozy Jewel II,86227738471,verified,Faith,Brooklyn,Crown Heights,40.67171,-73.93273,United States,US,False,flexible,Entire home/apt,2020,$382 ,$76 ,5,35.0,6/17/2019,1.81,2,2,12,"Thank you for your reservation. By placing your reservation online you indicated that you accepted the terms and conditions which have been printed below.  Please review your reservation summary as below - then print, sign and return the agreement to:  (EMAIL HIDDEN) or fax it to (PHONE NUMBER HIDDEN) or  mail it to: Spare Suite, Inc., 119 Braintree Street, Suite 510, Boston, MA 02134, USA Upon receipt, we will send you the welcome document with check in instructions and how to get your keys. ------------------------------------------------------------------------ ------------------------------------------------------------------------ Terms of the Agreement: BOOKING AND REFUND POLICY Once booked your reservation is guaranteed for the check in and check out times and dates specified. All reservations must be paid in advance, in full for the entire period of stay.  All reservations are final, and NON REFUNDABLE UNDER ANY CIRCUMSTANCES.  If you feel you may need to cancel once booked, yo",
15547813,HEART OF BUSHWICK,51064556186,verified,Patrick,Brooklyn,Bushwick,40.707840000000004,-73.92054,United States,US,False,flexible,Private room,2014,$104 ,$21 ,1,9.0,5/22/2019,0.42,4,1,81,"Sorry, no smoking and no pets.",
15548366,Lovely Young Apt    Close to JFK & LGA,20130984013,verified,Thomas,Queens,Flushing,40.726620000000004,-73.80086,United States,US,False,flexible,Entire home/apt,2021,$139 ,$28 ,2,95.0,7/8/2019,4.34,3,1,305,"No smoking, pets, overnight guests or loud noise.",
15548918,Nice room in cozy house,35193218510,verified,Andrew,Brooklyn,Midwood,40.62518,-73.96316,United States,US,True,moderate,Private room,2004,$196 ,$39 ,2,2.0,9/26/2018,0.09,5,2,0,• Check-in time is 3PM.,
15549470,LUXURY MURRAY HILL EAST 34TH~1BR,56945096533,verified,Ruchi,Manhattan,Murray Hill,40.7488,-73.97844,United States,US,True,flexible,Entire home/apt,2012,"$1,148 ",$230 ,30,1.0,6/23/2019,1.0,3,49,311,,
15550023,Beautiful place in Brooklyn! #2,21129170893,unconfirmed,Angie,Brooklyn,Williamsburg,40.71772,-73.95059,United States,US,False,moderate,Private room,2009,$121 ,$24 ,999,24.0,6/28/2018,1.12,3,6,249,"Please be respectful of everything in our apartment. This is our primary residence, so please treat our home like it were your own! Thank you!",
15550575,天使的温暖,85813345211,verified,Keqin,Queens,Flushing,40.73565,-73.81591,United States,US,False,moderate,Private room,2021,"$1,126 ",$225 ,1,0.0,,,4,1,89,,
15551127,Brooklyn NYC! #3,56388069394,unconfirmed,Angie,Brooklyn,Williamsburg,40.71835,-73.94999,United States,US,True,strict,Private room,2013,$494 ,$99 ,30,15.0,7/8/2018,0.69,2,6,333,,
15551680,Amazing room #1,22883341402,verified,Angie,Brooklyn,Williamsburg,40.71732,-73.95048,United States,US,True,strict,Private room,2007,$136 ,$27 ,30,22.0,5/3/2019,1.01,2,6,276,"-No smoking -No local guests -If you use the kitchen, please clean up after yourself. -I will leave maps/guides for your reference, but please do not remove anything from my home. -If you have any questions, please call or text me (phone number hidden). -Most importantly, enjoy yourself!",
15552232,Gorgeous Master Bedroom for Sukkot!,96279320888,verified,Sarah,Brooklyn,Midwood,40.6229,-73.96169,United States,US,True,strict,Entire home/apt,2013,"$1,115 ",$223 ,1,0.0,,,3,1,0,"House Rules 1. Check-in is 4 pm local time. If the unit is ready earlier, we’ll let you know. Check-out is normally 11 am local time, but we’d be happy to extend it as long as we don’t have a cleaning scheduled. Just let us know.  2. All bookings require a security deposit of at least $300, which will be refunded within 7 days of your check-out. 3. For security measures we require all guests to provide proof of identification through ID verification on our own website. In order to check in we'll need a photo of your ID.  4. Our cancellation policy is as shown on our ad and defined by the site you are booking through.  5. Don’t let $300 go up in smoke. There's no smoking allowed in any Flatbook and a $300 fine for breaking this rule.  6. Unfortunately we don’t allow pets in any of our apartments. 7. Unless you’re staying in one of our specialty apartments, we don’t allow parties or excessive noise. 8. If we find the place very messy, we have to charge an extra $40 for every extra hour o",
15552784,Beautifully Designed Green Point in Greenpoint,94038534872,unconfirmed,Rinat,Brooklyn,Greenpoint,40.72588,-73.94530999999999,United States,US,False,moderate,Entire home/apt,2017,$527 ,$105 ,3,23.0,6/4/2019,1.06,3,1,13,"Please Note: This unit was just renovated last year and it comfortably accommodates 4 guests, but up to 5 guests are permitted if you so desire (two guests in each bedroom and 1 guest on the available twin size air mattress). Please request an air mattress (if needed) when making a reservation. No smoking, no pets, no parties, and must be 25 years old to book.   For check-out, please ensure: -  All plates and cups are left in the sink or dishwasher -  All trash is left in the kitchen trash can or bagged and left next to the trash can (additional bags are under the sink) -  All windows are closed and locked -  If used, the air mattresses are deflated and put away (please leave used linens for the air mattresses on the floor) -  If furniture was moved during your stay, please return to its original location Please be mindful to our neighbors in the building; quiet hours after 10pm. Please be considerate of our next guests who will be staying after you, if something is broken or needs fix",
15553336,Peaceful Park Slope Condo with Fast Wifi! #10253,6665455363,verified,Dan,Brooklyn,Park Slope,40.67858,-73.9812,United States,US,False,moderate,Entire home/apt,2017,$345 ,$69 ,30,51.0,5/31/2019,2.33,2,1,75,No smoking. No parties. Respectful of property :),
15553889,Spacious Room only minutes away from 125th area,83353521392,verified,Tyshawn,Manhattan,Harlem,40.81248,-73.9526,United States,US,False,flexible,Private room,2006,$586 ,$117 ,1,9.0,6/30/2019,3.0,2,1,248,No Smoking  No Pets,
15554441,"East Village, Spacious Private Room w Backyard",26656410991,unconfirmed,Zach,Manhattan,East Village,40.7212,-73.98045,United States,US,False,strict,Private room,2017,$219 ,$44 ,3,2.0,9/24/2017,0.09,4,1,0,"House Rules 1. Check-in is 4 pm local time. If the unit is ready earlier, we’ll let you know. Check-out is normally 11 am local time, but we’d be happy to extend it as long as we don’t have a cleaning scheduled. Just let us know.  2. All bookings require a security deposit of at least $300, which will be refunded within 7 days of your check-out. 3. For security measures we require all guests to provide proof of identification through ID verification on our own website. In order to check in we'll need a photo of your ID.  4. Our cancellation policy is as shown on our ad and defined by the site you are booking through.  5. Don’t let $300 go up in smoke. There's no smoking allowed in any Flatbook and a $300 fine for breaking this rule.  6. Unfortunately we don’t allow pets in any of our apartments. 7. Unless you’re staying in one of our specialty apartments, we don’t allow parties or excessive noise. 8. If we find the place very messy, we have to charge an extra $40 for every extra hour o",
15554993,Nice bedroom in Brooklyn,46978520590,unconfirmed,Lara,Brooklyn,Bedford-Stuyvesant,40.69512,-73.94946,United States,US,False,flexible,Private room,2020,$456 ,$91 ,4,5.0,4/27/2019,0.23,2,1,0,No Smoking  No Pets,
15555546,Prime Location of Flushing Queens 豪华卧室 旅途中的家 B,89745895465,unconfirmed,Max,Queens,Flushing,40.7469,-73.8179,United States,US,True,moderate,Private room,2022,$528 ,$106 ,1,77.0,6/23/2019,3.58,4,6,365,No Smoking  No Pets,
15556098,"Luxury in Brooklyn Brownstone, Close to Metro!!!",64292798014,unconfirmed,Rohit,Brooklyn,Bedford-Stuyvesant,40.68884,-73.92958,United States,US,True,moderate,Entire home/apt,2021,"$1,064 ",$213 ,3,99.0,6/22/2019,4.79,3,2,288,No Smoking  No Pets,
15556650,"Ping Pong Paradise in Brooklyn, Close to metro!!!",61792784556,verified,Rohit,Brooklyn,Bedford-Stuyvesant,40.690490000000004,-73.93014000000001,United States,US,True,strict,Entire home/apt,2010,$506 ,$101 ,2,91.0,6/21/2019,4.4,4,2,272,"Please Note: This unit was just renovated last year and it comfortably accommodates 6 guests, but up to 7 guests are permitted if you so desire (two guests in each bedroom and 1 or 2 guests on the available queen size air mattress). Please request an air mattress (if needed) when making a reservation. No smoking, no pets, no parties, and must be 25 years old to book.   For check-out, please ensure: -  All plates and cups are left in the sink or dishwasher -  All trash is left in the kitchen trash can or bagged and left next to the trash can (additional bags are under the sink) -  All windows are closed and locked -  If used, the air mattresses are deflated and put away (please leave used linens for the air mattresses on the floor) -  If furniture was moved during your stay, please return to its original location Please be mindful to our neighbors in the building; quiet hours after 10pm. Please be considerate of our next guests who will be staying after you, if something is broken or ne",
15557203,Homey Bedroom in a great neighborhood!,23555380430,verified,Hollis,Manhattan,Harlem,40.82881,-73.94566,United States,US,False,strict,Private room,2005,"$1,040 ",$208 ,3,6.0,11/3/2017,0.28,3,2,0,"House Rules 1. All bookings made at least a week before check in are fully refundable if cancelled within 24 hours of booking. After this, you will receive a 50% refund if you cancel at least 7 days before the start of your trip. 2. Check-in time is any time after 4 pm local time. If the unit is ready earlier, we’ll let you know. Check-out is normally 11 am local time, but we’d be happy to extend it as long as we don’t have a cleaning scheduled. Just let us know.  3. All bookings require a security deposit of at least $300. 4. For security measures we require all guests to provide proof of identification through ID verification on our own website. In order to check in, we'll need a photo of your ID.  5. Don’t let $300 go up in smoke. There's no smoking allowed in any Flatbook and a $300 fine for breaking this rule.  6. Unfortunately we don’t allow pets in most of our apartments. 7. Unless you’re staying in one of our specialty apartments, we don’t allow parties or excessive noise. 8. I",
15557755,"Perfect SOHO/NOLITA location, CLEAN and cozy home",59828921812,unconfirmed,Grace,Manhattan,Nolita,40.72408,-73.99381,United States,US,True,moderate,Private room,2011,$173 ,$35 ,1,51.0,6/9/2019,2.39,3,3,56,No Smoking  No Pets,
15558307,Private Bedroom and Bath,3701547234,verified,Melinda,Queens,Ditmars Steinway,40.77618,-73.91741,United States,US,False,moderate,Private room,2010,"$1,112 ",$222 ,2,38.0,12/6/2018,1.81,5,2,0,,
15558859,Spacious & Bright apt in Soho (Top 1% ♥ NYC pick),40198092313,unconfirmed,Arnaud,Manhattan,Nolita,40.72169,-73.9965,United States,US,True,strict,Entire home/apt,2014,$961 ,$192 ,2,8.0,10/22/2018,0.37,4,1,86,,
15559412,Walk to Times Square and Central Park-Cozy Room!!!,80133602456,unconfirmed,Maxim,Manhattan,Midtown,40.76357,-73.98308,United States,US,True,flexible,Private room,2016,$804 ,$161 ,3,133.0,7/5/2019,6.08,3,1,9,"The building has a very strict no smoking policy, please do not smoke in the apartment.  Our neighbors are very conservative, please be respectful, and discreet. No grilling is allowed on the roof.",
15559964,Charming- cozy bedroom,56344217669,verified,Carolina,Bronx,Concourse,40.824529999999996,-73.92563,United States,US,True,strict,Private room,2015,$403 ,$81 ,1,16.0,1/1/2018,0.74,3,1,0,,
15560516,COZY QUIET APT CLOSE TO TRAIN,50836123390,unconfirmed,Alana,Brooklyn,Bushwick,40.70073,-73.92913,United States,US,True,flexible,Private room,2012,$685 ,$137 ,3,4.0,12/26/2017,0.2,5,1,0,,
15561069,Sunny/spacious/convenient private room - Bushwick!,23370327042,verified,Rahul,Brooklyn,Bushwick,40.69808,-73.93021999999999,United States,US,True,moderate,Private room,2013,$204 ,$41 ,2,76.0,7/6/2019,4.03,5,1,234,,
15561621,Creative Artist Apartment in SoBro,81860441621,unconfirmed,Jermaine,Bronx,Mott Haven,40.815529999999995,-73.92453,United States,US,True,flexible,Entire home/apt,2015,$513 ,$103 ,2,0.0,,,3,1,0,,
15562173,Prime East Village REAL 1 Bedroom,5105658581,unconfirmed,David,Manhattan,East Village,40.722359999999995,-73.97756,United States,US,False,flexible,Entire home/apt,2019,"$1,153 ",$231 ,5,0.0,,,3,1,0,,
15562726,"Quiet, clean and spacious.",44462900159,unconfirmed,Peter,Manhattan,Upper West Side,40.77867,-73.97914,United States,US,True,moderate,Private room,2017,$368 ,$74 ,7,8.0,6/16/2019,0.82,3,1,363,,
15563278,Vics cafe,65056745943,verified,Victor,Queens,Queens Village,40.72517,-73.76105,United States,US,True,strict,Shared room,2009,$955 ,$191 ,1,11.0,6/3/2019,0.51,3,2,125,I expect you to keep the apartment picked up and left how it was when you arrived.,
15563830,The Perfect Fort Greene Studio,75176345566,unconfirmed,Brooke,Brooklyn,Fort Greene,40.68805,-73.97563000000001,United States,US,False,moderate,Entire home/apt,2019,$805 ,$161 ,2,1.0,10/1/2017,0.05,4,1,0,1. No house parties 2. Do not damage any of the furniture or appliances.  3. Do not take anything that has been provided for your comfort and enjoyment.  4. Enjoy yourself! And please reach out if you have any questions or concerns.,
15564382,Sun-filled Bed-Stuy Apt with Master Bedroom!,64111391354,unconfirmed,Claire,Brooklyn,Bedford-Stuyvesant,40.69321,-73.94207,United States,US,True,moderate,Private room,2005,$454 ,$91 ,3,5.0,3/23/2019,0.23,5,1,0,"Please remember that this is a residential building. The building rules, apartment occupancy restrictions and the year-round tenants must be respected.  Parties, pets and smoking are not allowed under any circumstances and incur significant fees.",
15564935,Sunny and charming Room in Duplex Apt in BedStuy,88790138844,unconfirmed,Salome,Brooklyn,Bedford-Stuyvesant,40.68808,-73.9413,United States,US,False,flexible,Private room,2015,$857 ,$171 ,2,6.0,10/8/2018,0.28,3,1,39,,
15565487,Cozy home in Bayside,52076021405,unconfirmed,Ting,Queens,Bayside,40.76124,-73.76178,United States,US,True,strict,Private room,2009,$246 ,$49 ,1,62.0,7/5/2019,2.91,2,1,54,No smoking. Please be respectful of our neighbors.,
