id,NAME,host id,host_identity_verified,host name,neighbourhood group,neighbourhood,lat,long,country,country code,instant_bookable,cancellation_policy,room type,Construction year,price,service fee,minimum nights,number of reviews,last review,reviews per month,review rate number,calculated host listings count,availability 365,house_rules,license
42258146,Artful UWS Penthouse with Balcony by Central Park,10778199320,verified,Arthouse Hotel,Manhattan,Upper West Side,40.78136,-73.97988000000001,United States,US,True,moderate,Private room,2006,$799 ,$160 ,1,0,,,3,10,282,,
42258698,Steps away from Times Square!! Stylish Queen Room,77674192198,verified,Paramount Hotel,Manhattan,Theater District,40.760329999999996,-73.98635999999999,United States,US,True,flexible,Private room,2015,$359 ,$72 ,1,5,5/25/2019,1.85,4,7,363,,
42259251,Up to 4 people-Only steps away from Times Square!!,48866517026,verified,Paramount Hotel,Manhattan,Theater District,40.75861,-73.98683,United States,US,False,flexible,Private room,2006,"$1,046 ",$209 ,1,10,6/12/2019,4.55,2,7,353,,
42259803,Private Bed and Essentials for NYC Solo Travelers,24529109829,verified,Paramount Hotel,Manhattan,Theater District,40.75976,-73.98727,United States,US,False,flexible,Private room,2011,$433 ,$87 ,1,20,6/15/2019,7.69,5,7,362,,
42260355,Spacious King near Times Square and Broadway Shows,69123926033,unconfirmed,Paramount Hotel,Manhattan,Theater District,40.760259999999995,-73.98747,United States,US,True,moderate,Private room,2008,$818 ,$164 ,1,4,5/28/2019,1.54,5,7,358,,
42260908,Stylish Private 1 Double Bed Room in Times Square,92888027123,verified,Paramount Hotel,Manhattan,Theater District,40.75987,-73.98758000000001,United States,US,False,strict,Private room,2016,$138 ,$28 ,1,6,5/30/2019,2.54,3,7,351,,
42261460,Charming one bedroom with rooftop in Brooklyn,82443225850,verified,Renel,Brooklyn,Crown Heights,40.67729,-73.95697,United States,US,True,strict,Entire home/apt,2022,$756 ,$151 ,28,2,5/27/2019,0.77,3,1,24,,
42262012,Vintage 3BR Chelsea Loft! Best Location!,54206182697,verified,Alexandra,Manhattan,Chelsea,40.751059999999995,-73.99792,United States,US,False,strict,Entire home/apt,2004,$470 ,$94 ,2,9,6/23/2019,2.31,5,1,129,,
42262564,"Affordable, Simple, Bright, Furnished NYC Studio!",52628911171,unconfirmed,Ngozi,Manhattan,Harlem,40.818909999999995,-73.93786,United States,US,False,flexible,Entire home/apt,2014,$375 ,$75 ,7,1,5/21/2019,0.61,3,1,43,,
42263117,Sizeable Private Room - Prime NYC Location!,5211744377,unconfirmed,Yuval,Queens,Ridgewood,40.70881,-73.89689,United States,US,False,moderate,Private room,2017,$785 ,$157 ,30,1,6/1/2019,0.79,2,23,37,,
42263669,Newly Designed / Furnished Room - PRIME Location!,6062399292,unconfirmed,Yuval,Queens,Ridgewood,40.70899,-73.89494,United States,US,True,moderate,Private room,2022,$349 ,$70 ,30,2,6/20/2019,0.86,4,23,225,,
42264221,Beautiful  1 bedroom house near Verrazano bridge,35693119093,verified,Natalya,Staten Island,Arrochar,40.59809,-74.0656,United States,US,False,moderate,Entire home/apt,2015,$368 ,$74 ,2,12,7/1/2019,3.79,5,1,85,,
42264774,"New Years Eve, The Manhattan Club (A268)",64819892624,unconfirmed,William,Manhattan,Midtown,40.76447,-73.9816,United States,US,False,strict,Entire home/apt,2013,$830 ,$166 ,1,0,,,3,4,4,,
42265326,New York City - Double Room (A140),48993727888,verified,William,Manhattan,Midtown,40.75169,-73.97335,United States,US,True,flexible,Entire home/apt,2015,$857 ,$171 ,1,0,,,5,4,3,,
42265878,"New York City, Double Hotel Room (A142)",51594947875,unconfirmed,William,Manhattan,Midtown,40.75215,-73.97269,United States,US,False,strict,Entire home/apt,2011,$723 ,$145 ,1,0,,,5,4,3,,
42266431,Thanksgiving - New York City (A144),8247020891,unconfirmed,William,Manhattan,Midtown,40.75166,-73.97323,United States,US,False,flexible,Entire home/apt,2010,$266 ,$53 ,1,0,,,3,4,3,,
42266983,Cozy East Village Apartment,94180350660,unconfirmed,Amber,Manhattan,East Village,40.72412,-73.98891,United States,US,True,strict,Private room,2007,$82 ,$16 ,1,0,,,4,1,0,,
42267535,Beautiful lots of light room in the heart of LES,91828807723,unconfirmed,Milena,Manhattan,Lower East Side,40.719229999999996,-73.99336,United States,US,False,moderate,Private room,2011,$106 ,$21 ,30,0,,,3,4,332,,
42268087,Cozy room in Williamsburg near subway,77886538846,unconfirmed,Ekaterina,Brooklyn,Williamsburg,40.71965,-73.94234,United States,US,True,moderate,Private room,2015,"$1,156 ",$231 ,15,1,3/31/2019,0.3,4,1,37,,
42268640,Gorgeous Bushwick Townhome,85483375064,unconfirmed,Peter,Brooklyn,Bushwick,40.68638,-73.90863,United States,US,False,strict,Entire home/apt,2014,$572 ,$114 ,2,10,6/10/2019,2.83,3,1,112,,
42269192,Upper East Side Gem,13765589922,verified,William,Manhattan,Upper East Side,40.77817,-73.94743000000001,United States,US,False,moderate,Entire home/apt,2009,$467 ,$93 ,3,10,5/27/2019,2.56,2,1,0,,
42269744,Spacious! 3 bed 2bath 5min JFK & Resorts Casino,15503705327,verified,Larry,Queens,Jamaica,40.671929999999996,-73.77986,United States,US,False,moderate,Entire home/apt,2009,$837 ,$167 ,1,23,7/2/2019,8.52,5,1,121,,
42270297,Private rooftop exposed brick NYC apartment,33885165593,unconfirmed,Bel,Manhattan,Upper West Side,40.79553,-73.97388000000001,United States,US,False,strict,Entire home/apt,2011,$795 ,$159 ,3,3,3/29/2019,0.79,2,2,0,,
42270849,Cozy Bronx Home ( 2 nd floor),73280944778,verified,Bernadette,Bronx,Wakefield,40.889990000000004,-73.86008000000001,United States,US,True,flexible,Private room,2016,$806 ,$161 ,2,11,6/10/2019,3.17,3,1,54,,
42271401,"In the heart of Hunters Point, Long Island City",98304101095,unconfirmed,Lauro,Queens,Long Island City,40.745470000000005,-73.95198,United States,US,True,strict,Entire home/apt,2018,$211 ,$42 ,2,7,7/1/2019,2.26,5,1,40,,
42271954,Harlem Hideaway,50036789428,unconfirmed,Richardene,Manhattan,East Harlem,40.80305,-73.94163,United States,US,True,strict,Entire home/apt,2015,$372 ,$74 ,1,5,5/5/2019,1.2,5,1,338,,
42272506,"HuGe, Bright Room.",1966223809,verified,Khaled,Brooklyn,Bushwick,40.69762,-73.91999,United States,US,False,strict,Private room,2010,$146 ,$29 ,1,14,6/13/2019,3.23,4,1,189,,
42273058,Heart of NYC! 4BR Incredible Location!,83992438208,unconfirmed,Steven,Manhattan,Midtown,40.757,-73.96906,United States,US,True,moderate,Entire home/apt,2016,$51 ,$10 ,2,10,6/20/2019,2.97,4,1,103,,
42273610,Large Room in a Duplex Townhouse Style Apartment!,71082508626,unconfirmed,Renee,Manhattan,East Village,40.73018,-73.97981,United States,US,False,strict,Private room,2019,$352 ,$70 ,60,0,,,4,1,147,,
42274163,Lovely Spacious Home Close to Manhattan & Airports,80948355823,unconfirmed,Alba,Queens,Sunnyside,40.73802,-73.91901999999999,United States,US,True,moderate,Entire home/apt,2012,$102 ,$20 ,3,10,7/6/2019,2.48,4,2,123,,
42274715,The Refinery,80623298295,verified,Sebastian,Brooklyn,Carroll Gardens,40.682990000000004,-73.99928,United States,US,True,strict,Private room,2004,$571 ,$114 ,2,13,5/29/2019,3.42,2,2,160,,
42275267,Ladies Shared Cozy Space,61944002714,verified,Brianna,Manhattan,Kips Bay,40.74433,-73.97868000000001,United States,US,True,strict,Shared room,2008,$344 ,$69 ,2,1,5/10/2019,0.5,4,3,365,,
42275820,Clean and Modern Harlem 1 Bedroom,58474157146,unconfirmed,Erick,Manhattan,Harlem,40.80226,-73.95211,United States,US,False,strict,Entire home/apt,2009,$210 ,$42 ,2,3,5/22/2019,0.84,2,1,35,,
42276372,CentralPark/ Upper west /Columbia University,58661920956,unconfirmed,Miguel,Manhattan,Upper West Side,40.80007,-73.95981,United States,US,True,moderate,Entire home/apt,2020,$192 ,$38 ,1,27,7/5/2019,6.69,3,3,51,,
42276924,Luxury Studio in Nomad NYC,8570922707,unconfirmed,Hanna,Manhattan,Midtown,40.74389,-73.98536999999999,United States,US,True,flexible,Entire home/apt,2020,$423 ,$85 ,10,0,,,3,1,111,,
42277477,Bnb n Spa 30 minutes from Manhattan,62186729508,verified,Lilly Rose,Bronx,Westchester Square,40.84077,-73.8487,United States,US,True,strict,Private room,2014,$582 ,$116 ,3,6,6/3/2019,1.62,5,2,27,,
42278029,Gorgeous 1 BR apt in NYC with breathtaking views!,2750012065,verified,Kara,Manhattan,Hell's Kitchen,40.76077,-74.0002,United States,US,False,strict,Entire home/apt,2003,$434 ,$87 ,30,0,,,4,121,364,,
42278581,"Modern, Deluxe 1 bedroom apt in prime of NYC!",66002088413,verified,Kara,Manhattan,Hell's Kitchen,40.76168,-73.9996,United States,US,True,strict,Entire home/apt,2004,$661 ,$132 ,30,0,,,3,121,364,,
42279133,Heart of NYC- deluxe 1BR apt with gorgeous views,84303602276,unconfirmed,Kara,Manhattan,Hell's Kitchen,40.76212,-73.9981,United States,US,True,strict,Entire home/apt,2011,$267 ,$53 ,30,0,,,3,121,364,,
42279686,Gorgeous  Modern Cozy Manhattan Apartment!,85130088979,verified,Mj,Manhattan,Upper West Side,40.78334,-73.97927,United States,US,True,flexible,Entire home/apt,2009,"$1,168 ",$234 ,30,1,5/31/2019,0.75,2,1,311,,
42280238,Great room great view /10min to heart of NYC,49716508194,unconfirmed,Jingyeong,Queens,Maspeth,40.7412,-73.90552,United States,US,True,flexible,Private room,2016,$797 ,$159 ,1,2,6/16/2019,1.82,4,2,152,,
42280790,Brooklyn Heights garden window view cozy studio,9935099914,verified,Ornella,Brooklyn,Brooklyn Heights,40.6929,-73.99110999999999,United States,US,False,strict,Entire home/apt,2013,$132 ,$26 ,7,0,,,3,1,151,,
42281343,Iconic renovated tenement apartment!,49069042751,verified,Sarah,Manhattan,Lower East Side,40.72202,-73.98858,United States,US,False,strict,Entire home/apt,2004,$927 ,$185 ,2,1,5/27/2019,0.7,4,1,8,,
42281895,Cozy Greenpoint one bedroom apartment,84440760884,verified,Amanda,Brooklyn,Greenpoint,40.73142,-73.96023000000001,United States,US,True,strict,Entire home/apt,2018,$204 ,$41 ,2,9,6/25/2019,3.51,2,1,60,,
42282447,Freshly furnished private room - GREAT Location!,36354701159,unconfirmed,Yuval,Queens,Ridgewood,40.70912,-73.89685,United States,US,True,strict,Private room,2008,$446 ,$89 ,30,3,7/5/2019,0.86,3,23,311,,
42283000,Brand New Furnished Room in Prime NYC,6824317258,verified,Yuval,Queens,Ridgewood,40.70725,-73.89473000000001,United States,US,False,moderate,Private room,2004,$820 ,$164 ,30,1,6/9/2019,1.0,3,23,309,,
42283552,Cosy Crown Heights Brownstone,81231526140,verified,Tilly,Brooklyn,Crown Heights,40.67637,-73.95527,United States,US,True,strict,Entire home/apt,2018,$605 ,$121 ,3,0,,,2,2,0,,
42284104,Artist Designed Garden Floor With Sunny Back Yard,42360809734,verified,Brigitte,Brooklyn,Bedford-Stuyvesant,40.6854,-73.94253,United States,US,True,moderate,Entire home/apt,2018,"$1,124 ",$225 ,3,12,7/5/2019,4.0,3,1,301,,
42284656,Beautiful vintage apt in Williamsburg (ENTIRE APT),10515231096,unconfirmed,Luca,Brooklyn,Williamsburg,40.71438,-73.94359,United States,US,True,moderate,Entire home/apt,2011,"$1,093 ",$219 ,5,1,5/7/2019,0.48,3,1,121,,
42285209,3 - Private room in Yogi's BIG Midtown Manhattan,5312576734,unconfirmed,Yogi,Manhattan,Kips Bay,40.74123,-73.98058,United States,US,True,strict,Private room,2004,$973 ,$195 ,1,23,7/3/2019,5.9,2,3,55,,
42285761,"2 entire floors,2 (Website hidden by Airbnb) to everything.",13889474852,verified,Eddie,Queens,Rego Park,40.71702,-73.86183,United States,US,True,strict,Entire home/apt,2009,$833 ,$167 ,2,0,,,2,4,299,,
42286313,Gorgeous Dumbo 2-Bedroom w/ Incredible Views,15522539025,unconfirmed,Samantha,Brooklyn,DUMBO,40.70284,-73.99083,United States,US,False,flexible,Entire home/apt,2020,$593 ,$119 ,3,2,6/27/2019,2.0,4,1,242,,
42286866,Make this New Year's Eve Special in NYC,88365534273,verified,Deanna,Manhattan,Midtown,40.75333,-73.97266,United States,US,False,moderate,Private room,2010,$887 ,$177 ,3,0,,,3,1,160,,
42287418,2 Bedroom Apartment in Residential Neighborhood,2001800676,unconfirmed,Isabelle,Queens,Richmond Hill,40.70047,-73.84085999999999,United States,US,True,flexible,Entire home/apt,2013,$927 ,$185 ,7,0,,,2,3,52,,
42287970,New Beautiful Apt in Manhattan 30min to Midtown,7007578240,unconfirmed,Hiroki,Manhattan,Inwood,40.86428,-73.92199000000001,United States,US,True,moderate,Private room,2017,$897 ,$179 ,29,1,5/31/2019,0.77,3,37,32,,
42288523,Parkside Chateau,61188763729,verified,James R,Manhattan,Harlem,40.82335,-73.94901999999999,United States,US,False,strict,Private room,2005,$737 ,$147 ,1,2,6/16/2019,2.0,5,1,139,,
42289075,Large bright room in Brooklyn artist's apartment!,78831092161,verified,July,Brooklyn,Bedford-Stuyvesant,40.68362,-73.95692,United States,US,False,strict,Private room,2004,"$1,101 ",$220 ,1,1,5/26/2019,0.67,4,1,95,,
42289627,Apt in heart of Williamsburg,67171085972,unconfirmed,Joanna,Brooklyn,Williamsburg,40.71797,-73.95738,United States,US,True,flexible,Entire home/apt,2020,$640 ,$128 ,4,1,6/27/2019,1.0,5,1,122,,
42290179,Large & Adorable 2 Bedroom in the Heart of Bklyn,58681963237,verified,Samantha,Brooklyn,Gowanus,40.67886,-73.98702,United States,US,False,flexible,Entire home/apt,2021,"$1,190 ",$238 ,2,4,4/30/2019,1.2,4,2,0,,
42290732,"Quiet and Private Space in Bushwick, Brooklyn",58039920540,unconfirmed,Gina,Brooklyn,Bushwick,40.70725,-73.91966,United States,US,False,moderate,Entire home/apt,2020,$231 ,$46 ,3,1,3/24/2019,0.28,4,1,0,,
42291284,Cozy and modern bedstuy room,60400460574,unconfirmed,Jean-Paul,Brooklyn,Bedford-Stuyvesant,40.689,-73.94445,United States,US,True,moderate,Private room,2020,"$1,086 ",$217 ,1,3,4/28/2019,1.11,3,1,311,,
42291836,Ayo's Abode 2,38369136003,verified,Karin,Brooklyn,Bedford-Stuyvesant,40.6867,-73.93835,United States,US,True,flexible,Entire home/apt,2015,"$1,032 ",$206 ,1,6,5/5/2019,1.49,3,2,68,,
42292389,Bay Bungalow Bare-Minimum Occupancy,40890651302,verified,Christopher,Queens,Arverne,40.599000000000004,-73.79603,United States,US,True,strict,Private room,2010,$614 ,$123 ,3,11,6/5/2019,2.73,3,2,54,,
42292941,Cozy bedroom in South Harlem’s restaurant row,14076347141,verified,Frederic,Manhattan,Harlem,40.80252,-73.9547,United States,US,True,moderate,Private room,2019,$811 ,$162 ,1,17,6/13/2019,4.21,3,2,177,,
42293493,"Quiet, Cozy, Oassis",79377284453,verified,Ramón Emilio,Brooklyn,Bedford-Stuyvesant,40.67864,-73.91413,United States,US,True,moderate,Private room,2003,$294 ,$59 ,1,22,7/3/2019,6.11,3,1,12,,
42294046,Stylish & Cozy Room Same Street As The Subway,4174999595,verified,Marcelo,Brooklyn,Bedford-Stuyvesant,40.67803,-73.9102,United States,US,True,moderate,Private room,2008,$419 ,$84 ,1,17,6/16/2019,4.51,4,4,227,,
42294598,cozy and charming experience in China Town!,78790696384,verified,Jennifer,Manhattan,Chinatown,40.71432,-73.99866,United States,US,True,strict,Entire home/apt,2016,$275 ,$55 ,12,0,,,5,1,0,,
42295150,HUGE duplex floor for share with 1 girl,97102632537,unconfirmed,Karina,Brooklyn,Bedford-Stuyvesant,40.69348,-73.94757,United States,US,False,strict,Shared room,2022,$769 ,$154 ,18,8,6/23/2019,1.89,4,1,27,,
42295702,Pro-Music Recording Studio With  Bedroom & Lounge,44954986909,verified,Shelby,Brooklyn,Bedford-Stuyvesant,40.69025,-73.92491,United States,US,True,moderate,Private room,2009,$518 ,$104 ,1,0,,,5,1,179,,
42296255,"FIRST FLOOR CHARMING ONE BED, GREAT BED SIT...",57893692680,unconfirmed,Fairry,Manhattan,East Village,40.72675,-73.98651,United States,US,True,moderate,Entire home/apt,2005,$707 ,$141 ,3,0,,,3,1,0,,
42296807,Private Room in a chill home 20 mins to Manhattan,70495314084,unconfirmed,Melissa,Brooklyn,Bedford-Stuyvesant,40.69424,-73.93415999999999,United States,US,False,moderate,Private room,2022,$522 ,$104 ,2,22,7/1/2019,5.2,5,1,45,,
42297359,Cozy room in 3-bedroom bushwick apartment,29173572861,unconfirmed,Colton,Brooklyn,Bushwick,40.69493,-73.9273,United States,US,True,moderate,Private room,2007,$271 ,$54 ,10,1,4/1/2019,0.3,2,1,0,,
42297912,One bedroom unit in Lower East side.,24494445225,verified,Michael,Manhattan,Lower East Side,40.71867,-73.99082,United States,US,False,strict,Entire home/apt,2017,$141 ,$28 ,2,8,6/30/2019,2.24,3,1,33,,
42298464,Artist loft in Heart of Bushwick!,16056304435,verified,Farnaz,Brooklyn,Williamsburg,40.7027,-73.93571,United States,US,False,flexible,Private room,2003,$697 ,$139 ,3,0,,,5,1,0,,
42299016,Perfect UWS Furn. Rooms By Central Park & Transit,3914074852,verified,Jessica,Manhattan,Upper West Side,40.80102,-73.96528,United States,US,True,strict,Private room,2012,$616 ,$123 ,1,10,5/16/2019,2.38,2,4,0,,
42299569,Private 1 Bedroom Apartment in the Upper East,66237933599,verified,Forum,Manhattan,Upper East Side,40.77313,-73.94824,United States,US,True,moderate,Entire home/apt,2005,"$1,153 ",$231 ,2,5,5/8/2019,1.39,5,1,0,,
42300121,Spacious Room in the Heart of East Village!,94594507794,verified,Min,Manhattan,East Village,40.72789,-73.98557,United States,US,False,moderate,Private room,2006,$257 ,$51 ,30,1,5/11/2019,0.51,3,8,364,,
42300673,Sonder | The Nash | Warm Studio + Grilling Area,60864335297,verified,Sonder (NYC),Manhattan,Murray Hill,40.74928,-73.97453,United States,US,False,strict,Entire home/apt,2018,$98 ,$20 ,2,9,6/23/2019,2.35,4,327,113,,
42301225,Sonder | The Nash | Cozy Studio + Grilling Area,6565068211,verified,Sonder (NYC),Manhattan,Murray Hill,40.74835,-73.97612,United States,US,False,flexible,Entire home/apt,2004,"$1,109 ",$222 ,2,9,6/13/2019,2.31,2,327,133,,
42301778,Sonder | The Nash | Chic Studio + Rooftop,90217165198,unconfirmed,Sonder (NYC),Manhattan,Murray Hill,40.7488,-73.97522,United States,US,False,flexible,Entire home/apt,2022,"$1,026 ",$205 ,2,8,6/22/2019,1.95,5,327,105,,
42302330,My place 4 u,67066634028,verified,David,Brooklyn,Sea Gate,40.579190000000004,-74.00635,United States,US,False,strict,Entire home/apt,2018,"$1,013 ",$203 ,10,0,,,4,1,0,,
42302882,beautiful and clean  studio apartmen in Astoria,55421449534,verified,Abraham,Queens,Astoria,40.766040000000004,-73.93108000000001,United States,US,True,flexible,Entire home/apt,2007,"$1,156 ",$231 ,2,6,5/18/2019,1.54,3,1,309,,
42303435,Private Room in Historical Clinton Hill/Ft Greene,37506855806,unconfirmed,Anika,Brooklyn,Clinton Hill,40.69465,-73.96427,United States,US,False,flexible,Private room,2017,$181 ,$36 ,2,12,7/7/2019,2.98,2,1,0,,
42303987,"Cozy cypress hill 1BR apt near jfk , bars & mta .",75416166952,unconfirmed,Maria,Brooklyn,Cypress Hills,40.681259999999995,-73.89457,United States,US,False,strict,Private room,2018,$135 ,$27 ,1,10,6/23/2019,2.46,5,1,365,,
42304539,SPECIAL! NYC Summer - Reserve LOW Prices,59650786981,unconfirmed,Noel,Queens,East Elmhurst,40.759840000000004,-73.88228000000001,United States,US,False,flexible,Private room,2014,$658 ,$132 ,1,17,6/16/2019,6.46,4,4,208,,
42305092,West Village/Chelsea 3 bd For Long Term Stays,3223356579,verified,Richard,Manhattan,West Village,40.7406,-74.0062,United States,US,False,moderate,Entire home/apt,2019,$708 ,$142 ,105,0,,,4,2,85,,
42305644,Amazing  apt  Steps away from NYU and Union Square,67172933120,unconfirmed,Anna,Manhattan,East Village,40.73219,-73.98503000000001,United States,US,True,flexible,Entire home/apt,2007,$737 ,$147 ,4,9,6/22/2019,2.23,2,2,233,,
42306196,Brooklyn Best Kept Secrete!,21111459786,verified,Rain,Brooklyn,Bedford-Stuyvesant,40.68659,-73.91883,United States,US,False,strict,Private room,2007,$702 ,$140 ,4,0,,,2,1,179,,
42306748,Large 1BR Sublet UWS Luxury High-Rise,76985793359,verified,Shel,Manhattan,Upper West Side,40.791059999999995,-73.96785,United States,US,True,flexible,Entire home/apt,2020,"$1,082 ",$216 ,7,2,4/22/2019,0.65,2,1,0,,
42307301,Sunny Bedroom in Williamsburg,83555312236,unconfirmed,Nina,Brooklyn,Williamsburg,40.71315,-73.95695,United States,US,True,strict,Private room,2015,"$1,113 ",$223 ,1,12,6/17/2019,3.13,3,1,13,,
42307853,Sleep & The City (Women Shared Apartment),35253521138,verified,Brianna,Manhattan,Kips Bay,40.7423,-73.98016,United States,US,True,moderate,Shared room,2007,"$1,054 ",$211 ,2,1,6/18/2019,1.0,3,3,345,,
42308405,Rockacozy studio!,22693112200,verified,William,Queens,Belle Harbor,40.57553,-73.85299,United States,US,False,strict,Entire home/apt,2006,$868 ,$174 ,1,0,,,3,1,33,,
42308958,Packaged for one plus group (QUEEN),67948833227,verified,Glen,Brooklyn,East Flatbush,40.6472,-73.92951,United States,US,True,moderate,Private room,2018,$656 ,$131 ,2,4,6/23/2019,1.85,2,4,360,,
42309510,Packaged for one plus groups (ENSUITE KING),3385661217,unconfirmed,Glen,Brooklyn,East Flatbush,40.64659,-73.93058,United States,US,False,flexible,Private room,2004,$651 ,$130 ,2,6,6/30/2019,2.54,2,4,354,,
42310062,"Spacious, Sunlit Brooklyn Loft with City Views",44974158911,unconfirmed,Blake,Brooklyn,Crown Heights,40.6773,-73.9528,United States,US,True,flexible,Entire home/apt,2010,$120 ,$24 ,5,3,6/24/2019,1.15,4,1,179,,
42310615,"Charming BDR - 15min Manhattan-4min stn trains N,W",66714462056,verified,Vinicius,Queens,Ditmars Steinway,40.77482,-73.90852,United States,US,True,strict,Private room,2010,$596 ,$119 ,3,13,6/24/2019,3.71,3,2,208,,
42311167,Close to Flushing Main Street and Manhattan! (3D),20834558333,unconfirmed,Northern Star Realty,Queens,Flushing,40.76663,-73.81921,United States,US,False,moderate,Entire home/apt,2005,$146 ,$29 ,1,5,7/6/2019,1.69,2,4,145,,
42311719,曼岛中城 切尔西区CHESEA  21街 闹市中静怡如家的空间,47385659126,verified,Hong,Manhattan,Chelsea,40.742779999999996,-73.99765,United States,US,True,strict,Private room,2011,$413 ,$83 ,1,3,6/15/2019,2.5,2,1,0,,
42312271,Bay Ridge(guys only),8640863545,unconfirmed,Antony,Brooklyn,Bay Ridge,40.624390000000005,-74.02024,United States,US,True,strict,Shared room,2013,$802 ,$160 ,12,2,5/13/2019,0.86,2,12,0,,
42312824,Cozy furnished 2 Bedroom (30 day minimum),79572458946,verified,Eddie,Brooklyn,Bedford-Stuyvesant,40.69239,-73.94884,United States,US,False,flexible,Entire home/apt,2010,$850 ,$170 ,28,0,,,5,2,264,,
42313376,Nice Private Room in Manhattan,20186220260,verified,William,Manhattan,Washington Heights,40.84493,-73.93843000000001,United States,US,True,flexible,Private room,2012,$275 ,$55 ,1,25,6/26/2019,5.95,3,3,205,,
42313928,What’s better than “Glamping”  in NYC!!!,93526082661,unconfirmed,Jean,Queens,Elmhurst,40.74033,-73.88561,United States,US,True,strict,Private room,2014,"$1,107 ",$221 ,1,6,6/22/2019,1.61,4,1,89,,
42314481,"Generous, Light-Filled Room in Brooklyn Townhouse",31695975432,verified,Eugenia,Brooklyn,Brownsville,40.66863,-73.92169,United States,US,True,strict,Private room,2006,$482 ,$96 ,9,4,6/1/2019,1.29,3,2,12,,
42315033,Apartment 2,62343611840,verified,Joyce,Manhattan,Harlem,40.80299,-73.95443,United States,US,False,strict,Entire home/apt,2022,$605 ,$121 ,2,15,7/1/2019,4.21,5,1,22,,
42315585,LARGE ROOM  - 1 MONTH MINIMUM - WASHER&DRYER,90010621267,unconfirmed,Ozzy Ciao,Manhattan,Harlem,40.82391,-73.9471,United States,US,False,strict,Private room,2022,$897 ,$179 ,15,0,,,5,2,32,,
42316138,Enjoy the flavor of Spanish Harlem's rich culture.,11289098544,verified,Rosalina,Manhattan,East Harlem,40.79359,-73.9407,United States,US,True,moderate,Private room,2006,"$1,174 ",$235 ,2,2,7/6/2019,2.0,3,1,125,,
42316690,Worldclass Casa - Private Room - 5 min to JFK,139584674,unconfirmed,Tina,Queens,Springfield Gardens,40.69034,-73.74895,United States,US,True,moderate,Private room,2020,$232 ,$46 ,2,12,6/15/2019,2.95,3,3,89,,
42317242,LUXURY APT 3 BEDROOMS MIDTOWN Views >GYM>TERRACE,29763895354,unconfirmed,Shoshana,Manhattan,Murray Hill,40.74545,-73.97188,United States,US,True,strict,Entire home/apt,2020,"$1,137 ",$227 ,5,2,5/5/2019,0.6,2,1,339,,
42317794,Peaceful PRVT Room in Brooklyn Amenity Building,27026264421,verified,Lauren,Brooklyn,Bushwick,40.69319,-73.90547,United States,US,True,moderate,Private room,2009,$200 ,$40 ,30,0,,,4,3,142,,
42318347,Bedstuy Artists Quarter (fire escape room),11787830387,verified,Louis,Brooklyn,Bedford-Stuyvesant,40.684020000000004,-73.9424,United States,US,False,flexible,Private room,2021,$393 ,$79 ,1,1,3/11/2019,0.25,2,2,0,,
42318899,Israeli Stay NYC,65714541666,verified,Yoni,Manhattan,Chelsea,40.73948,-73.99555,United States,US,True,moderate,Private room,2014,$358 ,$72 ,1,0,,,3,1,90,,
42319451,G’s NYC Airbnb,54137827716,verified,Garrett,Manhattan,Washington Heights,40.835879999999996,-73.94095,United States,US,True,strict,Entire home/apt,2014,$603 ,$121 ,30,0,,,3,1,98,,
42320004,Private bedroom in heart of Downtown Manhattan,33327970020,verified,Ananth,Manhattan,Chelsea,40.739259999999994,-73.9946,United States,US,True,strict,Private room,2012,$214 ,$43 ,2,7,6/20/2019,2.73,5,1,11,,
42320556,Perfect apartment for the NYC experience,51226292431,unconfirmed,Ragini,Queens,Astoria,40.7561,-73.92578,United States,US,True,moderate,Entire home/apt,2019,$750 ,$150 ,1,1,5/12/2019,0.52,3,1,60,,
42321108,Private Bedroom in East Williamsburg,4914892986,unconfirmed,Vince,Brooklyn,Williamsburg,40.71373,-73.94034,United States,US,False,moderate,Private room,2009,$393 ,$79 ,3,0,,,3,1,0,,
42321661,Beautiful Room and private bath - Great Price!,13279732787,unconfirmed,Deborah,Queens,Forest Hills,40.71627,-73.83768,United States,US,False,strict,Private room,2014,$936 ,$187 ,2,2,4/29/2019,0.55,4,1,85,,
42322213,Cozy sofa-bed 2 in apartment!  Near to Manhattan !,12229468619,verified,Lucca & Paula,Queens,Astoria,40.76663,-73.91436,United States,US,False,strict,Shared room,2005,$408 ,$82 ,1,10,6/9/2019,2.36,4,7,313,,
42322765,Private Studio in the Center of Manhattan,92466655794,verified,Qing,Manhattan,Midtown,40.74968,-73.98722,United States,US,True,flexible,Entire home/apt,2017,$691 ,$138 ,1,7,6/16/2019,1.74,3,1,0,,
42323317,Spacious Sunnyside Room. Lots of Natural Lights.,68268184282,verified,Kazuya,Queens,Sunnyside,40.748740000000005,-73.91315,United States,US,True,moderate,Private room,2019,$715 ,$143 ,30,0,,,3,103,191,,
42323870,"Big Gorgeous Room•A/C| Close NYC 
Modern & Clean",12666484301,verified,Joselyn,Queens,Maspeth,40.72504,-73.88976,United States,US,False,strict,Private room,2007,$742 ,$148 ,2,9,6/23/2019,2.35,2,1,180,,
42324422,Immersive Chelsea's Art House! Great Location!!,11792069556,unconfirmed,Diego,Manhattan,Chelsea,40.749959999999994,-73.99488000000001,United States,US,False,moderate,Entire home/apt,2016,$387 ,$77 ,2,9,6/18/2019,3.03,5,1,151,,
42324974,Super cute & cozy 2BR home in Brooklyn,36837104448,verified,Rebecca,Brooklyn,Bedford-Stuyvesant,40.68376,-73.93336,United States,US,True,moderate,Entire home/apt,2012,"$1,026 ",$205 ,2,8,7/7/2019,2.03,2,1,0,,
42325527,Beautiful Bedroom in Manhattan,79432046891,verified,William,Manhattan,Washington Heights,40.84332,-73.93829000000001,United States,US,True,strict,Private room,2006,$237 ,$47 ,1,20,6/24/2019,4.88,3,3,227,,
42326079,Good Brooklyn shared apartment close to train,25958490629,unconfirmed,Anchor,Brooklyn,Bedford-Stuyvesant,40.67668,-73.91243,United States,US,True,strict,Shared room,2020,$310 ,$62 ,1,5,6/8/2019,1.5,5,17,89,,
42326631,HUGE Beautiful Brooklyn Loft,9049867981,verified,Kelsey,Brooklyn,Red Hook,40.680620000000005,-74.00721999999999,United States,US,False,moderate,Private room,2005,"$1,157 ",$231 ,2,1,5/1/2019,0.43,2,1,5,,
42327184,Beautiful & Clean 2B/2B near Times Square,1569126654,unconfirmed,Jasmine,Manhattan,Hell's Kitchen,40.7616,-73.99368,United States,US,True,strict,Entire home/apt,2010,$427 ,$85 ,2,19,7/4/2019,6.2,5,1,95,,
42327736,"Private 2bedrooms&bathroom near airport,train&city",8107414774,unconfirmed,Christina,Queens,Astoria,40.75676,-73.91334,United States,US,False,moderate,Private room,2015,$847 ,$169 ,1,4,7/2/2019,1.05,5,5,90,,
42328288,Clean and quite,95402562316,verified,Yany,Bronx,Williamsbridge,40.87498,-73.85644,United States,US,True,moderate,Private room,2022,"$1,032 ",$206 ,3,6,7/5/2019,1.57,3,1,49,,
42328840,1 brdm Apartment available July And August,52468712017,verified,Regina,Brooklyn,Brighton Beach,40.5765,-73.9685,United States,US,True,moderate,Entire home/apt,2010,$517 ,$103 ,30,0,,,5,1,0,,
42329393,Peaceful Sanctuary in the heart of the action,11857212726,verified,Gerrod & Rebecca,Manhattan,East Village,40.72412,-73.98283,United States,US,False,moderate,Entire home/apt,2006,$59 ,$12 ,1,16,7/5/2019,5.05,2,1,70,,
42329945,Cozy Boerum Hill Private 2 Bedroom Apartment,47629226508,verified,Tirinda,Brooklyn,Boerum Hill,40.684059999999995,-73.98481,United States,US,False,flexible,Entire home/apt,2006,$290 ,$58 ,1,12,6/11/2019,3.13,2,2,40,,
42330497,Luxury Modern Grand Central 2 BR  Apt Sleeps 5,32646157393,unconfirmed,Anna,Manhattan,Murray Hill,40.74929,-73.9779,United States,US,False,flexible,Entire home/apt,2012,"$1,166 ",$233 ,1,29,7/7/2019,7.13,3,2,247,,
42331050,New Williamsburg King Bed Condo,19421573663,unconfirmed,Jeff,Brooklyn,Williamsburg,40.71665,-73.9515,United States,US,True,flexible,Entire home/apt,2003,$237 ,$47 ,3,2,5/14/2019,0.77,5,1,159,,
42331602,2 Bedroom Refuge with Private Bath & Living Room,15495231423,verified,Julia,Bronx,City Island,40.83988,-73.78286999999999,United States,US,False,strict,Private room,2011,$565 ,$113 ,1,6,6/17/2019,1.65,5,2,359,,
42332154,"Soulful, Artistic Space in a Brooklyn Townhouse",55477050663,unconfirmed,Todd,Brooklyn,Park Slope,40.67687,-73.98170999999999,United States,US,False,flexible,Entire home/apt,2019,$420 ,$84 ,4,9,7/1/2019,2.33,4,1,227,,
42332707,Dream apartment facing Prospect Park,12208556562,unconfirmed,Diana,Brooklyn,Prospect-Lefferts Gardens,40.65974,-73.96134,United States,US,False,moderate,Entire home/apt,2006,$926 ,$185 ,29,0,,,4,1,0,,
42333259,Comfortable private single room (Queens),80093020112,unconfirmed,Sol,Queens,Middle Village,40.71474,-73.89931,United States,US,False,strict,Private room,2008,$874 ,$175 ,1,21,6/19/2019,6.49,4,1,14,,
42333811,Clean and Simple,32759502631,verified,Todd,Manhattan,Hell's Kitchen,40.76341,-73.99306,United States,US,False,strict,Entire home/apt,2006,$358 ,$72 ,3,9,7/1/2019,3.55,5,1,6,,
42334363,1 block to subway,2737653078,unconfirmed,Nalya,Brooklyn,Sheepshead Bay,40.59642,-73.95878,United States,US,False,moderate,Private room,2021,"$1,078 ",$216 ,3,2,4/14/2019,0.51,5,1,158,,
42334916,Private room in Upper East Side #14,52892953510,unconfirmed,Shai,Manhattan,Upper East Side,40.78365,-73.94723,United States,US,True,moderate,Private room,2004,"$1,195 ",$239 ,3,8,5/16/2019,2.4,3,9,50,,
42335468,Air conditioned Fantastic Private Room for 1 or 2,88683137878,unconfirmed,Yuki,Brooklyn,Bedford-Stuyvesant,40.6941,-73.93947,United States,US,True,flexible,Private room,2007,"$1,003 ",$201 ,5,4,6/14/2019,2.0,2,3,23,,
42336020,"Cozy, BRIGHT & AFFORDABLE STUDIO, heart of UES",58305072926,unconfirmed,Elena,Manhattan,Upper East Side,40.77032,-73.95498,United States,US,False,moderate,Entire home/apt,2017,"$1,178 ",$236 ,7,13,7/1/2019,3.17,5,1,34,,
42336573,Air conditioned Wonderful Private Room for 1 or 2,54431357877,verified,Yuki,Brooklyn,Bedford-Stuyvesant,40.69485,-73.93866,United States,US,False,strict,Private room,2017,$105 ,$21 ,5,6,6/16/2019,1.91,4,3,28,,
42337125,"Private Queen Room in 2Br
on Broadway Astoria",55986154936,verified,Dan,Queens,Astoria,40.76317,-73.92208000000001,United States,US,False,flexible,Private room,2010,$973 ,$195 ,21,0,,,5,1,0,,
42337677,A cool bedroom in cool Brooklyn,98252144685,unconfirmed,Sebastian,Brooklyn,Bedford-Stuyvesant,40.68743,-73.94451,United States,US,True,flexible,Private room,2003,$965 ,$193 ,7,2,6/30/2019,1.33,4,2,4,,
42338230,Spacious 2 bedroom apt in quiet area,76561832268,unconfirmed,Juan,Bronx,Baychester,40.8694,-73.84170999999999,United States,US,False,moderate,Entire home/apt,2014,$57 ,$11 ,2,11,6/30/2019,3.4,4,1,46,,
42338782,The livingroom turned bedroom in a 1Br apartment,53666809199,unconfirmed,Abrm,Queens,Astoria,40.77122,-73.92326,United States,US,True,moderate,Private room,2015,$269 ,$54 ,1,7,6/30/2019,2.1,4,2,25,,
42339334,West Village Apartment,7744908160,verified,Andrew,Manhattan,West Village,40.7319,-74.00489,United States,US,True,flexible,Entire home/apt,2014,$229 ,$46 ,1,4,5/21/2019,1.4,5,1,5,,
42339886,Private cozy room By Yankee stadium,29022585088,unconfirmed,Jovid,Bronx,Claremont Village,40.84355,-73.91103000000001,United States,US,True,moderate,Private room,2006,$520 ,$104 ,1,8,6/17/2019,2.67,2,1,358,,
42340439,"Private Cozy Room, easy to go around in NY City!",84392308225,unconfirmed,Helio,Queens,Long Island City,40.76266,-73.93929,United States,US,True,moderate,Private room,2008,$488 ,$98 ,7,1,7/6/2019,1.0,2,1,115,,
42340991,Elegant and convenient access,93811941628,verified,Carol,Bronx,Fordham,40.859120000000004,-73.89254,United States,US,True,moderate,Private room,2020,"$1,041 ",$208 ,3,0,,,4,2,0,,
42341543,Cozy Clean Two Bedroom Very near Fort Greene Park,28553137031,verified,Erica,Brooklyn,Fort Greene,40.694309999999994,-73.97289,United States,US,False,strict,Entire home/apt,2007,$97 ,$19 ,1,19,6/28/2019,5.18,3,1,30,,
42342096,Cozy East Side Sweet Spot with lots of Character,18721876121,unconfirmed,Linn,Manhattan,Upper East Side,40.775259999999996,-73.95333000000001,United States,US,True,moderate,Entire home/apt,2012,$405 ,$81 ,2,4,4/28/2019,1.4,5,1,0,,
42342648,Private half bath in Manhattan NEW construction,37089005419,verified,Hiroki,Manhattan,Inwood,40.86411,-73.92353,United States,US,True,moderate,Private room,2019,$778 ,$156 ,30,0,,,5,37,0,,
42343200,Everything is New. Rare New apartment in Manhattan,77109711846,unconfirmed,Hiroki,Manhattan,Inwood,40.86423,-73.92348,United States,US,True,moderate,Private room,2011,$896 ,$179 ,29,1,6/1/2019,0.79,5,37,32,,
42343753,Cozy Small Bedroom on Orchard,10322415795,unconfirmed,D,Manhattan,Lower East Side,40.718990000000005,-73.98968,United States,US,True,moderate,Private room,2005,"$1,169 ",$234 ,1,6,6/1/2019,2.02,2,3,155,,
42344305,Spacious Room in Beautiful Private House,72039488323,unconfirmed,Denise,Staten Island,Mariners Harbor,40.6396,-74.1661,United States,US,False,flexible,Private room,2020,$912 ,$182 ,1,10,6/29/2019,2.65,3,1,179,,
42344857,TW #8 Private Rm- 2nd Fl. Queen Bed  1 to 2 Guests,38555537391,unconfirmed,Sharon & Erika,Bronx,Schuylerville,40.83757,-73.8353,United States,US,False,strict,Private room,2018,"$1,001 ",$200 ,1,14,6/7/2019,6.36,3,5,229,,
42345409,TW #4 Private Rm 1st Fl. Full Size Bed 1 Guest,23999572985,unconfirmed,Sharon & Erika,Bronx,Schuylerville,40.83647,-73.83491,United States,US,True,flexible,Private room,2019,$497 ,$99 ,2,5,6/1/2019,1.9,5,5,183,,
42345962,Kips Bay Apartment,72437591047,verified,Gia,Manhattan,Kips Bay,40.74072,-73.97764000000001,United States,US,True,moderate,Entire home/apt,2017,$257 ,$51 ,2,6,5/19/2019,1.91,4,1,237,,
42346514,TW #6 Private Suite 2nd Fl.  1 to 4 Guests,83547132317,verified,Sharon & Erika,Bronx,Schuylerville,40.8356,-73.83369,United States,US,True,strict,Private room,2011,$479 ,$96 ,1,24,6/20/2019,8.37,5,5,247,,
42347066,"Perfect, charming apartment on Upper East Side",66135134541,verified,Lindsey,Manhattan,East Harlem,40.7889,-73.94925,United States,US,False,moderate,Entire home/apt,2017,$670 ,$134 ,2,6,6/24/2019,1.82,4,1,2,,
42347619,COZY COLORFUL CITY PAD BY ALL TRANSPORTATION LINES,34725060878,unconfirmed,Tk,Manhattan,East Village,40.724000000000004,-73.98933000000001,United States,US,False,moderate,Entire home/apt,2008,$856 ,$171 ,1,1,5/22/2019,0.63,4,1,365,,
42348171,Small Room In Single Room Occupancy,11838376390,verified,Jamika,Manhattan,Greenwich Village,40.73535,-73.99525,United States,US,True,strict,Private room,2004,"$1,052 ",$210 ,3,6,5/16/2019,1.88,5,1,175,,
42348723,Sweet home in NYC,44199131016,unconfirmed,Linda,Manhattan,Chelsea,40.74655,-74.00134,United States,US,False,moderate,Entire home/apt,2019,$709 ,$142 ,5,0,,,4,1,29,,
42349276,Private room close to the Central Park,28058970899,unconfirmed,Eugene,Manhattan,Harlem,40.82786,-73.94845,United States,US,True,moderate,Private room,2012,$842 ,$168 ,2,11,6/21/2019,4.18,3,2,64,,
42349828,Stylish Room in Times Square near Broadway Shows,2913494203,verified,Paramount Hotel,Manhattan,Theater District,40.76057,-73.98583,United States,US,False,flexible,Private room,2017,$414 ,$83 ,1,18,6/22/2019,6.59,4,7,364,,
42350380,XL Williamsburg Full Apartment for rent,29685073352,verified,Ramon,Brooklyn,Williamsburg,40.71813,-73.95964000000001,United States,US,False,moderate,Entire home/apt,2014,$223 ,$45 ,5,1,3/5/2019,0.24,2,1,14,,
42350932,Spacious & Bright 1 Bedroom in S. Williamsburg,43906227704,unconfirmed,Rep,Brooklyn,Williamsburg,40.71078,-73.96905,United States,US,True,flexible,Entire home/apt,2018,$891 ,$178 ,2,8,6/30/2019,2.67,2,1,2,,
42351485,Beautiful Bedroom in Trendy Neighborhood!,28109770510,unconfirmed,Karan,Brooklyn,Bedford-Stuyvesant,40.69141,-73.93021999999999,United States,US,False,moderate,Private room,2009,$479 ,$96 ,1,7,5/5/2019,1.72,5,1,0,,
42352037,"3-Bedroom Townhouse in Bed-Stuy, Brooklyn.",80526545683,verified,Zachariah And Jess,Brooklyn,Bedford-Stuyvesant,40.68891,-73.93200999999999,United States,US,False,moderate,Entire home/apt,2014,$464 ,$93 ,4,0,,,4,1,0,,
42352589,Sonder | The Nash | Original Studio + Rooftop,27314775755,verified,Sonder (NYC),Manhattan,Murray Hill,40.7475,-73.97569,United States,US,True,flexible,Entire home/apt,2022,$582 ,$116 ,2,5,6/3/2019,1.32,4,327,82,,
42353142,Unique West Village Loft,47845252456,unconfirmed,Ben,Manhattan,West Village,40.73283,-74.00734,United States,US,True,strict,Entire home/apt,2012,"$1,079 ",$216 ,2,7,6/4/2019,2.44,3,1,104,,
42353694,Slice of New York. Enjoy Ethnicity and culture!!,12936262569,unconfirmed,Xian,Bronx,Williamsbridge,40.88542,-73.86169,United States,US,False,strict,Private room,2018,$698 ,$140 ,2,3,5/5/2019,0.97,2,1,365,,
42354246,Sonder | The Nash | Alluring Studio + Rooftop,39424047616,verified,Sonder (NYC),Manhattan,Murray Hill,40.748509999999996,-73.97431,United States,US,True,strict,Entire home/apt,2004,$450 ,$90 ,29,0,,,5,327,341,,
42354799,The cutest little bungalow in Rockaway!,50308324699,verified,Lauren,Queens,Arverne,40.59384,-73.79392,United States,US,False,strict,Entire home/apt,2011,$235 ,$47 ,2,1,6/23/2019,1.0,4,1,2,,
42355351,Spacious Private Bedroom in a 3 bedroom apt.,1896237011,verified,Mel,Manhattan,Harlem,40.82908,-73.94096,United States,US,True,strict,Private room,2003,$171 ,$34 ,3,1,6/23/2019,1.0,3,1,188,,
42355903,Feel at home at this beautiful 2Br apartment!,52132351257,verified,Elad,Queens,Kew Gardens Hills,40.72876,-73.81967,United States,US,True,flexible,Entire home/apt,2019,$880 ,$176 ,13,1,5/25/2019,0.67,3,1,0,,
42356455,Amazing views in the center of it all. Look at the Empire State Building right from your bed!,79497039060,verified,Ang,Manhattan,Chelsea,40.74596,-73.99234,United States,US,False,moderate,Entire home/apt,2003,$959 ,$192 ,2,14,7/1/2019,3.96,5,1,149,,
42357008,Cozy Greenpoint Gem near park and hip amenities!,10763552235,unconfirmed,Allison,Brooklyn,Greenpoint,40.724340000000005,-73.93970999999999,United States,US,True,moderate,Private room,2022,$822 ,$164 ,7,1,3/24/2019,0.28,2,1,64,,
42357560,Cozy Room in Lovely East Village Apartment!,63413014538,unconfirmed,Min,Manhattan,East Village,40.72981,-73.98638000000001,United States,US,False,flexible,Private room,2015,$464 ,$93 ,30,0,,,3,8,310,,
42358112,Private Room,59496198186,verified,Kathleen,Brooklyn,Sunset Park,40.66061,-73.99765,United States,US,True,flexible,Private room,2017,$535 ,$107 ,1,5,4/7/2019,1.35,4,1,89,,
42358665,"Artsy, quiet haven in the Bronx’s little Ireland",78459067110,unconfirmed,John,Bronx,Woodlawn,40.899809999999995,-73.86684,United States,US,False,flexible,Private room,2020,"$1,121 ",$224 ,2,7,6/3/2019,1.84,5,1,70,,
42359217,7 train to visit New York City at your fingertips,69013862847,unconfirmed,Jose,Queens,Flushing,40.75747,-73.80868000000001,United States,US,False,moderate,Entire home/apt,2007,$549 ,$110 ,4,0,,,2,1,365,,
42359769,Quiet & Clean Living Room in Astoria,74517373953,unconfirmed,Paulina,Queens,Astoria,40.764520000000005,-73.92536,United States,US,False,moderate,Shared room,2019,$878 ,$176 ,1,11,4/30/2019,2.66,2,1,11,,
42360322,Vinyl Studio for Music Lovers,36253782864,unconfirmed,Daniel,Queens,Astoria,40.75705,-73.90697,United States,US,True,flexible,Entire home/apt,2019,$901 ,$180 ,4,0,,,3,1,2,,
42360874,"Bright, beautiful duplex apartment in Bushwick",83023041208,verified,Ellen,Brooklyn,Bushwick,40.69583,-73.93051,United States,US,False,flexible,Private room,2018,"$1,102 ",$220 ,4,0,,,3,1,263,,
42361426,Brand new Luxury apartment in a Luxury building,94379130860,unconfirmed,Aviel,Manhattan,Hell's Kitchen,40.76017,-73.99638,United States,US,True,moderate,Entire home/apt,2022,$563 ,$113 ,3,1,3/9/2019,0.24,5,1,0,,
42361978,Cozy UES Apartment,56684930805,verified,Lacey,Manhattan,Upper East Side,40.76494,-73.95808000000001,United States,US,True,strict,Entire home/apt,2015,$546 ,$109 ,2,4,5/31/2019,1.24,5,1,1,,
42362531,BROOKLYN 2BR RESIDENCE CLOSE TO TRAIN/Manhattan,14338879432,unconfirmed,Rhykel & Glenny,Brooklyn,Cypress Hills,40.67915,-73.89986,United States,US,False,flexible,Entire home/apt,2014,$885 ,$177 ,2,20,7/3/2019,5.56,4,1,297,,
42363083,Enjoy Summer in the West Village.,49019922889,verified,Nick,Manhattan,West Village,40.73598,-74.0048,United States,US,True,strict,Entire home/apt,2015,$314 ,$63 ,30,4,6/16/2019,1.85,3,1,47,,
42363635,HUGE Private Union Square/East Village Apartment,70221878036,verified,Morgan,Manhattan,East Village,40.73226,-73.98983,United States,US,True,flexible,Entire home/apt,2022,$150 ,$30 ,2,12,6/21/2019,3.16,4,1,32,,
42364188,Cozy clean quiet room with lock and key #1,79142079492,unconfirmed,Ronald And Cookie,Bronx,Wakefield,40.89393,-73.8581,United States,US,True,strict,Private room,2003,"$1,048 ",$210 ,2,14,7/1/2019,3.59,2,2,132,,
42364740,"Clean, Private BDR and BATHROOM in LES/Chinatown!",18326407643,unconfirmed,Ravi,Manhattan,Lower East Side,40.71952,-73.99167,United States,US,False,strict,Private room,2015,$803 ,$161 ,3,14,6/30/2019,3.96,5,1,36,,
42365292,"Simple,clean,cozy room with lock and key #2 ,",75589312698,unconfirmed,Ronald And Cookie,Bronx,Wakefield,40.89604,-73.85876999999999,United States,US,False,moderate,Private room,2021,$863 ,$173 ,2,20,6/24/2019,4.96,5,2,117,,
42365845,The Grand Clinton Hill AirBnB,91611263281,unconfirmed,Keith,Brooklyn,Bedford-Stuyvesant,40.68873,-73.95472,United States,US,True,strict,Private room,2005,$319 ,$64 ,1,18,6/23/2019,4.7,3,1,142,,
42366397,Brooklyn classy suite (7day minimum),27559043290,verified,Eddie,Brooklyn,Bedford-Stuyvesant,40.69417,-73.94734,United States,US,True,moderate,Entire home/apt,2021,"$1,155 ",$231 ,7,8,6/23/2019,2.16,3,2,243,,
42366949,Beckoning ”Bed-Stay” 2 BR Suite in Bed-Stuy,66499638157,verified,Donna,Brooklyn,Bedford-Stuyvesant,40.68343,-73.92746,United States,US,False,strict,Entire home/apt,2019,$838 ,$168 ,2,11,6/29/2019,3.37,4,1,280,,
42367501,1BR SoHo Apt w/ your own private backyard.,10312826039,unconfirmed,Erica,Manhattan,Greenwich Village,40.72848,-74.00269,United States,US,False,moderate,Entire home/apt,2007,$682 ,$136 ,1,8,6/22/2019,2.96,4,1,192,,
42368054,[NEWLY RENOVATED] -  SMACK DAB IN THE ❤️ of NYC,62855198977,unconfirmed,Shubham,Manhattan,Hell's Kitchen,40.766490000000005,-73.98727,United States,US,True,flexible,Entire home/apt,2004,$938 ,$188 ,3,10,6/14/2019,2.68,4,1,81,,
42368606,Cozy apartment w/ Magnificent View!,48938802935,verified,Jimmy,Manhattan,Battery Park City,40.70966,-74.01644,United States,US,True,strict,Private room,2015,$315 ,$63 ,2,3,4/15/2019,0.93,4,1,2,,
42369158,Manhattan Lifestyle by Melanie (Females Only),18948744644,verified,Melanie,Manhattan,Kips Bay,40.74434,-73.97758,United States,US,True,moderate,Shared room,2008,$746 ,$149 ,2,2,6/26/2019,0.59,2,3,297,,
42369711,Charming bedroom in the heart of Flatiron,3821142404,unconfirmed,Tia,Manhattan,Flatiron District,40.73885,-73.98786,United States,US,False,moderate,Private room,2003,$734 ,$147 ,1,2,5/24/2019,1.13,3,1,13,,
42370263,2 - Private room in Yogi's BIG Midtown Manhattan,5723245366,verified,Yogi,Manhattan,Kips Bay,40.74138,-73.98168000000001,United States,US,True,strict,Private room,2013,$68 ,$14 ,1,19,6/23/2019,6.63,3,3,37,,
42370815,"Spacious, clean room in midtown west.",49684408691,verified,Mordy,Manhattan,Hell's Kitchen,40.77041,-73.99242,United States,US,False,moderate,Private room,2013,"$1,177 ",$235 ,2,0,,,5,1,88,,
42371368,1 - Private room in Yogi's BIG Midtown Manhattan,36911611057,unconfirmed,Yogi,Manhattan,Kips Bay,40.740559999999995,-73.98076999999999,United States,US,False,flexible,Private room,2018,$244 ,$49 ,1,24,7/1/2019,6.43,3,3,35,,
42371920,Cozy private room in the heart of NYC 51E1,12046518400,verified,John,Manhattan,Hell's Kitchen,40.75378,-73.9955,United States,US,False,strict,Private room,2008,"$1,103 ",$221 ,7,4,6/7/2019,1.69,2,47,318,,
42372472,Private Room Right Off L Train,98013815887,unconfirmed,Aurora,Brooklyn,Williamsburg,40.70754,-73.94151,United States,US,False,strict,Private room,2005,$527 ,$105 ,3,3,6/26/2019,1.3,5,2,5,,
42373024,Stylish & Convenient 2BR off Park Ave,92413803152,unconfirmed,Svetlana,Manhattan,Murray Hill,40.7494,-73.9784,United States,US,False,moderate,Entire home/apt,2021,$671 ,$134 ,30,6,6/8/2019,1.94,4,1,135,,
42373577,"Comfy room in large, dog-friendly apt w/ balcony",93358399205,unconfirmed,Alex,Brooklyn,Williamsburg,40.710359999999994,-73.94053000000001,United States,US,True,strict,Private room,2009,"$1,153 ",$231 ,2,13,6/1/2019,3.25,4,4,25,,
42374129,4mins to Manhattan Bound 7train; 10mins to LGA (1),54852395529,unconfirmed,Frank,Queens,Jackson Heights,40.75298,-73.87675,United States,US,False,strict,Private room,2012,$496 ,$99 ,2,8,6/20/2019,2.42,5,6,75,,
42374681,Bright Private Bed/Bath in the Heart of Ft Greene,43001115027,unconfirmed,Christiana,Brooklyn,Fort Greene,40.69258,-73.97285,United States,US,True,strict,Private room,2012,$56 ,$11 ,1,12,6/10/2019,3.87,5,1,0,,
42375234,Private Room 15 min to Midtown Manhattan,68633254514,unconfirmed,Felix,Queens,Long Island City,40.75074,-73.93648,United States,US,False,strict,Private room,2009,$365 ,$73 ,2,15,7/2/2019,3.95,3,2,37,,
42375786,Bed-Stuy Modern and Minimal,90055166424,unconfirmed,Alexandra,Brooklyn,Bedford-Stuyvesant,40.68851,-73.95174,United States,US,False,strict,Private room,2012,$172 ,$34 ,3,3,6/15/2019,0.82,4,2,197,,
42376338,Wyndham Midtown 45 in NYC,90125710688,unconfirmed,Michael,Manhattan,Midtown,40.7515,-73.97206,United States,US,False,moderate,Entire home/apt,2011,"$1,128 ",$226 ,2,0,,,3,1,65,,
42376891,Bed-Stuy Bookhouse,90850116767,unconfirmed,Hadass,Brooklyn,Bedford-Stuyvesant,40.689890000000005,-73.94469000000001,United States,US,True,strict,Entire home/apt,2016,$780 ,$156 ,2,5,6/18/2019,2.5,5,3,0,,
42377443,Habitación privada cerca aeropuerto la Guardia.,19364204008,unconfirmed,Diana Carolina,Queens,East Elmhurst,40.760909999999996,-73.88686,United States,US,True,flexible,Private room,2017,$521 ,$104 ,2,11,7/1/2019,3.67,5,2,294,,
42377995,Spacious and peaceful Park Slope apartment!,33149052452,verified,Anastasia,Brooklyn,Gowanus,40.67757,-73.98845,United States,US,True,moderate,Entire home/apt,2014,$889 ,$178 ,2,19,7/1/2019,4.96,4,2,209,,
42378547,Super Sunny Room in Ditmas Park,78574821714,unconfirmed,Claire,Brooklyn,Kensington,40.64217,-73.9714,United States,US,False,strict,Private room,2014,"$1,030 ",$206 ,1,7,6/20/2019,1.86,5,1,0,,
42379100,Homey Room in StuyTown,35194332950,unconfirmed,Steven,Manhattan,Stuyvesant Town,40.73379,-73.97754,United States,US,True,strict,Private room,2007,$459 ,$92 ,1,4,3/26/2019,0.97,3,1,1,,
42379652,Cozy and Modern Bedroom in Williamsburg,85691269255,unconfirmed,Clara,Brooklyn,Williamsburg,40.71468,-73.95825,United States,US,True,flexible,Private room,2008,"$1,035 ",$207 ,1,7,6/8/2019,2.23,5,1,0,,
42380204,Sonder | Stock Exchange | Unique 1BR + Lounge,61511602562,verified,Sonder (NYC),Manhattan,Financial District,40.705999999999996,-74.01068000000001,United States,US,True,strict,Entire home/apt,2019,$337 ,$67 ,2,10,6/12/2019,2.78,5,327,354,,
42380757,"❋ FAB BROOKLYN ROOM ❋ PRIVATE ENSUITE, 2 BED'S ;-)",21615395939,unconfirmed,Daniel,Brooklyn,Bushwick,40.69826,-73.93474,United States,US,True,flexible,Private room,2003,$989 ,$198 ,1,26,7/7/2019,7.03,3,1,70,,
42381309,Beautiful bed room and separate bathroom,65361370983,unconfirmed,Waqas,Brooklyn,Flatlands,40.6246,-73.92709,United States,US,False,moderate,Private room,2015,$426 ,$85 ,1,1,6/4/2019,0.83,4,2,37,,
42381861,"Fresh, Spacious 2-Bed with Garage Parking",40568100904,verified,Sunny,Queens,Flushing,40.745509999999996,-73.82661999999999,United States,US,False,strict,Entire home/apt,2009,$833 ,$167 ,3,10,7/1/2019,2.68,2,1,51,,
42382414,Beautiful bedroom and full bathroom,94708805778,unconfirmed,Waqas,Brooklyn,Flatlands,40.626459999999994,-73.92754000000001,United States,US,True,flexible,Private room,2003,$155 ,$31 ,1,16,6/22/2019,5.05,4,2,151,,
42382966,"Cute, Vintage Studio on UES Close to Express Q",14532779705,unconfirmed,Andrea,Manhattan,Upper East Side,40.77085,-73.94933,United States,US,True,moderate,Entire home/apt,2019,$154 ,$31 ,2,1,4/21/2019,0.38,3,1,0,,
42383518,New York Comfort Stay!,51105608600,unconfirmed,Serena,Queens,Flushing,40.76177,-73.79415,United States,US,True,strict,Entire home/apt,2014,$423 ,$85 ,3,12,7/5/2019,3.13,3,2,178,,
42384070,Private studio with balcony near LGA and Manhattan,61221793955,verified,Jacqueline,Queens,East Elmhurst,40.76292,-73.87906,United States,US,False,strict,Private room,2004,$502 ,$100 ,3,2,6/22/2019,2.0,5,2,37,,
42384623,"Cozy & Modern, 1 bed apt in Hell’s Kitchen!!",25227089409,verified,Isabel & Micah,Manhattan,Hell's Kitchen,40.764140000000005,-73.98652,United States,US,True,flexible,Entire home/apt,2006,$358 ,$72 ,3,0,,,3,1,0,,
42385175,Cozy East Village Apartment,29256607068,unconfirmed,Amber,Manhattan,East Village,40.72423,-73.98816,United States,US,True,moderate,Private room,2017,$432 ,$86 ,3,26,6/25/2019,7.88,3,3,220,,
42385727,Stylish Room w/ 2 Twin Beds in Times Square,41922035433,verified,Paramount Hotel,Manhattan,Theater District,40.76035,-73.98586999999999,United States,US,False,flexible,Private room,2021,$637 ,$127 ,1,13,6/18/2019,5.42,4,7,331,,
42386280,Place like home,87034075658,unconfirmed,Rajwinder,Queens,Jamaica,40.70949,-73.79304,United States,US,True,strict,Entire home/apt,2003,$786 ,$157 ,1,0,,,4,1,0,,
42386832,Private 2 Bedroom APT Close to City & Expressway.,58131509909,verified,Ilya,Queens,Fresh Meadows,40.735659999999996,-73.79059000000001,United States,US,True,flexible,Entire home/apt,2012,$123 ,$25 ,3,17,7/7/2019,4.51,5,1,329,,
42387384,"Modern, Private Bedroom in East Harlem",3618701900,unconfirmed,Carly,Manhattan,East Harlem,40.79368,-73.94294000000001,United States,US,True,moderate,Private room,2009,$656 ,$131 ,2,3,5/5/2019,0.89,2,1,0,,
42387937,In the Heart of Astoria,84100438952,verified,Kat,Queens,Ditmars Steinway,40.77248,-73.91665,United States,US,False,strict,Entire home/apt,2011,$523 ,$105 ,2,1,5/6/2019,0.47,2,1,3,,
42388489,Brooklyn sun kissed studio apartment!,27170702640,verified,James And Laureta,Brooklyn,Bedford-Stuyvesant,40.68573,-73.9527,United States,US,True,flexible,Entire home/apt,2018,"$1,064 ",$213 ,1,14,6/24/2019,3.59,2,5,63,,
42389041,Brooklyn stylish studio apartment!,45940995623,verified,James And Laureta,Brooklyn,Bedford-Stuyvesant,40.68543,-73.95415,United States,US,True,strict,Entire home/apt,2011,"$1,160 ",$232 ,1,14,6/20/2019,3.39,5,5,55,,
42389593,3 Bedroom Artist Loft in Williamsburg Prime,17895433418,verified,Renzo,Brooklyn,Williamsburg,40.71565,-73.95837,United States,US,False,flexible,Entire home/apt,2008,$417 ,$83 ,2,17,7/3/2019,4.47,4,1,310,,
42390146,Cozy Apartment,34533283739,unconfirmed,Sean,Brooklyn,Bedford-Stuyvesant,40.68391,-73.91721,United States,US,False,moderate,Private room,2011,$860 ,$172 ,1,4,6/2/2019,1.26,3,2,267,,
42390698,"IVORY COAST ROOM
Is your home away from home",14495454069,verified,Denise,Brooklyn,Crown Heights,40.67248,-73.92962,United States,US,False,flexible,Private room,2009,$882 ,$176 ,5,2,6/15/2019,1.54,5,7,308,,
42391250,Stevie's,78067505001,unconfirmed,Steve,Manhattan,Washington Heights,40.84751,-73.93864,United States,US,False,flexible,Private room,2008,$550 ,$110 ,2,1,4/13/2019,0.34,2,1,35,,
42391803,Luxurious 1BR Gorgeous City View High Elevation,28452015319,verified,Paul,Manhattan,Hell's Kitchen,40.76195,-73.98770999999999,United States,US,True,moderate,Entire home/apt,2014,$610 ,$122 ,2,14,6/14/2019,4.24,5,1,212,,
42392355,"Cozy, Confortable and Nice place in Bay Ridge",4924203797,verified,Stefany,Brooklyn,Bay Ridge,40.63238,-74.02382,United States,US,True,moderate,Private room,2011,$975 ,$195 ,1,22,6/26/2019,5.32,2,1,83,,
42392907,NYUW05-3:Columbus university Central Park one room,80209859162,unconfirmed,Laura,Manhattan,Upper West Side,40.8022,-73.96483,United States,US,False,flexible,Private room,2015,$438 ,$88 ,15,0,,,3,12,179,,
42393460,Cozy Clean Clutter-free Apartment with Office,78111120767,unconfirmed,George & Diana,Queens,Astoria,40.76235,-73.92138,United States,US,True,moderate,Entire home/apt,2013,$105 ,$21 ,2,16,6/14/2019,4.21,4,2,79,,
42394012,"Dapper W.Village Studio w/Doorman, close to subway by Blueground",61739019667,unconfirmed,Blueground,Manhattan,West Village,40.7304,-74.00301,United States,US,False,flexible,Entire home/apt,2010,"$1,182 ",$236 ,30,0,,,4,232,310,,
42394564,10 min to Manhattan: Cozy share,38461958122,verified,Helena,Brooklyn,Fort Greene,40.686370000000004,-73.97431,United States,US,False,strict,Shared room,2022,$944 ,$189 ,2,8,6/14/2019,1.95,4,5,32,,
42395116,Brooklyn modern studio apartment!,3542731539,unconfirmed,James And Laureta,Brooklyn,Bedford-Stuyvesant,40.68533,-73.95278,United States,US,True,flexible,Entire home/apt,2016,$833 ,$167 ,1,15,6/20/2019,3.66,5,5,48,,
42395669,Classic Hells Kitchen Haven,28752952002,verified,Bret,Manhattan,Hell's Kitchen,40.769259999999996,-73.98746,United States,US,True,strict,Private room,2006,"$1,045 ",$209 ,1,14,6/10/2019,3.5,5,1,7,,
42396221,Brooklyn charming studio apartment!,90701902017,verified,James And Laureta,Brooklyn,Bedford-Stuyvesant,40.68571,-73.95265,United States,US,True,moderate,Entire home/apt,2021,"$1,090 ",$218 ,1,10,6/7/2019,2.42,4,5,50,,
42396773,Live like a true New Yorker!,68146810788,verified,Artez,Manhattan,Hell's Kitchen,40.75658,-73.99734000000001,United States,US,False,flexible,Entire home/apt,2010,$101 ,$20 ,3,7,6/13/2019,1.98,4,1,0,,
42397326,Bedroom & common area w/ private back yard.,97991307698,verified,Keegan,Brooklyn,Bushwick,40.68881,-73.91991999999999,United States,US,False,moderate,Private room,2006,"$1,023 ",$205 ,5,18,6/16/2019,7.01,2,1,12,,
42397878,Bed-Stuy townhome ideal for families/entertaining,409271991,verified,Kate,Brooklyn,Bedford-Stuyvesant,40.69148,-73.94994,United States,US,True,moderate,Entire home/apt,2003,$115 ,$23 ,5,1,4/28/2019,0.42,4,1,4,,
42398430,VIP,42396699068,unconfirmed,Issouf,Bronx,Mott Haven,40.81058,-73.9069,United States,US,True,flexible,Private room,2011,$727 ,$145 ,5,0,,,5,1,179,,
42398983,San Carlos Hotel Executive Junior Suite(B)up to 4,54702406888,unconfirmed,Janet,Manhattan,Midtown,40.75628,-73.97072,United States,US,True,flexible,Private room,2006,"$1,040 ",$208 ,1,2,6/4/2019,1.13,4,11,179,,
42399535,Furnished room in Manhattan Apt!,25951878706,unconfirmed,Marisa,Manhattan,Kips Bay,40.74068,-73.97848,United States,US,True,moderate,Private room,2012,$935 ,$187 ,30,0,,,2,1,83,,
42400087,Cozy Apartment near NYC Central Park & Riverside,44564197999,unconfirmed,Dominique,Manhattan,Upper West Side,40.8022,-73.9666,United States,US,False,flexible,Entire home/apt,2011,$904 ,$181 ,7,8,6/22/2019,2.53,3,1,176,,
42400639,Sunny studio in Manhattan near Central Park,25354240126,verified,Georgiana,Manhattan,Upper West Side,40.784929999999996,-73.97294000000001,United States,US,False,strict,Entire home/apt,2018,$668 ,$134 ,5,7,7/2/2019,2.44,4,1,19,,
42401192,Quiet Private Room in Heart of Jamaica smoke ok!,41818046119,verified,Gedan,Queens,Jamaica,40.681,-73.79592,United States,US,True,strict,Private room,2020,$69 ,$14 ,1,3,5/23/2019,0.74,2,2,189,,
42401744,Casa Linda on Linden - 8 minutes to JFK Airport,38453566108,verified,Gonzalo And Nora,Queens,Jamaica,40.688159999999996,-73.78974000000001,United States,US,True,flexible,Entire home/apt,2003,$761 ,$152 ,3,8,6/17/2019,2.79,5,2,336,,
42402296,Park views and city fun for July & August,20617457734,unconfirmed,Teri,Brooklyn,Prospect-Lefferts Gardens,40.6622,-73.96208,United States,US,False,strict,Entire home/apt,2012,$753 ,$151 ,30,0,,,3,1,129,,
42402849,Loft on Ludlow (LES/Chinatown),98677667940,verified,Max,Manhattan,Chinatown,40.71614,-73.99047,United States,US,True,strict,Entire home/apt,2010,$656 ,$131 ,2,0,,,2,1,0,,
42403401,Sonder | The Nash | Relaxed 1BR + Rooftop,13815225777,verified,Sonder (NYC),Manhattan,Murray Hill,40.74896,-73.97521,United States,US,False,strict,Entire home/apt,2012,"$1,081 ",$216 ,29,0,,,5,327,330,,
42403953,Amazing location 10min to the city,54486270606,unconfirmed,Helena,Brooklyn,Fort Greene,40.6865,-73.9729,United States,US,True,flexible,Shared room,2014,$489 ,$98 ,2,3,5/19/2019,0.81,5,5,31,,
42404506,"Big, brt rm w/ king bed+ pvt bath in HK/MT West",79552845943,verified,Anne,Manhattan,Hell's Kitchen,40.76575,-73.98938000000001,United States,US,False,strict,Private room,2006,$835 ,$167 ,1,14,5/29/2019,3.65,2,1,0,,
42405058,Air conditioned Excellent Private Room for 1,34120401483,unconfirmed,Yuki,Brooklyn,Bedford-Stuyvesant,40.69271,-73.93799,United States,US,True,flexible,Private room,2019,$185 ,$37 ,5,3,5/11/2019,0.76,4,3,23,,
42405610,Spacious 1 Bedroom in the West Village,14973763072,unconfirmed,Madison,Manhattan,West Village,40.73341,-74.00444,United States,US,False,flexible,Entire home/apt,2005,"$1,015 ",$203 ,2,3,6/27/2019,3.0,2,1,2,,
42406162,"Luxury building studio, swimmingpool, pet friendly",95456461730,verified,Mia,Brooklyn,Williamsburg,40.72136,-73.95532,United States,US,True,moderate,Entire home/apt,2014,"$1,086 ",$217 ,2,1,4/27/2019,0.41,4,1,350,,
42406715,The Artist,88109170988,unconfirmed,Sebastian,Brooklyn,Carroll Gardens,40.681329999999996,-73.99944,United States,US,True,flexible,Private room,2010,"$1,128 ",$226 ,2,20,6/23/2019,5.5,5,2,154,,
42407267,BEST SIDE OF BED-STUY,88026641874,unconfirmed,David,Brooklyn,Bedford-Stuyvesant,40.68725,-73.94625,United States,US,True,moderate,Private room,2014,$417 ,$83 ,1,20,7/7/2019,5.04,4,2,242,,
42407819,Room in Astoria,32920860399,unconfirmed,Diego,Queens,Astoria,40.75492,-73.91548,United States,US,True,flexible,Private room,2019,$155 ,$31 ,4,0,,,3,1,114,,
42408372,Bed-Style! One bedroom apt. in trendy neighborhood,90872807290,verified,Kourtney,Brooklyn,Bedford-Stuyvesant,40.68779,-73.92130999999999,United States,US,True,strict,Entire home/apt,2017,$116 ,$23 ,1,0,,,3,1,116,,
42408924,Private room - Midtown West elevator building,19054055539,verified,Stacey,Manhattan,Hell's Kitchen,40.75493,-73.99676,United States,US,False,strict,Private room,2020,$506 ,$101 ,2,8,6/12/2019,2.4,2,1,0,,
42409476,Luxury Studio High Rise 10 mins from Times Sq NY!,69903282525,unconfirmed,Evelyn,Queens,Long Island City,40.74881,-73.94315999999999,United States,US,True,moderate,Entire home/apt,2022,$884 ,$177 ,3,1,5/10/2019,0.5,4,7,24,,
42410029,"Williamsburg 2-Story Penthouse, Large Private Deck",95464692280,unconfirmed,Arielle,Brooklyn,Williamsburg,40.72124,-73.95984,United States,US,True,moderate,Entire home/apt,2005,$524 ,$105 ,2,10,6/19/2019,2.63,2,2,351,,
42410581,Private room in a perfect location in the city,89604169567,verified,Shai,Manhattan,Upper East Side,40.76174,-73.96625,United States,US,True,moderate,Private room,2016,$360 ,$72 ,3,1,3/12/2019,0.25,3,1,8,,
42411133,"Cozy place to stay, 30 min away from Manhattan.",37716383660,verified,Raya,Brooklyn,Borough Park,40.62688,-73.99795,United States,US,True,strict,Shared room,2013,$362 ,$72 ,3,1,3/13/2019,0.25,2,1,177,,
42411685,Huge brooklyn duplex,60775896573,unconfirmed,Kynara,Brooklyn,Bedford-Stuyvesant,40.68274,-73.91272,United States,US,False,moderate,Private room,2019,$304 ,$61 ,1,5,6/1/2019,1.28,4,1,37,,
42412238,"Cozy, spacious room in Bed-Stuy",6959558077,unconfirmed,Kelly,Brooklyn,Bedford-Stuyvesant,40.68845,-73.9439,United States,US,True,flexible,Private room,2011,$747 ,$149 ,1,7,6/10/2019,2.56,2,1,0,,
42412790,Bright Designer 1 Bedroom in Heart of Manhattan,7935115435,verified,Danielle,Manhattan,Chelsea,40.74184,-73.9981,United States,US,True,strict,Entire home/apt,2007,$233 ,$47 ,7,3,6/26/2019,2.31,5,1,0,,
42413342,Dash Production loft,53311411653,verified,Antwoine,Brooklyn,Crown Heights,40.67041,-73.9463,United States,US,True,flexible,Private room,2022,$875 ,$175 ,1,1,5/19/2019,0.58,3,1,364,,
42413895,beautifulROOM/Safe&comfortable/ near LG& JFK,47994915965,verified,Jay/Carolina Bastidas Family,Brooklyn,Cypress Hills,40.68258,-73.87731,United States,US,False,flexible,Private room,2017,$444 ,$89 ,7,1,5/13/2019,0.52,2,2,365,,
42414447,Comfortable Single Room - 15min Manhattan,5169156854,unconfirmed,Vinicius,Queens,Ditmars Steinway,40.77558,-73.90941,United States,US,True,strict,Private room,2003,$280 ,$56 ,3,13,6/24/2019,3.71,2,2,220,,
42414999,Brand new charming modern apartment,83422142089,verified,Kristin,Brooklyn,East Flatbush,40.66346,-73.93571999999999,United States,US,True,strict,Entire home/apt,2012,$407 ,$81 ,3,1,6/9/2019,1.0,5,1,170,,
42415552,Brooklyn Room with 2 Chill Guys,56984448409,verified,Angelo,Brooklyn,Bushwick,40.69835,-73.93258,United States,US,False,flexible,Private room,2004,$189 ,$38 ,2,3,3/31/2019,0.75,5,1,188,,
42416104,"Able to walk to free ferry in Manhattan. Many,Bus",68908944126,verified,Valerie,Staten Island,St. George,40.638940000000005,-74.08069,United States,US,False,flexible,Private room,2022,"$1,078 ",$216 ,1,1,6/24/2019,1.0,2,2,365,,
42416656,Distinctive 1BR in Midtown East by Sonder,20292058575,verified,Sonder (NYC),Manhattan,Midtown,40.75544,-73.9829,United States,US,False,strict,Entire home/apt,2012,$510 ,$102 ,29,0,,,5,327,354,,
42417208,"""Color Me Time Sq."" Interactive Room in Manhattan",62658443079,verified,Krista,Manhattan,Harlem,40.82757,-73.94915,United States,US,True,moderate,Private room,2003,$688 ,$138 ,2,15,7/7/2019,3.78,4,2,48,,
42417761,Comfy Sofa Bed in Living Room,54994025259,verified,Erdi,Queens,Astoria,40.76449,-73.91996,United States,US,True,flexible,Shared room,2004,$300 ,$60 ,1,7,6/28/2019,4.12,3,1,320,,
42418313,Centrally  Located Beautiful Escape,16343394767,verified,Angela,Brooklyn,East Flatbush,40.64922,-73.93301,United States,US,False,strict,Private room,2014,$828 ,$166 ,1,31,7/5/2019,8.02,5,3,66,,
42418865,Private Room in quiet XL East Village apartment!,70988234892,verified,Joseph,Manhattan,East Village,40.72504,-73.98326999999999,United States,US,True,moderate,Private room,2016,"$1,169 ",$234 ,1,31,7/3/2019,7.69,5,4,94,,
42419418,Ladies Only NYC,10230616184,verified,Kamila,Manhattan,Kips Bay,40.74367,-73.97551,United States,US,True,moderate,Shared room,2007,$563 ,$113 ,2,3,6/3/2019,0.79,2,3,324,,
42419970,Bed Stuy Modern,9085641143,unconfirmed,Alexandra,Brooklyn,Bedford-Stuyvesant,40.6901,-73.95139,United States,US,False,moderate,Private room,2017,$267 ,$53 ,2,1,5/15/2019,0.54,2,2,189,,
42420522,Pleasant 1BR in Midtown East by Sonder,33426057288,unconfirmed,Sonder (NYC),Manhattan,Theater District,40.75731,-73.98326,United States,US,False,flexible,Entire home/apt,2014,$621 ,$124 ,29,1,6/13/2019,1.0,5,327,343,,
42421075,New! Sunny Loft/Studio in Greenpoint!,44577823714,unconfirmed,Diego,Brooklyn,Greenpoint,40.73304,-73.95491,United States,US,False,strict,Entire home/apt,2003,"$1,061 ",$212 ,1,8,5/20/2019,2.47,3,6,0,,
42421627,Perfect Loft - Minutes from Manhattan - Big Comfy,20899323826,verified,Lee,Brooklyn,Williamsburg,40.72055,-73.95825,United States,US,True,flexible,Entire home/apt,2010,"$1,129 ",$226 ,2,0,,,3,1,95,,
42422179,Manhattan Wall Street Luxury Apartment Experience,66914872349,unconfirmed,Audrey,Manhattan,Financial District,40.70937,-74.00531,United States,US,True,strict,Private room,2015,$90 ,$18 ,3,0,,,5,2,365,,
42422731,Room in Crown Heights Apt,14319602468,verified,Rafael,Brooklyn,Prospect-Lefferts Gardens,40.65813,-73.95788,United States,US,False,moderate,Private room,2019,$441 ,$88 ,1,0,,,4,1,0,,
42423284,"EAST 141 FACE HARLEM
NEAR TO YANKE STADIUM",49541259187,unconfirmed,Karla,Bronx,Mott Haven,40.80981,-73.92031,United States,US,False,strict,Private room,2015,$196 ,$39 ,1,9,7/1/2019,3.38,4,1,176,,
