id,NAME,host id,host_identity_verified,host name,neighbourhood group,neighbourhood,lat,long,country,country code,instant_bookable,cancellation_policy,room type,Construction year,price,service fee,minimum nights,number of reviews,last review,reviews per month,review rate number,calculated host listings count,availability 365,house_rules,license
21381206,"Convenient, comfy,  and bright",4695818746,unconfirmed,Yael,Manhattan,Washington Heights,40.84539,-73.93968000000001,United States,US,True,flexible,Shared room,2020.0,$789 ,$158 ,2,14,6/13/2019,2.82,5,2,0,**Complimentary breakfast is available only by request.,
21381758,1  bedroom apartment,34575599109,unconfirmed,Amir,Manhattan,East Harlem,40.807590000000005,-73.94103,United States,US,False,strict,Entire home/apt,2017.0,"$1,038 ",$208 ,5,13,6/17/2019,2.48,2,3,8,No Smoking No Pets,
21382311,Room in Home with Backyard in Bronx Little Italy,15740572449,unconfirmed,Joseph,Bronx,Belmont,40.854490000000006,-73.88436999999999,United States,US,True,moderate,Private room,2008.0,"$1,056 ",$211 ,1,3,7/3/2019,1.84,5,1,319,,
21382863,Plant & pet-friendly LOFT in the UWS,43669081634,unconfirmed,Melissa,Manhattan,Upper West Side,40.779720000000005,-73.97870999999999,United States,US,False,moderate,Private room,2008.0,$822 ,$164 ,3,7,3/18/2019,0.83,3,2,0,No Smoking No Pets,
21383415,San Carlos Hotel One Bedroom Suite - up to  5,8009479627,unconfirmed,Janet,Manhattan,Midtown,40.75613,-73.97055999999999,United States,US,True,moderate,Private room,2006.0,$757 ,$151 ,1,3,3/10/2019,0.36,4,11,177,No Smoking. No Pets.,
21383968,Luxury and convenience in the center of it all!,2464541529,verified,Daniel,Queens,Astoria,40.76553,-73.91625,United States,US,False,flexible,Entire home/apt,2013.0,$312 ,$62 ,4,15,6/18/2019,1.73,3,1,12,"Common sense rules. No smoking indoors. Be courteous to the neighbors.  Please respect the property, this is our home. If you intend to entertain more than 5 people at any point during your stay, please seek approval from me in advance of booking your stay. Please make sure the door is locked each time you leave the apartment. ",
21384520,LUXURY 2BR CONDO APT IN THE HEART OF BROOKLYN,96687155732,verified,Kelly,Brooklyn,Bath Beach,40.603190000000005,-73.99591,United States,US,False,flexible,Entire home/apt,2017.0,$824 ,$165 ,1,13,1/2/2019,1.54,2,1,0,"Iconic Boston Brownstone with amazing views, but no elevator. 3 flights of stairs up to the apartment, another set once in the unit up to the private roof deck. No smoking, no pets. My apartment is in a building with 2 other units, people who live there full time. Please be respectful of my neighbors and their privacy, no late night parties.  This is a quiet building.",
21385072,J- HOTEL STYLE SHARE ROOM FOR 2PPL FREE WIFI CABLE,90583827739,verified,Nikole,Queens,South Ozone Park,40.67293,-73.79554,United States,US,False,moderate,Shared room,2017.0,$172 ,$34 ,4,1,5/3/2019,0.45,4,7,365,"Please smoke outside in the front of the building, no additional guests.",
21385624,Studio in Prime Williamsburg w/ Private Balcony,16349401566,verified,Alan,Brooklyn,Williamsburg,40.709590000000006,-73.96110999999999,United States,US,True,flexible,Entire home/apt,2010.0,"$1,149 ",$230 ,1,77,7/2/2019,8.95,3,1,77,"House Rules The house rules are an important part of staying in this condo.  You will be sharing a living space with other guests and a high level of consideration, respect, communication and tolerance is expected from you.  They are meant to make your stay more pleasant, to prevent conflicts and to protect the property of any damage.  If you feel there is something that needs to be addressed and that is not covered in these rules, please make sure you communicate that to the host. 1.  Toilet · The toilettes can only be used with toilet paper provided.  Any other material disposed of will cause the plumbing system to back up and create drainage problems.  No tissues, cotton balls, tampons, Q-tips cotton swabs or any kind of sanitary products are allowed down the toilets.  · Any plumbing work due to clogged toilets will be charged to the guests. 2. Noise and Quiet Hours · Quiet hours are from 10pm until 7am.  During quiet hours radios and stereos may be played at a level not to be heard",
21386177,Chelsea Apartment,89099743866,verified,Ned,Manhattan,Chelsea,40.74165,-73.99968,United States,US,True,flexible,Entire home/apt,2004.0,"$1,195 ",$239 ,2,47,6/24/2019,5.38,4,1,101,,
21386729,Home away from home,26861643882,verified,Lexus,Brooklyn,Flatlands,40.63204,-73.93383,United States,US,True,flexible,Private room,2006.0,$644 ,$129 ,7,0,,,5,1,83,We expect our guests to treat this condo as their home and to be respectful of our wonderful neighbors.   This property is entirely non-smoking (including outside on the patio or front stoop).  Pets are not allowed.  No guests or parties.,
21387281,Private floor in Soho Loft with 11ft ceilings,93554622148,verified,Nathan,Manhattan,SoHo,40.727059999999994,-74.00572,United States,US,False,moderate,Private room,2019.0,$131 ,$26 ,4,0,,,5,1,0,"*Please share with other guests in your reservation. Thanks!* [Security]  Unless otherwise specified, building and apartment access is for reserved guests only. Lock doors when coming and going; keep keys and windows secure.  [Courtesy]  Be mindful of neighbors. No smoking in/around the property. No shoes in the apartment. Pick up after yourself. [Be Green]  Turn off lights, electronics and faucets when not in use. Recycling bin (paper, plastic, glass, aluminum) and reusable shopping bags are in the pantry.  [Communicate]  Please tell me right away if you feel you're having less than a 5-star experience. So many of my trips were made better by caring, thoughtful hosts; it would make me happy to do the same for you.",
21387834,Cozy Room for Rent very close to Manhattan,60624447088,unconfirmed,Jeanny,Queens,Astoria,40.769020000000005,-73.91856,United States,US,True,flexible,Private room,2020.0,$221 ,$44 ,5,9,6/12/2019,1.05,4,4,318,,
21388386,Clean Cozy Getaway--Just 15 Minutes From JFK,30933174649,verified,Diana,Queens,Cambria Heights,40.69238,-73.73646,United States,US,True,strict,Private room,2009.0,$787 ,$157 ,2,13,7/2/2019,1.49,5,2,77,"A residential, quiet, small building. Non- smoking. No heavy drinking. No pets",
21388938,Williamsburg apartment with amazing views,24976164095,unconfirmed,Marco,Brooklyn,Williamsburg,40.71047,-73.96795999999999,United States,US,True,strict,Entire home/apt,2016.0,$802 ,$160 ,10,0,,,5,1,34,New luxury furnishings provided.  Please be respectful.  If an accident happens please report and it will be resolved.  ,
21389491,"2018 New 2br elevator condo, 法拉盛中心新大楼2卧,5分钟main st",45131908176,verified,Brenda,Queens,Flushing,40.763729999999995,-73.82904,United States,US,False,moderate,Entire home/apt,2014.0,"$1,007 ",$201 ,2,15,6/24/2019,1.97,3,1,59,NO Smoking,
21390043,Cozy Apartment in Lively Brooklyn 15 Min from Pier,77111769062,verified,Sade,Brooklyn,Crown Heights,40.67115,-73.94932,United States,US,False,moderate,Entire home/apt,2005.0,"$1,046 ",$209 ,2,0,,,4,1,107,"No kids, no pets, no smoking.",
21390595,Spacious New 1BR in Sunnyside. Parking available!,78402851025,unconfirmed,Ira,Queens,Sunnyside,40.74299,-73.92441,United States,US,False,strict,Entire home/apt,2009.0,$240 ,$48 ,2,2,1/13/2019,0.32,2,1,358,,
21391147,"""The Dumont"" Event Space",47089919264,unconfirmed,Terry,Brooklyn,East New York,40.66957,-73.86585,United States,US,True,flexible,Entire home/apt,2013.0,$746 ,$149 ,1,12,6/29/2019,1.49,3,1,175,,
21391700,"Home to LGA airport near Manhattan, JFk, Astoria.",72154086731,verified,Rumalia,Queens,East Elmhurst,40.7698,-73.87183,United States,US,False,moderate,Entire home/apt,2022.0,,$88 ,1,29,6/30/2019,3.32,5,1,360,This is a residential property and quiet is maintained.   Absolutely zero smoking on or near the property.  Be respectful and kind.,
21392252,Sams place,63320004858,unconfirmed,Samuel,Bronx,Clason Point,40.805040000000005,-73.85327,United States,US,True,flexible,Private room,2022.0,,$97 ,1,1,10/21/2018,0.11,5,1,364,"House Rules 1. Check-in is 4 pm local time. If the unit is ready earlier, we’ll let you know. Check-out is normally 11 am local time, but we’d be happy to extend it as long as we don’t have a cleaning scheduled. Just let us know.  2. All bookings require a security deposit of at least $300, which will be refunded within 7 days of your check-out. 3. For security measures we require all guests to provide proof of identification through ID verification on our own website. In order to check in we'll need a photo of your ID.  4. Our cancellation policy is as shown on our ad and defined by the site you are booking through.  5. Don’t let $300 go up in smoke. There's no smoking allowed in any Flatbook and a $300 fine for breaking this rule.  6. Unfortunately we don’t allow pets in any of our apartments. 7. Unless you’re staying in one of our specialty apartments, we don’t allow parties or excessive noise. 8. If we find the place very messy, we have to charge an extra $40 for every extra hour o",
21392804,Very comfortable and clean,17824528534,verified,Vinroy,Bronx,Unionport,40.82598,-73.85203,United States,US,True,flexible,Private room,2011.0,,$17 ,7,0,,,3,1,180,Enjoy the space responsibly. It's a quiet family-owned building on a very busy street. Only Airbnb-vetted individuals allowed in the house - for our security as well as our neighbors - we want to keep our space safe! No smoking or pets (sorry!) Please return space as you found it.,
21393357,Perfect location UWS private room private bath,35680589909,verified,Miki,Manhattan,Upper West Side,40.78177,-73.97878,United States,US,False,flexible,Private room,2020.0,$619 ,$124 ,2,23,4/13/2019,2.64,3,1,79,"House Rules 1. Check-in is 4 pm local time. If the unit is ready earlier, we’ll let you know. Check-out is normally 11 am local time, but we’d be happy to extend it as long as we don’t have a cleaning scheduled. Just let us know.  2. All bookings require a security deposit of at least $300, which will be refunded within 7 days of your check-out. 3. For security measures we require all guests to provide proof of identification through ID verification on our own website. In order to check in we'll need a photo of your ID.  4. Our cancellation policy is as shown on our ad and defined by the site you are booking through.  5. Don’t let $300 go up in smoke. There's no smoking allowed in any Flatbook and a $300 fine for breaking this rule.  6. Unfortunately we don’t allow pets in any of our apartments. 7. Unless you’re staying in one of our specialty apartments, we don’t allow parties or excessive noise. 8. If we find the place very messy, we have to charge an extra $40 for every extra hour o",
21393909,Sunny room in Brooklyn,41812705674,verified,Nathalie,Brooklyn,Crown Heights,40.67768,-73.94244,United States,US,True,moderate,Private room,,$869 ,$174 ,5,1,1/3/2019,0.16,5,1,69,Enjoy!,
21394461,Spacious Brooklyn Home,66906076494,unconfirmed,Anthony,Brooklyn,Crown Heights,40.66587,-73.92966,United States,US,False,flexible,Private room,,$597 ,$119 ,1,0,,,4,1,88,#NAME?,
21395014,Noho High Rise w/ Private Terrace,76943077342,unconfirmed,Ty,Manhattan,Greenwich Village,40.728359999999995,-73.99925,United States,US,False,strict,Entire home/apt,,$203 ,$41 ,7,0,,,2,1,80,sorry: no smoking no pets no kids no parties ...,
21395566,Manhattan downtown large modern private room,26117263557,unconfirmed,Hailey,Manhattan,Two Bridges,40.7125,-73.99661,United States,US,True,strict,Private room,,$476 ,$95 ,1,26,6/30/2019,3.42,2,1,297,#NAME?,
21396118,DESIGNER ARTIST 2 BEDROOM APARTMENT . E.V.,60650960388,verified,Alex,Manhattan,East Village,40.726279999999996,-73.97981,United States,US,True,strict,Entire home/apt,2009.0,$889 ,$178 ,4,4,5/27/2019,0.77,2,3,204,,
21396670,Spacious Room In Hip Williamsburg,90414093150,verified,Diana,Brooklyn,Williamsburg,40.71353,-73.94339000000001,United States,US,False,flexible,Private room,2003.0,$778 ,$156 ,2,11,4/29/2019,1.56,4,2,0,"Keep the place in the same condition as upon arrival. Be yourself, but please no wild parties, thanks :)",
21397223,Private Room that’s comfortable and convenient,32508613676,verified,Rafa' S,Queens,Elmhurst,40.737559999999995,-73.87787,United States,US,False,moderate,Private room,2005.0,$734 ,$147 ,2,2,6/30/2019,1.43,2,2,364,No smoking and no pets.  No parties without prior approval.  Names and ages of all guests is required for booking.,
21397775,Creative House for Travelers and Other Creatives,66564893781,verified,Andrea,Brooklyn,Bedford-Stuyvesant,40.69032,-73.95283,United States,US,True,moderate,Private room,2005.0,$658 ,$132 ,4,19,7/1/2019,2.16,5,1,189,,
21398327,Murray Hill Apt (next to 6 train & near Penn/Bus),25984355719,unconfirmed,Marlena,Manhattan,Kips Bay,40.7444,-73.97946,United States,US,True,strict,Entire home/apt,2019.0,$898 ,$180 ,2,14,5/27/2019,1.65,4,1,0,"Enjoy your stay in our home, simply be respectful of our neighbors, no smoking and no pet allowed.",
21398880,Sweet room,87923664166,unconfirmed,Illias,Queens,Elmhurst,40.74133,-73.88345,United States,US,True,moderate,Private room,2007.0,"$1,041 ",$208 ,2,44,6/22/2019,5.24,2,1,123,#NAME?,
21399432,"Sunny, clean 2 bedroom",17377553798,verified,Tiffany,Brooklyn,Carroll Gardens,40.67742,-74.00146,United States,US,True,strict,Entire home/apt,2022.0,$781 ,$156 ,7,1,1/3/2019,0.16,4,1,0,,
21399984,Cosy bedroom in prime Soho,23243651966,verified,Julia,Manhattan,SoHo,40.727509999999995,-74.0018,United States,US,True,strict,Private room,2007.0,$601 ,$120 ,7,3,1/18/2019,0.44,5,1,0,Yes please:  •  make yourself at home; •  ask questions. Please no: •  shoes inside; •  smoking; •  food in the bedroom; •  parties; •  pets.,
21400537,Cozy Sunny Harlem Studio,12051652361,unconfirmed,Fabrice,Manhattan,Harlem,40.823609999999995,-73.93926,United States,US,False,strict,Entire home/apt,2010.0,$892 ,$178 ,1,17,6/19/2019,2.14,4,1,75,,
21401089,Upper East Side alcove studio in doorman building,28325768763,verified,Robyn,Manhattan,Upper East Side,40.771229999999996,-73.9549,United States,US,False,flexible,Entire home/apt,2005.0,"$1,061 ",$212 ,2,3,5/20/2019,1.23,4,1,6,"Please just don't be loud at night or in the morning, we are just one wall/ceiling away from neighbors.  Also, just respect our things, wash dishes, keep it clean - the usual! - and everything will be peachy keen.",
21401641,COZY ROOM TO CRASH,5555611606,unconfirmed,Chester,Manhattan,East Village,40.72935,-73.98441,United States,US,True,strict,Private room,2003.0,$491 ,$98 ,1,10,6/13/2019,1.15,5,2,90,No Smoking ,
21402193,Spacious and Airy Apt - 20 min to Manhattan!,4803422995,unconfirmed,Jesse,Brooklyn,Gowanus,40.682159999999996,-73.98199,United States,US,True,strict,Entire home/apt,2015.0,$887 ,$177 ,1,9,1/6/2019,1.03,2,1,0,"This is a quiet building and expect not to be disturbed, or to create disturbances.  There is a shared washer and dryer and it is not used after 11pm.  There is absolutely no smoking allowed in the building, on the fire escape or on the front steps.  We prefer that guests be non-smokers.  Guests are not permitted to bring pets, or have visitors with pets.  Bicycles can not be brought into the building.  The City of Boston collects trash two times per week and Guests are expected to observe local trash and re-cycling schedules.  There is a more detailed description available once reservation is completed.",
21402746,"Nice, fun,  Brooklyn! Bedroom & private bath",63273060972,verified,Alice,Brooklyn,Bushwick,40.68677,-73.91571,United States,US,False,flexible,Private room,2020.0,$233 ,$47 ,1,8,6/3/2019,0.94,4,1,31,,
21403298,Modern + colorful 2-BR in lively Clinton Hill,58150747713,verified,Amenee,Brooklyn,Clinton Hill,40.68634,-73.96117,United States,US,False,moderate,Entire home/apt,2004.0,$827 ,$165 ,3,0,,,2,1,0,EACH ROOM HAS A FULL SIZED BED AND NORMALLY ROOMS ARE RENTED TO SINGLE GUESTS ONLY. OCCASIONALLY A COUPLE OF ADULTS WILL BE CONSIDERED BUT THERE IS AN ADDITIONAL CHARGE FOR MORE THAN ONE PERSON,
21403850,Lil A's Place- 60 Seconds to the Train-Location!!,73878963566,unconfirmed,Betty,Queens,Astoria,40.756840000000004,-73.91705,United States,US,False,strict,Private room,2018.0,$384 ,$77 ,1,4,6/23/2019,0.64,5,1,88,"No smoking , The key located in front of the main door next to the railing   Inside of the locker , I will send the passcode to the guest prior check in , please remember to put the key back in the locker when check out .      With the key , please open with the passcode, take the key out , then close the locker , when you check out , please open the locker , place the key , then close the locker . Thank you  The Internet username : kenwang549 Password: columbus12345 The assigned parking in the behind of the building , you can follow the direction with the picture shown , and there is a sign for the parking space . Any questions or problems please contact me at (PHONE NUMBER HIDDEN) , or e mail me . Thank you",
21404403,4min subway. Prime locations.  single sofa bed 单人间,96510888366,verified,美德,Queens,Forest Hills,40.721920000000004,-73.83931,United States,US,True,moderate,Shared room,2006.0,$729 ,$146 ,2,20,5/29/2019,2.4,2,5,230,"Be respectful of our neighbors - No loud music or parties, please.",
21404955,Modern Duplex - Central Chelsea!!!,46422298100,verified,David,Manhattan,Chelsea,40.74327,-73.99663000000001,United States,US,False,moderate,Entire home/apt,2008.0,$370 ,$74 ,2,25,6/16/2019,2.92,4,1,244,No smoking please. No pets.,
21405507,Woodruffe Place,63512453110,verified,Deslyn,Brooklyn,Crown Heights,40.67253,-73.9223,United States,US,True,flexible,Entire home/apt,2021.0,$832 ,$166 ,1,27,7/5/2019,3.36,4,1,339,"Please no parties,  and no loud noise past 11p, out of respect for the neighbors.  Please no smoking inside the building.  If you cook or otherwise eat in the apartment, please reasonably clean up after yourself.",
21406060,UES private bedroom in shared apartment,75312007334,unconfirmed,Geoffrey,Manhattan,Upper East Side,40.7652,-73.95834,United States,US,False,strict,Private room,2016.0,"$1,077 ",$215 ,1,9,5/26/2019,2.87,3,2,0,No Pet. No Smoking. ,
21406612,Celebrity Designer Pied A Terre,64154929677,verified,Julien,Manhattan,Upper East Side,40.76408,-73.95685999999999,United States,US,False,moderate,Entire home/apt,2013.0,$155 ,$31 ,1,12,7/2/2019,1.41,5,1,323,smoke-free campus.,
21407164,"Large, Bright & Cozy Retreat in Bklyn.",8936444055,unconfirmed,Rufina,Brooklyn,Crown Heights,40.67685,-73.93653,United States,US,True,flexible,Private room,2019.0,$263 ,$53 ,2,18,7/2/2019,2.18,4,3,251,Please respect our privacy on 1st and 2nd floors.  We do appreciate you being quiet when coming in very late at night.  If you need anything we are happy to help in any way.,
21407716,Heart of nyc. Harlem.,48409564325,unconfirmed,Takeis,Manhattan,Harlem,40.81801,-73.93855,United States,US,False,flexible,Entire home/apt,2013.0,$405 ,$81 ,1,27,7/1/2019,3.86,5,1,33,,
21408269,"Cozy, Private 1 Bedroom Basement Apartment",18086824455,verified,Gabrielle,Staten Island,Dongan Hills,40.58303,-74.09271,United States,US,False,flexible,Entire home/apt,2004.0,$650 ,$130 ,2,12,6/24/2019,1.91,5,1,229,No Smoking No Pets,
21408821,Spacious 1 Bed (FURNISHED!) Hudson Yards Sublet,40170372089,verified,Christina,Manhattan,Chelsea,40.75358,-73.99707,United States,US,False,flexible,Private room,2019.0,"$1,015 ",$203 ,45,0,,,2,1,83,,
21409373,La Cabina al Mare,29474195955,unconfirmed,Luca,Queens,Rockaway Beach,40.58409,-73.81665,United States,US,False,moderate,Entire home/apt,2015.0,$562 ,$112 ,2,13,7/6/2019,1.54,5,1,73,"Be yourself, but please no wild parties, thanks :)",
21409926,25 min to Manhattan: Bed in quiet apartment,11157452436,unconfirmed,Anchor,Brooklyn,Bedford-Stuyvesant,40.679559999999995,-73.91135,United States,US,True,strict,Shared room,2005.0,$850 ,$170 ,1,13,5/19/2019,1.52,4,17,89,,
21410478,"Comfort room A in upper west side NY, Columbia",2411303579,unconfirmed,James,Manhattan,Morningside Heights,40.81548,-73.95931,United States,US,True,strict,Private room,2007.0,$178 ,$36 ,1,38,6/22/2019,4.4,2,4,57,please be quiet and respectful of the other renters,
21411030,"Sunny room B in upper west side NY, Columbia",49236776929,unconfirmed,James,Manhattan,Morningside Heights,40.813759999999995,-73.95954,United States,US,True,strict,Private room,2003.0,$109 ,$22 ,1,66,6/22/2019,7.59,4,4,71,,
21411583,"Premier room D in upper west side NY, Columbia",89130039961,verified,James,Manhattan,Morningside Heights,40.81454,-73.96086,United States,US,False,flexible,Private room,2016.0,$339 ,$68 ,1,51,6/22/2019,5.86,4,4,56,,
21412135,"Cozy room C in upper west side NY, Columbia",67181916771,unconfirmed,James,Manhattan,Morningside Heights,40.81386,-73.95936,United States,US,True,strict,Private room,2008.0,"$1,059 ",$212 ,1,55,6/15/2019,6.4,3,4,87,"No smoking or additional guests, please.",
21412687,"“One of a kind” Penthouse 
獨一無二的紐約閣樓",33327976213,verified,Anting,Manhattan,NoHo,40.72872,-73.99199,United States,US,False,moderate,Entire home/apt,2010.0,$826 ,$165 ,1,1,5/26/2019,0.68,2,33,187,THE HOUSE HAS 4 FLOORS AND IS SHARED WITH THE OWNER AND ONE OR TWO OTHER OCCUPANTS.   QUIET IS ASSURED (ESPECIALLY LATE EVENINGS) SMOKING IS NOT PERMITTED INSIDE THE HOUSE. THERE ARE NO LOCKS ON ROOM DOORS AS THESE ARE BEDROOMS IN A PRIVATE HOME.  PRIVACY IS ASSURED AND RESPECT OTHERS' BELONGINGS ,
21413239,"Your Home 安全舒適的家
 12 mins Manhattan",3937161827,unconfirmed,Anting,Brooklyn,Greenpoint,40.73543,-73.95454000000001,United States,US,True,flexible,Private room,2008.0,$899 ,$180 ,1,0,,,5,33,179,It's a quiet building on a quiet street with many working professionals. Please be respectful of our neighbors and no additional guests or parties. No Smoking. No Pets.,
21413792,Prime Location 34th&6th! Doorman Gym Deck 5231,53247653537,verified,Jeremy & Laura,Manhattan,Midtown,40.748290000000004,-73.98653,United States,US,False,strict,Entire home/apt,2011.0,$187 ,$37 ,30,0,,,5,96,342,"Just be respectful, that's really all I ask.  I love my home and hope you do too. No smoking inside, please smoke on the stoop.  No pets please.",
21414344,Bright and cozy room in bed-stuy,79358901546,verified,Margaux,Brooklyn,Bedford-Stuyvesant,40.685390000000005,-73.94903000000001,United States,US,True,flexible,Private room,2005.0,$782 ,$156 ,4,1,11/3/2018,0.12,5,1,0,Party hard just don't break things.,
21414896,Private Sun-Splashed Studio Chelsea,16208973664,verified,Casey,Manhattan,Chelsea,40.74303,-73.99727,United States,US,False,flexible,Entire home/apt,2003.0,$905 ,$181 ,1,34,7/2/2019,4.66,4,1,0,This is a quiet building with absolutely no smoking inside the property or on the steps.  ,
21415449,Brownstone Studio,33724532743,verified,Denise,Brooklyn,Carroll Gardens,40.67787,-73.99973,United States,US,True,flexible,Entire home/apt,2016.0,$702 ,$140 ,4,9,6/25/2019,1.09,2,1,70,Please no smoking in the apartment.  There is a door to a balcony/fire escape for smoking.,
21416001,"Welcome to Williamsburg, Brooklyn!!",84996274703,verified,Tom,Brooklyn,Greenpoint,40.719609999999996,-73.95405,United States,US,True,strict,Private room,2014.0,$186 ,$37 ,1,0,,,3,1,220,Have fun and please be respectful of the place. No parties Please do not smoke inside,
21416553,Convenient Private Bed & Bath! 10 mins. to LGA,67252681819,verified,Janine & Reneé,Queens,Ditmars Steinway,40.776709999999994,-73.91283,United States,US,False,moderate,Private room,2013.0,$188 ,$38 ,7,12,5/25/2019,1.6,5,1,40,,
21417106,Dream Apt in the heart of  NYC,72255570020,unconfirmed,San,Manhattan,Midtown,40.7599,-73.96685,United States,US,False,flexible,Entire home/apt,2004.0,$215 ,$43 ,4,9,6/17/2019,1.21,4,1,56,"No guests can be allowed access to the building/grounds that have not been mentioned at the time the reservation was made.   This is to keep everyone, including my neighbors, safe. No smoking. No pets. Campsite rules - leave it as you found it please! (trash cans are right out the back door on the other side of the patio fence). Being low key/quiet after 10pm when on the patio is much appreciated by our neighbors.",
21417658,Beautiful room with private bathroom in Town house,28167685062,verified,William,Brooklyn,Crown Heights,40.67283,-73.9447,United States,US,True,moderate,Private room,2010.0,$164 ,$33 ,1,48,6/15/2019,5.52,3,1,214,"No pets or smoking allowed any where on the premises.  Check-in is at 4:00 pm or later and check out is at 11 am.  After hours self check-in is available but MUST be PER-ARRANGED with host in advance. Bag storage is extra as are early check-in and late check out when possible. Guest are expected to be respectful of others in the building, neighbors, and the property.",
21418210,Great Midtown Vibe Spacious Experience in UWS NYC,62487813878,verified,XnL,Manhattan,Upper West Side,40.787929999999996,-73.97261,United States,US,False,strict,Entire home/apt,2018.0,$616 ,$123 ,2,10,6/18/2019,1.22,5,1,0,"Quiet hours 10pm -7AM. No additional people besides the reservation listing allowed in the apartment. Alcohol in moderation is allowed. No smoking, no drugs. Please, leave the apartment the way in which you found it! Females only.",
21418762,Bright and cozy 1 bedroom,74026066235,unconfirmed,Ivan,Brooklyn,Bensonhurst,40.61667,-73.99932,United States,US,False,strict,Entire home/apt,2010.0,$849 ,$170 ,1,3,12/28/2018,0.41,3,1,61,Feel free to use any dishware in the house but please load and run the dishwasher when you leave.,
21419315,PRIVATE STUDIO APARTMENT- ASTORIA,81669064255,verified,Carlos,Queens,Astoria,40.76894,-73.91193,United States,US,False,moderate,Entire home/apt,2016.0,$621 ,$124 ,1,7,6/13/2019,0.83,4,5,326,#NAME?,
21419867,Spacious furnished 2b1b apt with a big living room,41643409423,unconfirmed,Rosa,Bronx,Woodlawn,40.897529999999996,-73.87359000000001,United States,US,True,moderate,Private room,2009.0,"$1,121 ",$224 ,1,6,1/21/2019,0.71,5,1,0,- I've got a parking space that I can rent to you separately for $20 a night,
21420419,Sunlit Cozy Bargain 2 Bedroom in Carroll Gardens,71241599690,verified,Julia,Brooklyn,Carroll Gardens,40.67692,-73.99986,United States,US,False,strict,Entire home/apt,2022.0,$176 ,$35 ,1,28,6/9/2019,3.64,2,2,223,"Smoking is not permitted inside the condo.  We do not have any pets and we also ask that you don't bring yours. Please remove shoes and place in the basket upon entering the door. Although we understand the wear and tear that little ones make, we expect that all messes will be cleaned up as they happen and you will be respectful of the neighbors. Persons booking must be 18 years or older in order to rent.",
21420972,Your home away from home,6558815971,verified,Chantal,Queens,Briarwood,40.71347,-73.80873000000001,United States,US,True,strict,Private room,2005.0,$677 ,$135 ,2,0,,,4,1,90,Please respect the residents of the building by keeping noise down.,
21421524,Spacious 1 BR Apartment with Times Square view,35925890920,unconfirmed,Ferdy,Manhattan,Midtown,40.76597,-73.98177,United States,US,True,strict,Entire home/apt,2008.0,$684 ,$137 ,3,2,7/7/2019,1.36,3,1,1,This is a quiet building and we would only like guests that want quiet and privacy.  Absolutely no smoking on the premises.,
21422076,Room in heart of Bushwick with private entrance,57453041859,unconfirmed,David,Brooklyn,Bushwick,40.69552,-73.91165,United States,US,True,moderate,Private room,2006.0,$252 ,$50 ,3,16,6/17/2019,1.82,2,1,74,,
21422629,Cozy Apt x Rent Close to Manhattan,62888550251,unconfirmed,Jeanny,Queens,Astoria,40.77029,-73.91881,United States,US,False,flexible,Entire home/apt,2009.0,$649 ,$130 ,5,1,1/7/2019,0.16,2,4,173,"There are two other units in this building, quiet, clean and respectful of neighbors is all we request. Regrets, no pets and no smoking.",
21423181,Cozy Apartment in Upper West Side New York,44386524129,verified,Sergio,Manhattan,Upper West Side,40.78818,-73.96795999999999,United States,US,False,strict,Entire home/apt,2022.0,"$1,072 ",$214 ,3,37,7/1/2019,4.64,5,1,120,"House Rules The house rules are an important part of staying in this condo.  You will be sharing a living space with other guests and a high level of consideration, respect, communication and tolerance is expected from you.  They are meant to make your stay more pleasant, to prevent conflicts and to protect the property of any damage.  If you feel there is something that needs to be addressed and that is not covered in these rules, please make sure you communicate that to the host. 1.  Toilet · The toilettes can only be used with toilet paper provided.  Any other material disposed of will cause the plumbing system to back up and create drainage problems.  No tissues, cotton balls, tampons, Q-tips cotton swabs or any kind of sanitary products are allowed down the toilets.  · Any plumbing work due to clogged toilets will be charged to the guests. 2. Noise and Quiet Hours · Quiet hours are from 10pm until 7am.  During quiet hours radios and stereos may be played at a level not to be heard",
21423733,"1 x Bedroom Apt with Amazing Rooftop, Greenpoint",48528245547,unconfirmed,Anna,Brooklyn,Greenpoint,40.7348,-73.95543,United States,US,False,strict,Entire home/apt,2019.0,"$1,136 ",$227 ,6,1,11/26/2018,0.13,3,1,154,"Respect the apartment and neighbors.   Just three house rules:  I ask folks to keep noise down after 11 pm, take out the trash on trash day; and don't leave out any open food containers or dirty dishes.",
21424285,Massive Art Loft - Best Manhattan Location Ever!,50660139120,verified,Juliana,Manhattan,Midtown,40.745490000000004,-73.99065999999999,United States,US,True,strict,Entire home/apt,2005.0,$938 ,$188 ,25,0,,,2,3,305,Treat it as your own and have a blast!,
21424838,Bright Spacious Greenpoint Duplex,64442233987,unconfirmed,Milosz,Brooklyn,Greenpoint,40.731590000000004,-73.95713,United States,US,True,flexible,Entire home/apt,2013.0,$876 ,$175 ,1,35,6/13/2019,4.12,4,1,37,No Pets. No Smoking.,
21425390,New york Multi-unit building,64534035588,verified,Aracely,Queens,Jackson Heights,40.75586,-73.87014,United States,US,True,flexible,Private room,2018.0,"$1,169 ",$234 ,2,23,6/16/2019,2.86,5,2,358,,
21425942,2 Private Rooms Near Staten Island Ferry,78088107592,unconfirmed,Maria,Staten Island,South Beach,40.58639,-74.08943000000001,United States,US,True,moderate,Private room,2010.0,$429 ,$86 ,2,6,5/26/2019,0.73,2,2,86,,
21426495,Private 2BR house Poyer st- 20 min to Manhattan,72183111021,unconfirmed,Michelle & Lily,Queens,Elmhurst,40.74111,-73.88184,United States,US,False,flexible,Entire home/apt,2006.0,$94 ,$19 ,2,31,7/5/2019,3.65,3,2,239,#NAME?,
21427047,Cozy 1 bed in amazing NYC location! (Chelsea),22420572589,unconfirmed,Katie,Manhattan,Chelsea,40.740109999999994,-73.99745,United States,US,False,strict,Entire home/apt,2006.0,$220 ,$44 ,2,17,4/21/2019,2.08,3,1,0,,
21427599,Large room next to Yankees 20 min from Manhattan,72644471074,verified,Kenny,Bronx,Concourse,40.83007,-73.92251,United States,US,False,flexible,Private room,2020.0,$994 ,$199 ,3,19,6/25/2019,2.27,5,1,67,,
21428152,ASTORIA NATURE HOUSE,2688065057,verified,Bruno,Queens,Astoria,40.75718,-73.92763000000001,United States,US,False,strict,Private room,2016.0,$811 ,$162 ,2,5,5/2/2019,0.61,2,1,354,,
21428704,Authentic East Village  Escape,45604640098,unconfirmed,Nikki,Manhattan,East Village,40.72653,-73.98501,United States,US,False,moderate,Entire home/apt,2017.0,$373 ,$75 ,7,6,6/3/2019,0.78,4,1,130,please be quiet and respectful of the other renters,
21429256,Cozy 1BR with private bathroom near the subway,84491460734,verified,Tania,Queens,Ditmars Steinway,40.77888,-73.90827,United States,US,True,flexible,Private room,2020.0,$162 ,$32 ,2,6,6/10/2019,1.41,3,1,12,"Enjoy your stay in our home, simply be respectful of our neighbors, no smoking and no pet allowed.",
21429808,Private community close to all the NYC & NJ action,47624579322,unconfirmed,Vince,Staten Island,Rosebank,40.60816,-74.07634,United States,US,True,strict,Entire home/apt,2021.0,$456 ,$91 ,3,19,6/15/2019,2.68,5,1,247,No Smoking No Pets,
21430361,Hell's Kitchen Luxurious 2 Bedroom NYC Apt!,63977958685,unconfirmed,Jen,Manhattan,Hell's Kitchen,40.760940000000005,-73.99778,United States,US,False,moderate,Entire home/apt,2007.0,$660 ,$132 ,30,0,,,4,8,185,Please leave the home as it was when you entered :),
21430913,"San Carlos Hotel Deluxe Rm - 2 Queen Bds, up to 4",87062240858,unconfirmed,Janet,Manhattan,Midtown,40.75674,-73.97201,United States,US,True,strict,Private room,2016.0,$650 ,$130 ,1,1,11/4/2018,0.12,5,11,178,,
21431465,NEW Stylish Midtown 2 bedroom w/ balcony,62658820776,verified,Charlie,Manhattan,Hell's Kitchen,40.75504,-73.99521,United States,US,True,moderate,Entire home/apt,2010.0,$725 ,$145 ,2,3,1/20/2019,0.36,5,1,0,,
21432018,1bd shared bathroom - very welcome apt in Harlem,56071805025,verified,Mamy Francine,Manhattan,Harlem,40.815020000000004,-73.94183000000001,United States,US,True,moderate,Private room,2004.0,$181 ,$36 ,2,3,11/18/2018,0.36,5,1,0,"Quiet. Residential. No smoking, no pets",
21432570,Charming & Sunny Brooklyn Heights Studio,14595463476,unconfirmed,Meryl,Brooklyn,Brooklyn Heights,40.69719,-73.99229,United States,US,True,strict,Entire home/apt,2015.0,$572 ,$114 ,3,2,5/23/2019,0.82,4,1,1,Smoking is not permitted inside the house.,
21433122,New york Multi-unit building,9056916733,unconfirmed,Aracely,Queens,Jackson Heights,40.75473,-73.8715,United States,US,False,flexible,Private room,2019.0,$569 ,$114 ,2,22,6/14/2019,2.58,3,2,138,No smoking or pets.,
21433675,Bryan's house,18939744602,verified,Bryan,Brooklyn,Clinton Hill,40.68303,-73.95988,United States,US,False,moderate,Private room,2009.0,$417 ,$83 ,1,1,12/1/2018,0.14,2,1,83,"Please be quiet, kind and respectful. This building has both renters and many home occupants, it's a great place to make it your home for a stay! Please be mindful of other people on the building, and keep all questions to me, your host!",
21434227,Exposed Brick New York Styled apt in Bushwick,72463396445,verified,Kyla,Brooklyn,Bushwick,40.693870000000004,-73.9102,United States,US,False,moderate,Private room,2018.0,$205 ,$41 ,2,3,1/28/2019,0.34,2,5,318,"This is a residential neighborhood, quiet is important.  No smoking. No pets.",
21434779,Large open space in Bushwick,58991625259,verified,Kyla,Brooklyn,Bushwick,40.694179999999996,-73.9114,United States,US,True,moderate,Private room,2008.0,$945 ,$189 ,3,13,6/15/2019,1.51,2,5,329,"Please be clean and respectful of the apartment, building and neighbors. No smoking indoors. Pets are allowed on a case by case basis.",
21435331,private room,10500129757,unconfirmed,Ahmet,Brooklyn,Bensonhurst,40.61208,-74.00180999999999,United States,US,False,moderate,Shared room,2005.0,$703 ,$141 ,10,0,,,2,2,0,,
21435884,Bed-Stuy/Clinton Hill  Sunny Brooklyn Apartment,13174772941,unconfirmed,Lucienne,Brooklyn,Bedford-Stuyvesant,40.68071,-73.95761,United States,US,False,moderate,Entire home/apt,2021.0,$807 ,$161 ,30,0,,,5,1,281,,
21436436,AMELUZ NY,11163237165,verified,Zulema,Queens,St. Albans,40.6978,-73.76775,United States,US,False,moderate,Entire home/apt,2010.0,$130 ,$26 ,2,9,6/24/2019,1.05,2,2,52,This is not a party building. It is quiet and peaceful. Anyone who is looking to party/smoke should look elsewhere.,
21436988,*PRIVATE* Big Bedroom 20 minutes from Manhattan,47219462860,verified,Freddy,Queens,Jackson Heights,40.757490000000004,-73.85811,United States,US,False,flexible,Private room,2014.0,$74 ,$15 ,1,43,6/23/2019,4.94,5,3,48,"No Smoking, No additional guests,",
21437541,Asshur’s Room,55145703762,verified,Asshur,Brooklyn,East Flatbush,40.66098,-73.92381999999999,United States,US,True,flexible,Private room,2014.0,$383 ,$77 ,1,1,11/8/2018,0.12,4,1,0,No Smoking,
21438093,Room in the heart of New York City,97124440153,unconfirmed,Ramon,Manhattan,Midtown,40.762890000000006,-73.98003,United States,US,False,strict,Private room,2005.0,"$1,034 ",$207 ,3,2,11/25/2018,0.25,5,1,0,,
21438645,"Classic, yet Unconventional Tribeca New York City!",32063512698,unconfirmed,Karen,Manhattan,Tribeca,40.71904,-74.00856999999999,United States,US,False,strict,Private room,2018.0,$406 ,$81 ,1,32,6/30/2019,3.86,2,2,317,#NAME?,
21439198,Beautiful Private Room with 3 Beds in Bed Stuy,39921062100,verified,Joel And Julian,Brooklyn,Bedford-Stuyvesant,40.69223,-73.95141,United States,US,True,moderate,Private room,2006.0,$77 ,$15 ,2,13,6/3/2019,1.53,4,3,365,,
21439750,Charming Private Room in Bed Stuy with 2 Beds,46827107748,verified,Joel And Julian,Brooklyn,Bedford-Stuyvesant,40.69381,-73.94998000000001,United States,US,False,flexible,Private room,2015.0,$692 ,$138 ,2,14,4/25/2019,1.61,2,3,365,"Please no parties,  and no loud noise past 11p, out of respect for the neighbors.  Please no smoking in the building.  If you cook or otherwise eat in the apartment, please reasonably clean up after yourself.",
21440302,Great New York shared room 3-6,36158305623,verified,Ruby,Manhattan,Midtown,40.74757,-73.98671,United States,US,False,moderate,Shared room,2007.0,$161 ,$32 ,3,20,6/14/2019,2.51,4,6,169,No Smoking No Pets,
21440854,Park view New York Apartment,65065262296,verified,Nofar,Manhattan,Morningside Heights,40.814240000000005,-73.96051,United States,US,True,moderate,Entire home/apt,2012.0,$541 ,$108 ,4,2,12/27/2018,0.3,3,1,0,No pets allowed (sadly!) and no smoking allowed.,
21441407,Brooklyn Hideaway right in Williamsburg,82616718740,unconfirmed,Rachel,Brooklyn,Williamsburg,40.714209999999994,-73.95421,United States,US,True,strict,Private room,2017.0,$888 ,$178 ,1,13,6/10/2019,1.63,2,2,64,"Enjoy your stay in our home, simply be respectful of our neighbors, no smoking and no pet allowed.",
21441959,Female Only: Prime Location-East 60s-Central Park,74323980687,unconfirmed,Inhee,Manhattan,Upper East Side,40.76105,-73.96294,United States,US,True,flexible,Private room,2022.0,$664 ,$133 ,1,27,6/29/2019,3.45,5,1,0,"Just be cool, we love our home and love our neighborhood - we're thrilled to have the opportunity to share it with you.",
21442511,Cozy place,43785590651,verified,Ezra,Manhattan,Harlem,40.8063,-73.94484,United States,US,False,moderate,Private room,2018.0,"$1,086 ",$217 ,2,13,6/30/2019,1.49,4,1,361,"I am opening my home to responsible renter(s) who are  looking for hotel alternative. I have consideration for your privacy and comfort and expect the same from you. Interaction can be as little or as much as you desire.  Smoking is allowed on Patio.  Basically, there are few house rules. Dog limited to owners bedroom and downstairs common space and patio.  Oh, did i mention there is a hot tub on the  patio, clocking in at 101 degrees.  Feel free to ask Boston question as I have about 40 years experience here.   ",
21443064,Time-Sharing Private Room,25445796480,verified,Yvonne,Brooklyn,Borough Park,40.63543,-74.00701,United States,US,True,strict,Shared room,2008.0,$383 ,$77 ,1,7,5/17/2019,0.8,4,7,365,,
21443616,12 mins to Times Square; 10 mins to LGA!,83880993053,verified,Topu,Queens,Sunnyside,40.73986,-73.91996,United States,US,False,flexible,Entire home/apt,2020.0,$902 ,$180 ,2,55,7/3/2019,6.45,4,1,99,No Smoking,
21444168,"*Location, Location* | Chelsea | West Village",77495048301,verified,Lee,Manhattan,West Village,40.73531,-74.00303000000001,United States,US,False,flexible,Entire home/apt,2021.0,$675 ,$135 ,30,31,7/6/2019,3.88,5,2,12,No Smoking No Pets,
21444721,1-bed/ba  PR condo Wyn.  Midtown 45 Thanksgiving,20854421132,verified,Martha,Manhattan,Midtown,40.75322,-73.97353000000001,United States,US,False,strict,Private room,2021.0,$412 ,$82 ,3,0,,,3,1,365,,
21445273,"New York Apartment , private bed room / queen bed.",87481391306,verified,Nour,Manhattan,Harlem,40.80903,-73.94306999999999,United States,US,False,moderate,Private room,2006.0,$490 ,$98 ,1,47,7/5/2019,5.71,3,3,75,"Thank you for your reservation. By placing your reservation online you indicated that you accepted the terms and conditions which have been printed below.  Please review your reservation summary as below - then print, sign and return the agreement to:  (EMAIL HIDDEN) or fax it to (PHONE NUMBER HIDDEN) or  mail it to: Spare Suite, Inc., 119 Braintree Street, Suite 510, Boston, MA 02134, USA Upon receipt, we will send you the welcome document with check in instructions and how to get your keys. ------------------------------------------------------------------------ ------------------------------------------------------------------------ Terms of the Agreement: BOOKING AND REFUND POLICY Once booked your reservation is guaranteed for the check in and check out times and dates specified. All reservations must be paid in advance, in full for the entire period of stay.  All reservations are final, and NON REFUNDABLE UNDER ANY CIRCUMSTANCES.  If you feel you may need to cancel once booked, yo",
21445825,Comfortable clean large bedroom,60322140012,unconfirmed,Sophie,Manhattan,Upper East Side,40.76877,-73.95479,United States,US,True,flexible,Private room,2003.0,$793 ,$159 ,7,1,12/12/2018,0.14,2,1,365,,
21446377,Large Studio Apartment on Todt Hill,6814918633,verified,Michael,Staten Island,Todt Hill,40.58392,-74.1078,United States,US,False,flexible,Entire home/apt,2015.0,"$1,093 ",$219 ,14,4,4/30/2019,0.56,2,1,268,,
21446930,Cool Apartment in East Village,46941374263,unconfirmed,Alex,Manhattan,East Village,40.72849,-73.98002,United States,US,True,strict,Entire home/apt,2013.0,"$1,194 ",$239 ,2,8,5/19/2019,0.97,4,1,132,No Smoking No Pets,
21447482,Charming Studio in One of the Best Locations!,47044003176,verified,Liza,Manhattan,Nolita,40.723420000000004,-73.99408000000001,United States,US,True,moderate,Entire home/apt,2017.0,$794 ,$159 ,2,2,1/1/2019,0.28,5,1,0,100% smoke free. Quiet hours in this building are from 10pm-6am.  Garbage is collected by the city of Boston on Tuesday and Friday mornings and must be placed outside in designated area for pick up.,
21448034,Brownstone w/Terrace-Close to Rockefeller Tree,66250234366,verified,Marisa,Manhattan,Upper West Side,40.7764,-73.98144,United States,US,False,moderate,Entire home/apt,2007.0,$313 ,$63 ,2,1,11/18/2018,0.13,2,1,0,To treat the place with utmost respect.,
21448587,East Village 2Bdrm apt with Rooftop and City Views,39344058696,verified,Amy,Manhattan,East Village,40.72726,-73.97934000000001,United States,US,False,moderate,Entire home/apt,2017.0,"$1,106 ",$221 ,4,3,5/27/2019,0.47,4,1,0,,
21449139,Cozy Guest Suite in Ditmas Park,9783193021,unconfirmed,Ray,Brooklyn,Flatbush,40.63462,-73.95572,United States,US,False,moderate,Entire home/apt,,"$1,176 ",$235 ,2,13,6/30/2019,1.53,2,1,160,"- No smoking / pets / shoes (inside) - Please use coasters on any wooden or lacquer surfaces  - No groups of guests - Please pick up after yourself. Dishes in the dishwasher, etc. - Only registered guests may stay overnight. Also, I try to be as green as possible: - Heat and AC should be used sparingly, when needed - Recycling is co-mingled (makes it much easier) - Compost (of non-animal products) - Please turn lights off when you are not using them",
21449691,Room at 1br apt,2068298567,unconfirmed,Agata,Queens,Astoria,40.761070000000004,-73.91364,United States,US,False,strict,Private room,,$311 ,$62 ,5,20,6/23/2019,2.43,4,1,37,just respect people in the other 5 apartments.,
21450244,Single cozy room in Manhattan's Upper West Side,44058173574,verified,Ami,Manhattan,Morningside Heights,40.80559,-73.96606,United States,US,False,flexible,Private room,,$109 ,$22 ,1,15,7/2/2019,1.77,4,1,16,No smoking!  Please be respectful of our neighbors and keep noise to a minimum.  Voices and music outside carry far.,
21450796,"Prime Williamsburg Loft, close to the water!",17379246721,unconfirmed,Lauren,Brooklyn,Williamsburg,40.71247,-73.96295,United States,US,False,moderate,Entire home/apt,,$589 ,$118 ,2,17,4/15/2019,1.99,3,1,0,"The art is for your enjoyment.  Please do not touch or move anything. Please make up beds with fresh linens and wash towels and linens before you leave.  Leave house broom clean.  Dishes should be washed and put away. Sorry, no pets and no smoking.  There are age restrictions for guests.",
21451348,STUDIO&GARDEN REDESIGNED Park Slope-Brooklyn!,10275172428,verified,Sophia,Brooklyn,South Slope,40.66129,-73.98734,United States,US,False,moderate,Entire home/apt,,$788 ,$158 ,3,4,5/6/2019,0.48,3,5,41,,
21451900,VERREZZANO HOUSE,40255258809,verified,Daniel,Staten Island,Concord,40.60367,-74.0695,United States,US,True,strict,Entire home/apt,,$246 ,$49 ,4,4,5/7/2019,0.53,2,1,320,No Smoking  No Parties No Excess Noise - We have neighbors in the building.,
21452453,Neon Dreams - Private Bedroom in Chelsea,98213209305,unconfirmed,Shannon & Ryan,Manhattan,Chelsea,40.7487,-73.99678,United States,US,True,moderate,Private room,,$643 ,$129 ,1,42,7/2/2019,5.06,5,1,23,"Guests are required to take their shoes off in the house (we have slippers for all), and to be respectful of the home.",
21453005,Large luxury apartment. NYC,50962434662,verified,Jo,Manhattan,Harlem,40.81861,-73.94565,United States,US,False,flexible,Entire home/apt,2016.0,$871 ,$174 ,8,1,1/6/2019,0.16,4,1,166,"We do not permit smoking, pets or parties. Thank you!",
21453557,"Queen size bed room , New York Apartment",46774932724,unconfirmed,Nour,Manhattan,Harlem,40.80935,-73.9442,United States,US,True,flexible,Private room,2017.0,"$1,028 ",$206 ,1,61,7/1/2019,7.5,3,3,31,This is a quiet building with great neighbors so please treat it with respect when late at night.  This is our 2nd home so please treat it like your own and leave it like you found it.  No Smoking (other than on the deck) and no pets please. Thanks!,
21454110,"Cozy, newly renovated, 2 bed, Brooklyn apartment",41730304038,unconfirmed,Tom,Brooklyn,Park Slope,40.67811,-73.97974,United States,US,False,strict,Entire home/apt,2017.0,$247 ,$49 ,3,3,6/22/2019,0.4,3,1,0,,
21454662,Commuter Studio,81384431061,unconfirmed,Kaleel,Manhattan,Washington Heights,40.84534,-73.93479,United States,US,True,strict,Shared room,2022.0,$305 ,$61 ,2,13,6/27/2019,1.72,2,1,126,Please respect the residents by keeping noise down and absolutely no smoking.  There is no bag storage at the building.  Please do not ask the concierges.  Thank you.,
21455214,Bushwick Room,41431065266,verified,Steve,Brooklyn,Bushwick,40.69016,-73.91075,United States,US,False,moderate,Private room,2020.0,$422 ,$84 ,30,0,,,2,1,0,"No smokers, please.  ",
21455767,Charming Carroll Gardens/Gowanus Apartment,68208904674,verified,Larah,Brooklyn,Carroll Gardens,40.67861,-73.99469,United States,US,False,strict,Entire home/apt,2003.0,$130 ,$26 ,2,2,11/25/2018,0.24,5,1,0,Please be respectful of our belongings and leave things as your found them.,
21456319,Inclusive & clean Time square sunny apartment,75053220760,verified,Nir,Manhattan,Hell's Kitchen,40.76388,-73.99306999999999,United States,US,False,flexible,Entire home/apt,2013.0,$861 ,$172 ,30,0,,,5,4,0,,
21456871,Great New York -  Private or shared room 2,45223222629,verified,Ruby,Manhattan,Midtown,40.74684,-73.98698,United States,US,False,moderate,Private room,2006.0,,$97 ,4,7,5/11/2019,0.82,2,6,357,No Smoking No Pets,
21457423,BEST LOCATION!! Whole Apartment with Backyard!!,93755796285,verified,Vince,Manhattan,Lower East Side,40.714890000000004,-73.98510999999999,United States,US,False,flexible,Entire home/apt,2020.0,,$184 ,2,6,6/8/2019,0.92,3,3,83,No smoking in condo or hallways of building.  No parties.  Well-behaved pets OK.  Quiet and respectful of our neighbors.,
21457976,Serene & clean stay in a luxury building,78314592732,verified,Kat,Manhattan,East Harlem,40.78819,-73.94234,United States,US,True,flexible,Private room,2005.0,,$13 ,2,3,12/6/2018,0.38,3,1,89,No Smoking No Pets,
21458528,East Village Sublet multi month please,21991476753,verified,Kirt,Manhattan,East Village,40.728770000000004,-73.98938000000001,United States,US,False,moderate,Entire home/apt,2004.0,,$179 ,31,0,,,5,1,0,"Please be respectful of our neighbors and keep voices, music, etc at a reasonable volume.  Please be tidy and take good care of our home. No shoes on the area rug, be neat with food and drink.",
21459080,"Artistic Studio Apt, Private Entrance",92910357299,unconfirmed,Tohar,Brooklyn,Crown Heights,40.66935,-73.94133000000001,United States,US,False,strict,Entire home/apt,2013.0,,$164 ,2,17,6/16/2019,2.01,4,1,245,We want you to treat our home as your own.  We have a few house rules- -Extra visitors and overnight guests are not allowed. - No pets -No smoking -Cooking facilities are not available -Minimum 2 night stay,
21459633,Beautiful apartment next to Central Park & The Met,57713470467,unconfirmed,Joan,Manhattan,Upper East Side,40.77697,-73.96063000000001,United States,US,False,moderate,Entire home/apt,2011.0,,$200 ,30,2,1/4/2019,0.25,4,1,0,,
21460185,"Modern 1BR Astoria, espresso maker, 5 min 2 train",13235721230,unconfirmed,Evan,Queens,Astoria,40.76204,-73.92267,United States,US,True,moderate,Entire home/apt,2016.0,,$175 ,5,3,5/21/2019,0.53,4,1,52,You can use our home as you would like us to use yours. We invite you to use our kitchen as you please. We would love to come home to our apartment in the manner we will leave it for you: clean and ready to use.,
21460737,Very spacious 2-BR entire apartment in the UWS,25604517298,unconfirmed,Juan Francisco,Manhattan,Morningside Heights,40.80413,-73.96415999999999,United States,US,False,flexible,Entire home/apt,2020.0,$408 ,$82 ,2,9,4/8/2019,1.04,5,2,154,#NAME?,
21461290,Quiet Comfty Home,35385798223,verified,Xiomara,Staten Island,Bull's Head,40.617,-74.16485,United States,US,False,flexible,Private room,2021.0,$356 ,$71 ,1,29,7/7/2019,3.4,3,1,362,We live in a quiet neighborhood with respectful neighbors and we ask that you show them the same respect.  No unreasonable noise after 11pm - no smoking - no parties.,
21461842,Large 1 Bed Beautiful view  LES in Luxury Building,21376190788,unconfirmed,Tim,Manhattan,East Village,40.72185,-73.98451,United States,US,False,strict,Entire home/apt,2004.0,$116 ,$23 ,2,1,5/17/2019,0.57,3,1,0,No smoking or parties. Please be courteous of my cordial neighbors.,
21462394,Single room in a 2-br apartment in the UWS,94145369205,verified,Juan Francisco,Manhattan,Morningside Heights,40.804629999999996,-73.96373,United States,US,True,moderate,Private room,2017.0,"$1,049 ",$210 ,3,3,3/4/2019,0.38,5,2,0,No Smoking No Pets,
21462946,Home,87718946740,verified,Anting,Brooklyn,Greenpoint,40.73297,-73.95385,United States,US,False,flexible,Private room,2013.0,$450 ,$90 ,1,0,,,4,33,365,,
21463499,Home: 12 mins to Manhattan,25498788814,unconfirmed,Anting,Brooklyn,Greenpoint,40.730990000000006,-73.956,United States,US,True,flexible,Private room,2006.0,$306 ,$61 ,1,0,,,3,33,365,"House Rules 1. Check-in is 4 pm local time. If the unit is ready earlier, we’ll let you know. Check-out is normally 11 am local time, but we’d be happy to extend it as long as we don’t have a cleaning scheduled. Just let us know.  2. All bookings require a security deposit of at least $300, which will be refunded within 7 days of your check-out. 3. For security measures we require all guests to provide proof of identification through ID verification on our own website. In order to check in we'll need a photo of your ID.  4. Our cancellation policy is as shown on our ad and defined by the site you are booking through.  5. Don’t let $300 go up in smoke. There's no smoking allowed in any Flatbook and a $300 fine for breaking this rule.  6. Unfortunately we don’t allow pets in any of our apartments. 7. Unless you’re staying in one of our specialty apartments, we don’t allow parties or excessive noise. 8. If we find the place very messy, we have to charge an extra $40 for every extra hour o",
21464051,Chill pad,97928757910,verified,Thomas,Queens,Rego Park,40.729859999999995,-73.85929,United States,US,False,strict,Private room,2013.0,$371 ,$74 ,1,7,1/25/2019,0.82,5,1,0,#NAME?,
21464603,Sophisticated Artist Loft sale! Reg. $525.,6691403558,unconfirmed,Shelli,Manhattan,Financial District,40.71086,-74.00721,United States,US,False,moderate,Entire home/apt,2008.0,$411 ,$82 ,2,3,5/24/2019,0.36,3,1,158,"Be kind, courteous, just as how you would want to be treated. No overnight guests or loud noises at night as it is a building full of young professionals.",
21465156,Hell's Kitchen Comfy Loft Bedroom (for one person),56344116955,unconfirmed,Michael,Manhattan,Hell's Kitchen,40.761990000000004,-73.99253,United States,US,False,strict,Private room,2016.0,$70 ,$14 ,1,59,6/23/2019,7.41,5,1,194,"For instant book, only 4 or less guests. Otherwise send me a message, and we can chat about it. Smoking allowed on balcony or roof deck.",
21465708,Awesome Room with 2 Beds and Large Closet,69084423705,unconfirmed,Felix Lion,Brooklyn,Bedford-Stuyvesant,40.69388,-73.94501,United States,US,False,strict,Private room,2009.0,$940 ,$188 ,3,19,6/4/2019,2.24,5,3,361,,
21466260,New Luxury Williamsburg 2 Bedroom 2 Bath,21339019735,verified,Rachael,Brooklyn,Williamsburg,40.71047,-73.95529,United States,US,True,strict,Entire home/apt,2008.0,$412 ,$82 ,5,2,1/1/2019,0.26,4,1,0,"No pets, no smoking, no more than 6 guests. We welcome families traveling for pleasure.  No corporate customers. 2 nights minimum.",
21466813,not available,2003029233,verified,Anna,Queens,Ozone Park,40.681290000000004,-73.84235,United States,US,True,flexible,Private room,2011.0,"$1,017 ",$203 ,1,1,10/26/2018,0.12,3,2,173,"No smoking in apartment, in building or within 50 feet of entrance.  No pets.  Quiet and respectful of our neighbors.",
21467365,Great New York - korea townPrivate  room 1,70629884770,unconfirmed,Ruby,Manhattan,Midtown,40.74626,-73.98682,United States,US,False,strict,Private room,2004.0,"$1,161 ",$232 ,2,14,5/27/2019,1.76,5,6,305,"Ideally a person that is respectful of my home , non smokers and no parties",
21467917,Lovely Modern Mid-century Feng Shui Apartment,87879530108,verified,Chiroy,Manhattan,Washington Heights,40.832840000000004,-73.94461,United States,US,True,strict,Private room,2009.0,$933 ,$187 ,2,17,6/23/2019,1.99,5,2,27,,
21468469,Comfy extra bedroom in Williamsburg,73325076997,verified,Anthony,Brooklyn,Williamsburg,40.711940000000006,-73.9668,United States,US,False,moderate,Private room,2013.0,$568 ,$114 ,2,30,6/23/2019,3.53,5,3,43,"No smoking. Please do not use the fireplace. The porch is a lot fo fun, but make sure to keep Volume down after 11pm as neighbors can hear everything.",
21469022,Stunning Modern Suite in the Heart of Brooklyn,71013473101,unconfirmed,Guy,Brooklyn,Crown Heights,40.66847,-73.95225,United States,US,True,moderate,Private room,2022.0,$473 ,$95 ,4,0,,,2,3,0,No Smoking.,
21469574,Beautiful Room with 2 Beds Near Metro.,23050272736,unconfirmed,Felix Lion,Brooklyn,Bedford-Stuyvesant,40.69379,-73.94384000000001,United States,US,True,strict,Private room,2009.0,"$1,053 ",$211 ,2,15,5/15/2019,1.76,5,3,365,,
21470126,Charming Room with 2 Beds Near Metro,20625836173,unconfirmed,Felix Lion,Brooklyn,Bedford-Stuyvesant,40.69304,-73.94349,United States,US,True,moderate,Private room,2015.0,$169 ,$34 ,2,15,6/23/2019,1.77,3,3,365,NO Smoking. Pets allow -- Breed Restrictions Apply.,
21470679,Chic Upper West Side Suite,35823124024,verified,Sheila,Manhattan,Washington Heights,40.83513,-73.94738000000001,United States,US,True,strict,Private room,2017.0,"$1,116 ",$223 ,2,16,6/18/2019,1.89,2,1,283,No Smoking,
21471231,Large Private Room in Beautiful Brooklyn Apartment,91546773240,verified,Lauren,Brooklyn,Bushwick,40.701370000000004,-73.92442,United States,US,False,strict,Private room,2007.0,$640 ,$128 ,2,10,6/12/2019,2.36,2,1,14,,
21471783,Cozy 1 Bedroom in LIC,79766170030,verified,Maggy,Queens,Astoria,40.76276,-73.92508000000001,United States,US,True,flexible,Entire home/apt,2022.0,$654 ,$131 ,1,6,1/1/2019,0.79,3,1,1,,
21472336,It's always sunny in Hells Kitchen,2101486308,unconfirmed,Christina,Manhattan,Upper West Side,40.76964,-73.98615,United States,US,False,flexible,Entire home/apt,2004.0,$958 ,$192 ,7,0,,,4,1,34,"No smoking, pets or permitted",
21472888,NIce Bright Private Room North of Central Park,80385035893,verified,Lyn,Manhattan,Harlem,40.812259999999995,-73.94136999999999,United States,US,True,flexible,Private room,2011.0,$390 ,$78 ,5,5,6/17/2019,0.6,5,1,184,,
21473440,You can live in the center of Manhattan!,63830805815,verified,Tanya,Manhattan,Midtown,40.74945,-73.98761999999999,United States,US,False,flexible,Private room,2021.0,$336 ,$67 ,1,58,6/25/2019,6.72,3,2,0,,
21473992,Bright 2BR/2BA Apartment - Heart of East Village,39272723775,verified,Yoann,Manhattan,East Village,40.729079999999996,-73.98912,United States,US,True,flexible,Entire home/apt,2007.0,$228 ,$46 ,6,1,12/31/2018,0.16,5,1,25,,
21474545,Simple Perfect Soho Sublet,7309587245,verified,Jennifer,Manhattan,Nolita,40.7223,-73.99606999999999,United States,US,True,moderate,Entire home/apt,2021.0,$79 ,$16 ,30,0,,,4,2,249,,
21475097,Sharing room for FEMALE #1,45026155514,unconfirmed,Mikosya,Brooklyn,Brighton Beach,40.58056,-73.96313,United States,US,True,flexible,Shared room,2009.0,$92 ,$18 ,1,4,6/9/2019,0.56,4,2,365,,
21475649,Huge Light Filled 1BDR Loft - Modern + Minimalist,66259020219,verified,Sarah,Brooklyn,Bedford-Stuyvesant,40.69105,-73.95881999999999,United States,US,True,flexible,Entire home/apt,2012.0,$443 ,$89 ,4,3,5/27/2019,0.4,3,1,5,No Smoking.  No Pets.,
21476202,"Sun-filled room in a quiet, historic neighborhood.",5211972763,unconfirmed,Kazuya,Queens,Sunnyside,40.7366,-73.92358,United States,US,False,flexible,Private room,2020.0,$401 ,$80 ,30,1,2/5/2019,0.19,5,103,252,"1. Please keep a quiet environment 2. I want friendly guests. Please be friendly to each other or other tenants and help me to manage situations easily.  3. No smoking in the room; smoking should be outside of the building 4. No pets 5. Fire pre-cauction by using kitchen; If cooking food, leaving kitchen with interruption should be less than one minute. There was a tenant in 6 weeks, cooking food and leaving kitchen for more than 30 minutes and forgot to turn off switch 3 times. One year it will have 25 times forgoting to turn off fire switch. Two tenants will be 50 times in one year. It will cause fire. This behavior is not acceptable. To cook food without a person in the kitchen is not acceptable. 6. Becareful of clots in the pipe for bathroom and kitchen. Don't remove the bathroom filter when taking shower. Flush the toilet by holding the switch for 4-5 seconds for full flush. You may flush the toilet first; when there is no clots, you can use. Please don't dump food in the kitchen ",
21476754,Williamsburg  New Luxury Private Room + Bathroom,25560245611,verified,Scott,Brooklyn,Williamsburg,40.71145,-73.95534,United States,US,True,moderate,Private room,2015.0,"$1,097 ",$219 ,2,7,7/1/2019,0.83,2,1,326,No Smoking.  No Pets.,
21477306,New Brooklyn&Breakfast listing! 2nd fl Budget Room,28813694290,verified,Brooklyn&   Breakfast    -Len-,Brooklyn,Prospect Heights,40.67929,-73.97097,United States,US,False,moderate,Private room,2003.0,"$1,141 ",$228 ,1,39,7/1/2019,4.55,4,13,315,NO Smoking.  Pets permitted with fee.,
21477859,2 BED 2 BATH DUPLEX IN UPPER EAST SIDE,56835977890,verified,Pranjal,Manhattan,Upper East Side,40.77114,-73.95913,United States,US,False,flexible,Entire home/apt,2020.0,$997 ,$199 ,30,0,,,5,65,365,No smoking and no pets.,
21478411,Private Guest Loft in a Sunny Etsy-Lovers Apt,30741642941,unconfirmed,Kaylen,Brooklyn,Williamsburg,40.70969,-73.94355999999999,United States,US,False,strict,Private room,2009.0,$481 ,$96 ,2,0,,,2,1,0,NO Smoking. Pets allowed with non-refundable pet fee.,
21478963,"Large, comfortable, one-bedroom Astoria apartment",18319337339,verified,Kira,Queens,Ditmars Steinway,40.77489,-73.9161,United States,US,True,strict,Private room,2016.0,$228 ,$46 ,1,0,,,3,1,157,No Smoking,
21479515,San Carlos Hotel Deluxe Room (B)- up to 3,39089834110,unconfirmed,Janet,Manhattan,Midtown,40.75524,-73.97269,United States,US,True,strict,Private room,2005.0,$723 ,$145 ,1,8,5/19/2019,0.94,3,11,177,No Smoking,
21480068,San Carlos Hotel Deluxe Rm 2 Queen bds (B)-up to 4,42998641365,unconfirmed,Janet,Manhattan,Midtown,40.75611,-73.97209000000001,United States,US,True,moderate,Private room,2015.0,"$1,095 ",$219 ,1,1,4/21/2019,0.38,3,11,178,,
21480620,UPPER EAST SIDE LUXURY 2BR Apartment,49150393268,verified,Maayan,Manhattan,Upper East Side,40.759679999999996,-73.95963,United States,US,False,strict,Entire home/apt,2003.0,$470 ,$94 ,7,0,,,5,1,15,,
21481172,Parisian West Village Apartment,73835144990,unconfirmed,Alexis,Manhattan,West Village,40.7374,-74.00409,United States,US,True,strict,Entire home/apt,2007.0,$472 ,$94 ,2,3,1/2/2019,0.39,2,1,0,,
21481725,Private room in Washington Heights!,82202987129,unconfirmed,Michael,Manhattan,Washington Heights,40.84832,-73.93583000000001,United States,US,True,moderate,Private room,2012.0,"$1,100 ",$220 ,1,59,6/29/2019,7.14,3,1,77,,
21482277,Sunny Brooklyn Duplex,46578705995,unconfirmed,Aaron,Brooklyn,Bedford-Stuyvesant,40.69175,-73.94334,United States,US,True,moderate,Entire home/apt,2012.0,$278 ,$56 ,2,3,1/4/2019,0.38,4,2,0,"Thank you for your reservation. By placing your reservation online you indicated that you accepted the terms and conditions which have been printed below.  Please review your reservation summary as below - then print, sign and return the agreement to:  (EMAIL HIDDEN) or fax it to (PHONE NUMBER HIDDEN) or  mail it to: Spare Suite, Inc., 119 Braintree Street, Suite 510, Boston, MA 02134, USA Upon receipt, we will send you the welcome document with check in instructions and how to get your keys. ------------------------------------------------------------------------ ------------------------------------------------------------------------ Terms of the Agreement: BOOKING AND REFUND POLICY Once booked your reservation is guaranteed for the check in and check out times and dates specified. All reservations must be paid in advance, in full for the entire period of stay.  All reservations are final, and NON REFUNDABLE UNDER ANY CIRCUMSTANCES.  If you feel you may need to cancel once booked, yo",
21482829,Loft Space with Incredible Windows,62350473210,unconfirmed,Greg,Manhattan,Chinatown,40.717220000000005,-74.00293,United States,US,True,flexible,Entire home/apt,2013.0,"$1,144 ",$229 ,1,0,,,5,1,365,"Sorry, no smoking and no pets.",
21483382,cozy artsy cool,10070255978,unconfirmed,Nino,Brooklyn,Bay Ridge,40.62444,-74.02916,United States,US,True,strict,Private room,2016.0,$822 ,$164 ,2,5,1/4/2019,0.59,5,2,12,"No smoking, pets, overnight guests or loud noise.",
21483934,"Cozy Room In The Heart Of Bushwick, Brooklyn",54194701094,verified,Andrea,Brooklyn,Bushwick,40.70167,-73.93308,United States,US,False,strict,Private room,2018.0,$917 ,$183 ,1,3,5/17/2019,0.36,2,2,342,• Check-in time is 3PM.,
21484486,Beautiful 1.5 bedroom in Bed Stuy Brownstone.,23280560518,unconfirmed,Vida,Brooklyn,Bedford-Stuyvesant,40.68457,-73.93456,United States,US,True,strict,Entire home/apt,2022.0,$221 ,$44 ,2,40,6/17/2019,4.86,5,1,31,,
21485038,Spacious Modern 1BR Living by NÔM Living,87941503056,verified,Nôm,Brooklyn,Williamsburg,40.70878,-73.96621999999999,United States,US,False,moderate,Entire home/apt,2019.0,$917 ,$183 ,30,1,12/21/2018,0.15,4,7,108,"Please be respectful of everything in our apartment. This is our primary residence, so please treat our home like it were your own! Thank you!",
21485591,Bushwick Modern Loft w/terrace,26798559489,verified,Garrett,Brooklyn,Bushwick,40.701370000000004,-73.93276999999999,United States,US,True,strict,Entire home/apt,2018.0,$449 ,$90 ,2,0,,,2,1,85,,
21486143,Exclusive ♥  | Bed-Stuy Sanctuary,67437629345,unconfirmed,Youge,Brooklyn,Bedford-Stuyvesant,40.68342,-73.92838,United States,US,False,strict,Private room,2015.0,$216 ,$43 ,3,21,5/31/2019,2.55,3,2,148,,
21486695,Solo ♥ | Stuyvesant Sunshine,55096770280,verified,Youge,Brooklyn,Bedford-Stuyvesant,40.683370000000004,-73.9288,United States,US,False,flexible,Private room,2022.0,"$1,042 ",$208 ,5,30,7/7/2019,3.66,5,2,178,"-No smoking -No local guests -If you use the kitchen, please clean up after yourself. -I will leave maps/guides for your reference, but please do not remove anything from my home. -If you have any questions, please call or text me (phone number hidden). -Most importantly, enjoy yourself!",
21487248,Bright Apt Super Stylish Best Location,27752903919,verified,Corporate Housing,Manhattan,Hell's Kitchen,40.76382,-73.98815,United States,US,False,flexible,Entire home/apt,2016.0,$729 ,$146 ,30,1,12/9/2018,0.14,4,91,345,"House Rules 1. Check-in is 4 pm local time. If the unit is ready earlier, we’ll let you know. Check-out is normally 11 am local time, but we’d be happy to extend it as long as we don’t have a cleaning scheduled. Just let us know.  2. All bookings require a security deposit of at least $300, which will be refunded within 7 days of your check-out. 3. For security measures we require all guests to provide proof of identification through ID verification on our own website. In order to check in we'll need a photo of your ID.  4. Our cancellation policy is as shown on our ad and defined by the site you are booking through.  5. Don’t let $300 go up in smoke. There's no smoking allowed in any Flatbook and a $300 fine for breaking this rule.  6. Unfortunately we don’t allow pets in any of our apartments. 7. Unless you’re staying in one of our specialty apartments, we don’t allow parties or excessive noise. 8. If we find the place very messy, we have to charge an extra $40 for every extra hour o",
21487800,Stunning and Spacious Brownstone Apt in Park Slope,16269160365,unconfirmed,Sari,Brooklyn,Park Slope,40.67137,-73.98064000000001,United States,US,False,strict,Entire home/apt,2003.0,"$1,021 ",$204 ,2,9,7/7/2019,1.09,5,1,23,"Please Note: This unit was just renovated last year and it comfortably accommodates 4 guests, but up to 5 guests are permitted if you so desire (two guests in each bedroom and 1 guest on the available twin size air mattress). Please request an air mattress (if needed) when making a reservation. No smoking, no pets, no parties, and must be 25 years old to book.   For check-out, please ensure: -  All plates and cups are left in the sink or dishwasher -  All trash is left in the kitchen trash can or bagged and left next to the trash can (additional bags are under the sink) -  All windows are closed and locked -  If used, the air mattresses are deflated and put away (please leave used linens for the air mattresses on the floor) -  If furniture was moved during your stay, please return to its original location Please be mindful to our neighbors in the building; quiet hours after 10pm. Please be considerate of our next guests who will be staying after you, if something is broken or needs fix",
21488352,Beautiful furnished private studio with backyard,58090096945,verified,Melissa,Queens,Jamaica,40.68547,-73.79063000000001,United States,US,False,flexible,Entire home/apt,2019.0,$292 ,$58 ,1,111,7/7/2019,13.11,5,1,41,No smoking. No parties. Respectful of property :),
21488905,DUMBO PALACE,93784761890,unconfirmed,Tommy,Brooklyn,Fort Greene,40.69686,-73.97315,United States,US,False,strict,Private room,2010.0,$757 ,$151 ,2,11,7/3/2019,2.39,3,2,113,No Smoking  No Pets,
21489457,Williamsburg Bedford av. Comfy bedroom.,32598608620,unconfirmed,Pedro,Brooklyn,Williamsburg,40.71351,-73.96066,United States,US,True,moderate,Private room,2014.0,$243 ,$49 ,2,48,6/28/2019,5.83,2,1,95,"House Rules 1. Check-in is 4 pm local time. If the unit is ready earlier, we’ll let you know. Check-out is normally 11 am local time, but we’d be happy to extend it as long as we don’t have a cleaning scheduled. Just let us know.  2. All bookings require a security deposit of at least $300, which will be refunded within 7 days of your check-out. 3. For security measures we require all guests to provide proof of identification through ID verification on our own website. In order to check in we'll need a photo of your ID.  4. Our cancellation policy is as shown on our ad and defined by the site you are booking through.  5. Don’t let $300 go up in smoke. There's no smoking allowed in any Flatbook and a $300 fine for breaking this rule.  6. Unfortunately we don’t allow pets in any of our apartments. 7. Unless you’re staying in one of our specialty apartments, we don’t allow parties or excessive noise. 8. If we find the place very messy, we have to charge an extra $40 for every extra hour o",
21490009,Modern & Sun-filled 1BR Condo in Prospect Heights,17886212141,verified,Bertrand,Brooklyn,Prospect Heights,40.68014,-73.96539,United States,US,True,strict,Entire home/apt,2017.0,$287 ,$57 ,8,12,6/24/2019,1.54,5,1,34,No Smoking  No Pets,
21490561,"Gorgeous 2 bedroom apt in Ditmas Park
1300 ft.²",93718019860,unconfirmed,Nicole,Brooklyn,Flatbush,40.63513,-73.9672,United States,US,False,strict,Entire home/apt,2015.0,$713 ,$143 ,2,2,12/28/2018,0.27,4,1,0,No Smoking  No Pets,
21491114,Cozy Quiet UpperWest 1 bed near C Park/Subway,76378528684,verified,Carol,Manhattan,Upper West Side,40.78587,-73.97589,United States,US,False,strict,Entire home/apt,2009.0,$418 ,$84 ,2,18,2/7/2019,2.09,4,1,0,No Smoking  No Pets,
21491666,Private Room in the Heart of NYC. Room 1 of 3.,10434118485,unconfirmed,Allison,Manhattan,Murray Hill,40.749359999999996,-73.97836,United States,US,False,strict,Private room,2003.0,"$1,109 ",$222 ,1,25,7/3/2019,3.3,2,3,32,"Please Note: This unit was just renovated last year and it comfortably accommodates 6 guests, but up to 7 guests are permitted if you so desire (two guests in each bedroom and 1 or 2 guests on the available queen size air mattress). Please request an air mattress (if needed) when making a reservation. No smoking, no pets, no parties, and must be 25 years old to book.   For check-out, please ensure: -  All plates and cups are left in the sink or dishwasher -  All trash is left in the kitchen trash can or bagged and left next to the trash can (additional bags are under the sink) -  All windows are closed and locked -  If used, the air mattresses are deflated and put away (please leave used linens for the air mattresses on the floor) -  If furniture was moved during your stay, please return to its original location Please be mindful to our neighbors in the building; quiet hours after 10pm. Please be considerate of our next guests who will be staying after you, if something is broken or ne",
21492218,Brick wall apartment next to subway station,42300700903,unconfirmed,Charlie,Manhattan,Harlem,40.81296,-73.94216999999999,United States,US,True,strict,Private room,2008.0,$453 ,$91 ,7,2,4/20/2019,0.27,4,1,16,"House Rules 1. All bookings made at least a week before check in are fully refundable if cancelled within 24 hours of booking. After this, you will receive a 50% refund if you cancel at least 7 days before the start of your trip. 2. Check-in time is any time after 4 pm local time. If the unit is ready earlier, we’ll let you know. Check-out is normally 11 am local time, but we’d be happy to extend it as long as we don’t have a cleaning scheduled. Just let us know.  3. All bookings require a security deposit of at least $300. 4. For security measures we require all guests to provide proof of identification through ID verification on our own website. In order to check in, we'll need a photo of your ID.  5. Don’t let $300 go up in smoke. There's no smoking allowed in any Flatbook and a $300 fine for breaking this rule.  6. Unfortunately we don’t allow pets in most of our apartments. 7. Unless you’re staying in one of our specialty apartments, we don’t allow parties or excessive noise. 8. I",
21492771,Home on Houston - 2 Rooms near SoHo/NoHo/LES,7216308491,unconfirmed,Jamie,Manhattan,NoHo,40.725840000000005,-73.99306,United States,US,True,moderate,Private room,2007.0,$957 ,$191 ,2,0,,,4,1,5,No Smoking  No Pets,
21493323,Amazing One Bedroom Apartment in Prime Brooklyn,77405280291,unconfirmed,Alan,Brooklyn,Bushwick,40.69327,-73.90773,United States,US,True,strict,Private room,2020.0,$901 ,$180 ,3,8,5/19/2019,0.95,5,2,362,,
21493875,Luxurious Famous Hell’s Kitchen!,13503373961,verified,Douglas,Manhattan,Hell's Kitchen,40.7639,-73.99083,United States,US,True,moderate,Entire home/apt,2007.0,$315 ,$63 ,2,29,7/7/2019,3.4,3,3,100,,
21494428,Cozy + Chic Harlem Apartment,5587688116,verified,Madeline,Manhattan,Harlem,40.823640000000005,-73.94471999999999,United States,US,False,moderate,Entire home/apt,2015.0,$983 ,$197 ,2,19,6/30/2019,2.35,2,1,37,"The building has a very strict no smoking policy, please do not smoke in the apartment.  Our neighbors are very conservative, please be respectful, and discreet. No grilling is allowed on the roof.",
21494980,Sunny room with new Queen bed and large closet,39424564590,verified,Andrew,Manhattan,East Village,40.72145,-73.97881,United States,US,True,strict,Private room,2020.0,$945 ,$189 ,4,5,5/26/2019,1.9,2,1,33,,
21495532,Charming Studio in an EXCELLENT LOCATION,80590508294,verified,Julio,Manhattan,Hell's Kitchen,40.76614,-73.98484,United States,US,True,flexible,Entire home/apt,2003.0,$378 ,$76 ,4,13,6/29/2019,1.81,2,1,55,,
21496084,1 Bdrm Midtown Oasis,93622688863,unconfirmed,Deborah,Manhattan,Theater District,40.76189,-73.98338000000001,United States,US,False,moderate,Entire home/apt,2019.0,"$1,141 ",$228 ,20,1,1/19/2019,0.18,3,4,0,,
21496637,Luxury 3 bedroom in Prime Midtown,23543202945,unconfirmed,Katherine,Manhattan,Murray Hill,40.74485,-73.97072,United States,US,False,flexible,Entire home/apt,2004.0,$428 ,$86 ,4,26,7/6/2019,3.06,2,1,321,,
21497189,2nd floor art,59722357509,unconfirmed,Dionyssios,Manhattan,Washington Heights,40.85416,-73.9292,United States,US,False,flexible,Entire home/apt,2003.0,"$1,053 ",$211 ,2,14,6/12/2019,2.12,5,4,365,,
21497741,Scandinavian Style 1BR in the Upper East Side,26566934789,verified,Mike,Manhattan,Upper East Side,40.78411,-73.95097,United States,US,False,moderate,Entire home/apt,2019.0,$575 ,$115 ,2,7,1/1/2019,0.88,2,1,0,,
21498294,Modern and spacious 1BR apartment in Harlem,17876618420,unconfirmed,Karla,Manhattan,Harlem,40.821529999999996,-73.94612,United States,US,False,flexible,Entire home/apt,2017.0,$761 ,$152 ,1,5,6/30/2019,0.66,3,1,3,I expect you to keep the apartment picked up and left how it was when you arrived.,
21498846,Brooklyn Loft Bedroom I,781403233,unconfirmed,Soeun & Rolando,Brooklyn,Bedford-Stuyvesant,40.69206,-73.95997,United States,US,False,flexible,Private room,2009.0,$128 ,$26 ,1,40,7/1/2019,5.31,5,2,99,1. No house parties 2. Do not damage any of the furniture or appliances.  3. Do not take anything that has been provided for your comfort and enjoyment.  4. Enjoy yourself! And please reach out if you have any questions or concerns.,
21499398,Cozy Small Room with Brooklyn Bridge View,59250792062,unconfirmed,Liv,Manhattan,Financial District,40.70626,-74.00480999999999,United States,US,False,flexible,Private room,2010.0,$405 ,$81 ,1,13,6/9/2019,1.62,4,1,177,"Please remember that this is a residential building. The building rules, apartment occupancy restrictions and the year-round tenants must be respected.  Parties, pets and smoking are not allowed under any circumstances and incur significant fees.",
21499951,Great Location in Midtown! ESB,60889483783,verified,Studioplus,Manhattan,Midtown,40.74759,-73.98889,United States,US,False,flexible,Entire home/apt,2017.0,$457 ,$91 ,2,9,6/15/2019,1.54,5,13,283,,
21500503,"Bright and cozy apartment in Cobble Hill, BK",66155047238,verified,Natalie,Brooklyn,Carroll Gardens,40.68572,-73.99234,United States,US,False,flexible,Entire home/apt,2005.0,$59 ,$12 ,2,9,6/30/2019,1.11,3,1,32,No smoking. Please be respectful of our neighbors.,
21501055,CozyStudio /Briarwood Van Wyck station F to city,71475309171,verified,Franz,Queens,Briarwood,40.70626,-73.81463000000001,United States,US,False,strict,Entire home/apt,2012.0,$795 ,$159 ,1,17,6/24/2019,2.23,3,3,44,"12 nights minimum stay No pets at any time No smoking Please be mindful of the furniture and personal belongings, it was all furnished with designer pieces and hard to replace things.",
21501607,Beautiful  apartment!!,79790304330,unconfirmed,Ruth,Manhattan,Harlem,40.81223,-73.95284000000001,United States,US,False,moderate,Entire home/apt,2008.0,"$1,063 ",$213 ,1,16,6/23/2019,2.0,5,2,300,No smoking or pets allowed,
21502160,✨✨Union Square Duplex LOFT•••4 BEDS✨✨MUST SEE !!!!,25298672505,unconfirmed,Bob,Manhattan,Gramercy,40.7367,-73.98985,United States,US,True,strict,Entire home/apt,2015.0,"$1,175 ",$235 ,5,28,6/19/2019,3.36,3,1,145,,
21502712,"Quiet, Modern Studio Near Manhattan & Brooklyn",36549377998,unconfirmed,Stephanie,Queens,Ridgewood,40.699729999999995,-73.90835,United States,US,False,strict,Entire home/apt,2021.0,"$1,177 ",$235 ,1,14,7/2/2019,2.8,5,1,2,,
21503264,Large 1 bedroom apartment available,39589877049,verified,Nikia,Manhattan,Harlem,40.82267,-73.95044,United States,US,False,strict,Entire home/apt,2006.0,$326 ,$65 ,3,1,10/24/2018,0.12,4,1,0,,
21503817,Two beds in a spacious Studio!,36014047280,verified,Omar,Manhattan,East Harlem,40.78552,-73.94153,United States,US,False,moderate,Entire home/apt,2016.0,$964 ,$193 ,1,30,6/21/2019,3.61,5,1,144,,
21504369,Enjoy a Private Room with 2 Beds in Bed Stuy,6408624957,verified,Lisa And Julian,Brooklyn,Bedford-Stuyvesant,40.69416,-73.94528000000001,United States,US,True,flexible,Private room,2015.0,"$1,023 ",$205 ,3,13,5/20/2019,1.54,3,3,365,No smoking or pets,
21504921,Gorgeous 1 bedroom in Brooklyn Heights!,85031108147,unconfirmed,Maria,Brooklyn,Brooklyn Heights,40.690329999999996,-73.9931,United States,US,False,flexible,Entire home/apt,2021.0,$266 ,$53 ,5,1,1/4/2019,0.16,4,1,35,,
21505474,Delightful Private Room with 2 Beds Near Metro,4210736591,verified,Lisa And Julian,Brooklyn,Bedford-Stuyvesant,40.69288,-73.946,United States,US,True,strict,Private room,2010.0,"$1,173 ",$235 ,2,21,6/23/2019,2.51,2,3,344,#NAME?,
21506026,Modern and cozy apt in Manhattan,64047015799,unconfirmed,Brenda And Tim,Manhattan,East Harlem,40.786609999999996,-73.94349,United States,US,True,flexible,Entire home/apt,2005.0,$710 ,$142 ,2,44,6/27/2019,5.22,3,1,93,"House rules: Guests agree to the following terms and conditions 1.Guest(s) agree to NO PARTIES anywhere on the property. Legal action will be taken for parties that cause damages to the unit, property, reputation, or relationship with building staff or other residents.  2.Smoking of any kind is not permitted in the unit or on the premises.  3.Guests agree to abide by maximum occupancy of unit, and observe quiet hours between 9pm and 9am 4.Guests are responsible for action of ALL GUESTS occupying their unit at all times.  5.Guests agree to return all keys, remotes, and parking passes. Replacement fees may apply for unreturned items 6.Guests understand that onsite building staff (maintenance and concierge) are not affiliated with Jordan or AIRBNB. Please contact me directly for any needed items. 7.Guests understand that no pets are to be in the unit.  8.Guests agree to pay replacement cost for any unreturned items, and $125 per hour fee for unauthorized early checkin or late checkout.  19",
21506578,Beautiful Queen Bed Room - Entire Apt!,6946447478,unconfirmed,Renata,Brooklyn,Sunset Park,40.662659999999995,-73.99064,United States,US,True,flexible,Entire home/apt,2017.0,$468 ,$94 ,7,1,1/2/2019,0.16,4,1,128,No smoking and no parties.,
21507130,Cozy flat in Williamsburg,89875737567,verified,Diogo,Brooklyn,Williamsburg,40.720620000000004,-73.9555,United States,US,True,strict,Entire home/apt,2015.0,$430 ,$86 ,2,7,4/21/2019,0.93,4,1,17,"No smoking, no pets. Please keep the noise at a respectful level at all times - *particularly after 10pm (as other units in the building are owner-occupied). Please treat it as though it were your own home.",
21507683,"A Comfortable Place, 15 min to JFK & 30 min to NYC",1861838158,verified,Dilenia,Queens,Woodhaven,40.6854,-73.8623,United States,US,False,moderate,Private room,2021.0,$656 ,$131 ,3,10,6/24/2019,1.36,2,2,44,No smoking. Not pets/animals. No parties or events. No entertaining beyond confirmed booked guests.,
21508235,Private room-Upper East Side-2min walking Q train,33858450764,unconfirmed,Betty&Sam,Manhattan,Upper East Side,40.76464,-73.95831,United States,US,False,flexible,Private room,2003.0,"$1,087 ",$217 ,6,18,5/5/2019,2.32,5,2,14,,
21508787,* Modern Private BR in the Heart of Williamsburg *,3502055640,unconfirmed,Arianna,Brooklyn,Williamsburg,40.71204,-73.96540999999999,United States,US,False,moderate,Private room,2020.0,$339 ,$68 ,4,3,5/28/2019,0.48,4,1,7,"Absolutely no smoking, no pets, parties or excessive noise in the apartment.  This is a quiet residential building, perfect for travelers wanting a quiet refuge at the end of a fun filled day in Greater Boston.",
21509340,Comfortable & Sunny 1 Bdrm – Heart of Fort Greene,21822608009,verified,Hayley,Brooklyn,Fort Greene,40.68723,-73.97369,United States,US,False,moderate,Entire home/apt,2021.0,$183 ,$37 ,1,31,7/5/2019,4.23,2,1,13,"House rules: Guests agree to the following terms and conditions 1.Guest(s) agree to NO PARTIES anywhere on the property. Legal action will be taken for parties that cause damages to the unit, property, reputation, or relationship with building staff or other residents.  2.Smoking of any kind is not permitted in the unit or on the premises.  3.Guests agree to abide by maximum occupancy of unit, and observe quiet hours between 9pm and 9am 4.Guests are responsible for action of ALL GUESTS occupying their unit at all times.  5.Guests agree to return all keys, remotes, and parking passes. Replacement fees may apply for unreturned items 6.Guests understand that onsite building staff (maintenance and concierge) are not affiliated with Jordan or AIRBNB. Please contact me directly for any needed items. 7.Guests understand that no pets are to be in the unit.  8.Guests agree to pay replacement cost for any unreturned items, and $125 per hour fee for unauthorized early checkin or late checkout.  19",
21509892,Private Bedroom - King Size Bed,80507590913,verified,Anita,Brooklyn,Bay Ridge,40.620490000000004,-74.02304000000001,United States,US,False,moderate,Private room,2016.0,$163 ,$33 ,1,26,7/6/2019,4.08,2,1,174,"Please remember that this is a residential building. The building rules, apartment occupancy restrictions and the year-round tenants must be respected.",
21510444,Harlem Heights Pearl Suite,92029763462,verified,Keanna,Manhattan,Harlem,40.8252,-73.95189,United States,US,False,moderate,Private room,2020.0,$457 ,,1,13,6/11/2019,1.58,2,3,71,"No smoking, no parties, no pets.",
21510997,Sun Drenched Apartment in Brooklyn,66730889928,unconfirmed,Daniel,Brooklyn,Crown Heights,40.66734,-73.95636999999999,United States,US,False,moderate,Entire home/apt,2017.0,$601 ,,2,4,11/26/2018,0.47,5,1,0,"Please remember that this is a residential building. The building rules, apartment occupancy restrictions and the year-round tenants must be respected.  Parties, pets and smoking are not allowed under any circumstances and incur significant fees.",
21511549,KINGS THEATER! MODERN PRIVATE ROOM WITH AMENITIES!,58354696207,unconfirmed,Ekaterina,Brooklyn,Flatbush,40.6458,-73.95392,United States,US,False,flexible,Private room,2018.0,$265 ,,1,54,7/2/2019,6.78,3,1,317,No Smoking,
21512101,Stunning 4BDRM/2BTH Duplex Loft Best Neighborhood!,40347556507,unconfirmed,Vic,Manhattan,Lower East Side,40.71856,-73.98485,United States,US,False,moderate,Entire home/apt,2012.0,$869 ,,1,29,6/24/2019,3.57,2,1,256,"House rules: Guests agree to the following terms and conditions 1.Guest(s) agree to NO PARTIES anywhere on the property. Legal action will be taken for parties that cause damages to the unit, property, reputation, or relationship with building staff or other residents.  2.Smoking of any kind is not permitted in the unit or on the premises.  3.Guests agree to abide by maximum occupancy of unit, and observe quiet hours between 9pm and 9am 4.Guests are responsible for action of ALL GUESTS occupying their unit at all times.  5.Guests agree to return all keys, remotes, and parking passes. Replacement fees may apply for unreturned items 6.Guests understand that onsite building staff (maintenance and concierge) are not affiliated with Jordan or AIRBNB. Please contact me directly for any needed items. 7.Guests understand that no pets are to be in the unit.  8.Guests agree to pay replacement cost for any unreturned items, and $125 per hour fee for unauthorized early checkin or late checkout.  19",
21512653,Amazing private room 15 min to manhattan!,82006672735,verified,Jay And Josh,Brooklyn,Bedford-Stuyvesant,40.69853,-73.94736,United States,US,False,flexible,Private room,2016.0,$867 ,,2,24,6/20/2019,3.83,5,3,310,No Smoking,
21513206,Spacious & Comfortable Suite w/ Private Entry/Bath,28813368491,unconfirmed,Dave,Staten Island,West Brighton,40.62625,-74.11109,United States,US,False,moderate,Private room,2004.0,$274 ,,1,29,7/1/2019,3.49,2,1,80,,
21513758,Beautiful private room in townhouse!,35480116902,unconfirmed,Jay And Josh,Brooklyn,Bedford-Stuyvesant,40.69712,-73.94731999999999,United States,US,True,moderate,Private room,2022.0,$136 ,,2,13,4/27/2019,1.72,5,3,320,ABSOLUTELY NO SMOKING.,
21514310,Cozy private room!,94384441339,verified,Jay And Josh,Brooklyn,Bedford-Stuyvesant,40.696509999999996,-73.94763,United States,US,False,flexible,Private room,2014.0,$614 ,,2,18,6/24/2019,2.7,2,3,338,"House Rules 1. Check-in is 4 pm local time. If the unit is ready earlier, we’ll let you know. Check-out is normally 11 am local time, but we’d be happy to extend it as long as we don’t have a cleaning scheduled. Just let us know.  2. All bookings require a security deposit of at least $300, which will be refunded within 7 days of your check-out. 3. For security measures we require all guests to provide proof of identification through ID verification on our own website. In order to check in we'll need a photo of your ID.  4. Our cancellation policy is as shown on our ad and defined by the site you are booking through.  5. Don’t let $300 go up in smoke. There's no smoking allowed in any Flatbook and a $300 fine for breaking this rule.  6. Unfortunately we don’t allow pets in any of our apartments. 7. Unless you’re staying in one of our specialty apartments, we don’t allow parties or excessive noise. 8. If we find the place very messy, we have to charge an extra $40 for every extra hour o",
21514863,"Super Spacious, Renovated, Artsy Uptown Apartment",38690885223,verified,Jhila,Manhattan,Harlem,40.82827,-73.94256999999999,United States,US,False,flexible,Entire home/apt,2014.0,$806 ,$161 ,3,15,6/15/2019,1.99,5,1,0,,
21515415,"Premier room in UWS NYC, Columbia, Central Park",94103698288,unconfirmed,Alvin,Manhattan,Morningside Heights,40.80392,-73.96556,United States,US,False,strict,Private room,2016.0,$900 ,$180 ,1,52,6/17/2019,6.14,3,4,31,No party No alcohol,
21515967,Delightful private room 15 min to manhattan!,5483012005,verified,Matthew,Brooklyn,Bedford-Stuyvesant,40.696999999999996,-73.94543,United States,US,True,flexible,Private room,2017.0,$677 ,$135 ,2,10,6/5/2019,1.44,3,2,311,"Please remember that this is a residential building. The building rules, apartment occupancy restrictions and the year-round tenants must be respected.",
21516520,Excellent private room!,56208548487,unconfirmed,Matthew,Brooklyn,Bedford-Stuyvesant,40.69871,-73.94686,United States,US,True,moderate,Private room,2014.0,$806 ,$161 ,1,30,6/24/2019,3.85,3,2,344,No smoking or partying.,
21517072,"Quiet, classic Queens studio, on subway, JFK LGA",61638851605,verified,Jonathan,Queens,Forest Hills,40.71588,-73.83266,United States,US,False,moderate,Entire home/apt,2020.0,$736 ,$147 ,1,6,5/19/2019,0.79,4,1,83,,
21517624,Fantastic private room!,78992512150,verified,Jay,Brooklyn,Bedford-Stuyvesant,40.698159999999994,-73.94703,United States,US,True,flexible,Private room,2016.0,"$1,122 ",$224 ,2,20,6/24/2019,2.64,2,3,332,,
21518176,Great private room!,25822171753,unconfirmed,Jay,Brooklyn,Bedford-Stuyvesant,40.69854,-73.94552,United States,US,True,flexible,Private room,2009.0,$933 ,$187 ,2,23,6/18/2019,2.96,5,3,322,We provide this in the apartment. Residential neighborhood.  Quiet is important.  No smoking. No pets,
21518729,Huge private room!,95363107755,verified,Jay,Brooklyn,Bedford-Stuyvesant,40.69746,-73.9454,United States,US,False,moderate,Private room,2018.0,$972 ,$194 ,2,19,6/20/2019,2.95,5,3,359,"Maximum of 2 people over 21 years of age may stay in this studio. There is a one week minimum stay and there is little if any parking available. Sorry, no children and no pets. This place is best for people visiting Boston for conferences, research, or being near family. It is not a resort and there are strict condominium rules about quiet and privacy.",
21519281,Entire Apt in the center of NYC,48743822604,verified,Lixia,Manhattan,Hell's Kitchen,40.75464,-73.99542,United States,US,False,moderate,Entire home/apt,2022.0,$312 ,$62 ,2,9,6/30/2019,1.08,4,1,2,The apartment is non-smoking and pets are not allowed.,
21519833,Large 2 bedroom apartment in Williamsburg,30698822084,verified,Eli,Brooklyn,Williamsburg,40.7158,-73.95863,United States,US,False,flexible,Entire home/apt,2014.0,$392 ,$78 ,10,0,,,5,1,0,,
21520386,"Financial District Studio, Furnished. Location!",81539323054,unconfirmed,Donna,Manhattan,Financial District,40.70496,-74.00964,United States,US,False,strict,Entire home/apt,2018.0,$880 ,$176 ,12,2,5/31/2019,0.27,2,1,14,,
21520938,Explore NYC From Our Private Studio w/Free Wifi,85862889551,verified,Casa Victoria,Queens,Corona,40.75047,-73.85374,United States,US,True,moderate,Private room,2017.0,$328 ,$66 ,1,26,6/24/2019,3.45,3,1,115,,
21521490,Private Cozy Room,7057443938,unconfirmed,Yoni,Brooklyn,Cypress Hills,40.679590000000005,-73.89209,United States,US,False,moderate,Private room,,$63 ,$13 ,1,14,6/8/2019,1.72,3,3,210,"We need to know your arrival time ALMOST 2 days before your arrival, as we need to plan arrivals and cleaning, so it's to guarantee you that you will find the flat clean and ready at your arrival. - Check out is 10:00am and if you will be late, we can charge a late check out fee (min $25) and any damage that your delay can cause to the incoming guest or to the cleaning service. - Smoking is not allowed as are loud noises after 10pm or before 9am. - Guests are not allowed to have extra guests. - A regular check out cleaning is included in the price but it doesn't mean that we will wash your dishes or pick up the garbage all around the house, so please use the trash bin and clean after using the kitchen, if not we will take pictures and charge you the extra cleaning. - There is no daily cleaning service during your stay or any change of linen/towels if you're staying more than 3 nights we can agree a change of towels (only), just ask us in advance. We're here to do the best for our guest",
21522043,Room to rent for Couple specially tourists !,95211405166,verified,Jean,Brooklyn,Bushwick,40.69155,-73.90595,United States,US,True,moderate,Private room,,$509 ,$102 ,1,0,,,5,1,365,,
21522595,Cosy room in spacious Fort Greene apartment,84568772867,unconfirmed,Izzy,Brooklyn,Fort Greene,40.695190000000004,-73.97202,United States,US,True,moderate,Private room,,$646 ,$129 ,1,23,4/23/2019,2.7,2,1,0,"Please remember that this is a residential building. The building rules, apartment occupancy restrictions and the year-round tenants must be respected.  Parties and smoking are not allowed under any circumstances and incur significant fees. Parties and smoking are not allowed under any circumstances and incur significant fees. Pets may be considered with pre-approval and an additional pet fee.",
21523147,greenpoint williamsburg  huge studio room   /,26319708265,verified,Francisca,Brooklyn,Greenpoint,40.72674,-73.95495,United States,US,True,flexible,Private room,,$547 ,$109 ,5,0,,,3,1,154,#NAME?,
21523699,Charming private room 2 beds,28898081387,verified,Digna,Brooklyn,Bedford-Stuyvesant,40.69065,-73.95153,United States,US,True,moderate,Private room,2015.0,$664 ,$133 ,30,10,6/7/2019,1.18,2,4,328,Please no smoking in any of the inside premises or on the roof deck; no loud music; no moving or rearranging furniture; and no guests beyond those indicated at booking (without clearing with owner first).,
21524252,Delightful Private Room X,24104357198,unconfirmed,Digna,Brooklyn,Bedford-Stuyvesant,40.69072,-73.95026,United States,US,False,strict,Private room,2019.0,$489 ,$98 ,30,13,5/15/2019,1.65,5,4,336,"Please remember that this is a residential building. The building rules, apartment occupancy restrictions and the year-round tenants must be respected.",
21524804,"Colorful, cozy, artsy bedroom in heart of bushwick",27534339841,unconfirmed,Marcy,Brooklyn,Bushwick,40.69807,-73.91494,United States,US,True,strict,Private room,2006.0,$787 ,$157 ,7,1,11/15/2018,0.13,3,1,89,"The apartment feels larger then listed, Nice high ceiling in the living room and an Island kitchen to enjoy breakfast.  The bedroom has a loft that fit a queen mattress, hardwood floors through out.  Bathroom has a bath tub",
21525356,Designer Brooklyn Townhouse with Garden,51775364190,verified,Charlotte,Brooklyn,Gowanus,40.67662,-73.98642,United States,US,False,moderate,Entire home/apt,2003.0,"$1,078 ",$216 ,2,6,6/24/2019,0.8,4,1,3,,
21525909,Beautiful Home 美麗之家,89751418152,verified,Anting,Brooklyn,Greenpoint,40.731359999999995,-73.95447,United States,US,True,strict,Shared room,2016.0,$518 ,$104 ,1,0,,,3,33,180,"No smoking in the apartment, in the building or outside of the building.  We ask that you be quiet and respectful of our neighbors.",
21526461,Home: Cozy Secure Convenient 12 min to NYC舒適安全便利的家,14469210524,verified,Anting,Brooklyn,Greenpoint,40.73274,-73.95575,United States,US,False,moderate,Shared room,2012.0,$746 ,$149 ,1,0,,,4,33,365,No smoking is a MUST. Fireplace is decorative only. No candles may be lit - I do have battery operated available.,
21527013,One stop away from manhattan,50531563810,unconfirmed,Tina,Brooklyn,Williamsburg,40.7073,-73.95739,United States,US,True,flexible,Private room,2020.0,$848 ,$170 ,1,56,6/26/2019,7.0,5,2,51,No smoking or parties allowed,
21527566,Beautiful two bedrooms in front of the park,38393973316,verified,Emmie,Brooklyn,Prospect-Lefferts Gardens,40.66108,-73.96153000000001,United States,US,True,flexible,Entire home/apt,2020.0,"$1,082 ",$216 ,2,1,12/29/2018,0.16,5,2,219,"House Rules 1. Check-in is 4 pm local time. If the unit is ready earlier, we’ll let you know. Check-out is normally 11 am local time, but we’d be happy to extend it as long as we don’t have a cleaning scheduled. Just let us know.  2. All bookings require a security deposit of at least $300, which will be refunded within 7 days of your check-out. 3. For security measures we require all guests to provide proof of identification through ID verification on our own website. In order to check in we'll need a photo of your ID.  4. Our cancellation policy is as shown on our ad and defined by the site you are booking through.  5. Don’t let $300 go up in smoke. There's no smoking allowed in any Flatbook and a $300 fine for breaking this rule.  6. Unfortunately we don’t allow pets in any of our apartments. 7. Unless you’re staying in one of our specialty apartments, we don’t allow parties or excessive noise. 8. If we find the place very messy, we have to charge an extra $40 for every extra hour o",
21528118,"SPACIOUS & COZY APARTMENT, 35 MINS FROM MANHATTAN",90874418196,verified,Stacy & Simon,Brooklyn,Cypress Hills,40.68775,-73.87044,United States,US,False,flexible,Entire home/apt,2017.0,"$1,050 ",$210 ,30,4,6/18/2019,0.55,4,6,170,"Shoes off at entry. Please NO SMOKERS or smoking on premises.  No loud music or loud voices on deck out of concern for neighbors.  Dispose of trash in receptacles rear of building.  Max 2 guests to share guest bedroom, SOFA IS NOT AN EXTRA BED.  Please NO VISITORS in unit beyond approved Air BND guests.  No use of fire place.  No cleaning fee, please clean dishes and dispose of smelly trash.  Thank you!!! :-)",
21528670,Sparkling Pad near Times Square HK -w- Queen Bed,56377386150,verified,Bryan,Manhattan,Hell's Kitchen,40.76328,-73.98942,United States,US,False,moderate,Private room,2017.0,"$1,183 ",$237 ,3,2,5/14/2019,0.73,5,2,30,,
21529222,Private Sunny Mid-century Feng Shui Apartment,4859663391,unconfirmed,Chiroy,Manhattan,Washington Heights,40.83469,-73.94604,United States,US,True,moderate,Entire home/apt,2010.0,$905 ,$181 ,2,13,5/25/2019,1.63,5,2,0,Please no smoking in any of the inside premises or on the roof deck; no loud music; no moving or rearranging furniture; and no guests beyond those indicated at booking (without clearing with owner first).,
21529775,Private bed in a huge apartment! Him-1R-1,51431775654,unconfirmed,Nina,Brooklyn,Bushwick,40.70114,-73.91879,United States,US,False,moderate,Private room,2021.0,,,30,1,5/4/2019,0.45,2,17,365,,
21530327,Private Bedroom in Bushwick Him-1R-2,61806837532,verified,Nina,Brooklyn,Bushwick,40.69992,-73.92013,United States,US,True,flexible,Private room,2006.0,,,30,1,4/22/2019,0.38,5,17,326,"Please no pets! Again, I ask that you not consume my wine or whiskey collection.",
21530879,Amazing Bedroom in Brooklyn Him-1R-3,88568654985,unconfirmed,Nina,Brooklyn,Bushwick,40.70156,-73.91913000000001,United States,US,True,flexible,Private room,2017.0,,,30,0,,,2,17,268,"- No smoking, no pets - No parties and please be quiet after 11pm - Fireplace is functional, but for safety reasons please do not use it - If you use the elevator, please close the inner door after you, otherwise other people won't be able to use it - Take your shoes off when you enter the apartment, you can place them into the closet next to the entrance door",
21531432,Private Bedroom in the heart of Bushwick Him-1R-4,38893785196,verified,Nina,Brooklyn,Bushwick,40.70091,-73.92003000000001,United States,US,True,flexible,Private room,2010.0,,,30,2,5/25/2019,0.52,3,17,333,"Please do not try and fit more than 4 occupants in the apartment overnight. There is a queen bed in the bedroom and a full-sized pullout couch in the living room that can accommodate 1-2 people.  BUILDING RULES (As enforced by the property owners): - On Wednesday and Sunday night please leave your garbage in sealed garbage or grocery bags outside of the apartment door. It will be picked up early the next morning. - Please do not leave any garbage or personal items in the hallway or foyer, or you will be charged $100 by the building management.  - There are 3 bay windows in the living room, however only the far right one opens. The other two have been nailed shut by the property owners because of the safety risk that they pose when they're opened. Please do not try and open them, as it will damage the window frames. - The fire escape is strictly off-limits. - Please keep the noise level to a minimum and be be respectful of your neighbours.  - Drug possession and usage are prohibited in ",
21531984,Gorgeous Bedroom on Himrod! Him-1R-5,71611308060,verified,Nina,Brooklyn,Bushwick,40.70154,-73.91873000000001,United States,US,False,flexible,Private room,2019.0,,,30,0,,,4,17,325,• Check-in time is 3PM.,
21532536,"East 82nd Street, Upper East Side/Yorkville 1bd",93805340741,verified,Ken,Manhattan,Upper East Side,40.773270000000004,-73.94939000000001,United States,US,False,moderate,Entire home/apt,2007.0,,,30,0,,,2,87,355,"Please remember that this is a residential building. The building rules, apartment occupancy restrictions and the year-round tenants must be respected.  Parties, pets and smoking are not allowed under any circumstances and incur significant fees.",
21533089,New gorgeous garden view spacious 1BR flat,33576751995,unconfirmed,Jillian,Manhattan,East Harlem,40.79524,-73.93429,United States,US,True,strict,Entire home/apt,2017.0,,,1,11,7/2/2019,1.34,3,3,356,,
