id,NAME,host id,host_identity_verified,host name,neighbourhood group,neighbourhood,lat,long,country,country code,instant_bookable,cancellation_policy,room type,Construction year,price,service fee,minimum nights,number of reviews,last review,reviews per month,review rate number,calculated host listings count,availability 365,house_rules,license
46897466,"Beautiful NYC Room - Upper East Side, NYC",32187108165,unconfirmed,Charles,Manhattan,Upper East Side,40.77237,-73.95275,United States,US,False,moderate,Private room,2007,"$1,130 ",$226 ,2,42.0,1/1/2019,1.9,4,1,0,No smoking allowed in the house.  No pets.  No loud music or partying allowed at night.  Please respect the property as you would your own house.,
46898018,Gramercy Park Location.. cozy and comfortable!,37662782667,unconfirmed,Philip,Manhattan,Gramercy,40.738040000000005,-73.98178,United States,US,True,flexible,Entire home/apt,2014,"$1,075 ",$215 ,5,3.0,6/27/2019,0.13,5,1,65,,
46898571,Open Loft 1 BR Private Apt in Chinatown,5698306836,verified,Jessica,Manhattan,Chinatown,40.71365,-73.9973,United States,US,True,strict,Entire home/apt,2015,"$1,114 ",$223 ,5,11.0,4/30/2019,0.56,3,1,171,"There are real beds for eight. Linens, sheets, towels,  basic kitchen and basic toiletries are provided. Please leave the house in the condition that you found it. This unit is a townhouse with two neighbors attached side by side to the building. Please be respectful and keep noise to a minimum after 11pm and before 7am.  ""NO SMOKING"" ""NO PARTIES Thank you!",
46899123,SPACIOUS CLEAN ROOM 15 MINUTES FROM MAIN STREET,14967173434,verified,Sandra,Queens,College Point,40.77773,-73.83237,United States,US,False,strict,Private room,2005,$714 ,$143 ,1,51.0,6/22/2019,2.29,5,1,65,"No Smoking in the house,  Respect and take care of apartment.  Any dishes you use should be clean/dishwasher loaded and run..  ",
46899675,Awesome Cozy Room in The Heart of Astoria!,47216759171,unconfirmed,Simon,Queens,Ditmars Steinway,40.77786,-73.90819,United States,US,False,strict,Private room,2012,$517 ,$103 ,7,36.0,6/15/2019,1.64,5,1,48,Please remove your shoes at the door and use coasters for drinks on any furniture.,
46900228,Brooklyn Palace,2096634321,verified,Audra,Brooklyn,Flatlands,40.61802,-73.92866,United States,US,False,strict,Private room,2021,$399 ,$80 ,2,13.0,5/31/2019,0.59,5,1,292,"House Rules 1. Check-in is 4 pm local time. If the unit is ready earlier, we’ll let you know. Check-out is normally 11 am local time, but we’d be happy to extend it as long as we don’t have a cleaning scheduled. Just let us know.  2. All bookings require a security deposit of at least $300, which will be refunded within 7 days of your check-out. 3. For security measures we require all guests to provide proof of identification through ID verification on our own website. In order to check in we'll need a photo of your ID.  4. Our cancellation policy is as shown on our ad and defined by the site you are booking through.  5. Don’t let $300 go up in smoke. There's no smoking allowed in any Flatbook and a $300 fine for breaking this rule.  6. Unfortunately we don’t allow pets in any of our apartments. 7. Unless you’re staying in one of our specialty apartments, we don’t allow parties or excessive noise. 8. If we find the place very messy, we have to charge an extra $40 for every extra hour o",
46900780,Spacious 1 Bed Apartment 20 minutes from Midtown,31402832225,verified,Jose,Manhattan,Washington Heights,40.83902,-73.93766,United States,US,False,flexible,Entire home/apt,2013,$850 ,$170 ,3,2.0,10/10/2017,0.09,3,1,0,"No Smoking in building,  Respect for other guests and neighbors.  Quiet after 10 pm. Parking is available on Linwood and Gardner streets 24 hours.  No parking is permitted on Centre Place.",
46901332,Large sunny and beautiful room,36662070406,unconfirmed,Annie,Manhattan,Upper East Side,40.78079,-73.95499000000001,United States,US,True,strict,Private room,2014,$809 ,$162 ,10,0.0,,,4,2,0,"We're laid back and don't have too many rules! There is a porch outside if you need to smoke. We like to keep our home neat and hope you help us keep it how you find it!  We do ask that you do not bring guests back. This is a way for us to control who is in our home, and it means a lot to us.  As for noise, just be reasonable. If it's getting late, you know the drill :)",
46901884,Sophisticated KING 1 Bedroom Best Location,11782643763,unconfirmed,,Manhattan,Upper East Side,40.77832,-73.95657,United States,US,False,strict,Entire home/apt,2021,$429 ,$86 ,30,7.0,5/31/2019,0.47,4,91,281,"House Rules 1. All bookings made at least a week before check in are fully refundable if cancelled within 24 hours of booking. After this, you will receive a 50% refund if you cancel at least 7 days before the start of your trip. 2. Check-in time is any time after 4 pm local time. If the unit is ready earlier, we’ll let you know. Check-out is normally 11 am local time, but we’d be happy to extend it as long as we don’t have a cleaning scheduled. Just let us know.  3. All bookings require a security deposit of at least $300. 4. For security measures we require all guests to provide proof of identification through ID verification on our own website. In order to check in, we'll need a photo of your ID.  5. Don’t let $300 go up in smoke. There's no smoking allowed in any Flatbook and a $300 fine for breaking this rule.  6. Unfortunately we don’t allow pets in most of our apartments. 7. Unless you’re staying in one of our specialty apartments, we don’t allow parties or excessive noise. 8. I",
46902437,2 Bed BK Duplex w/ terrace & amazing NYC view,55497306026,verified,,Brooklyn,Greenpoint,40.73227,-73.95149,United States,US,True,flexible,Entire home/apt,2022,$228 ,$46 ,3,20.0,6/24/2019,0.92,5,1,313,"There are real beds for eight, one pull out couch, and one single mattress available. Linens, sheets, towels, kitchen staples, breakfast foods, and basic toiletries provided. Games, toys and books are here for your use, make themselves at home. Please leave the house in the condition that you found it. This unit is on the second and third floors of a two-family I own, and I have tenants below. Please be respectful of them, and my neighbors, and keep noise to a minimum after 11pm and before 7am. Thank you!",
46902989,Private Bedroom in the Heart of Chelsea (3FL/3FR ),95970736081,verified,,Manhattan,Chelsea,40.7416,-74.00081999999999,United States,US,True,strict,Private room,2014,"$1,094 ",$219 ,30,2.0,5/11/2019,0.17,4,1,188,,
46903541,Welcome to YURT -- beautiful room in East Village,27443752503,verified,Sarah,Manhattan,East Village,40.7244,-73.97731999999999,United States,US,False,moderate,Private room,2010,"$1,032 ",$206 ,1,33.0,5/23/2019,1.62,5,2,124,"House Rules 1. Check-in is 4 pm local time. If the unit is ready earlier, we’ll let you know. Check-out is normally 11 am local time, but we’d be happy to extend it as long as we don’t have a cleaning scheduled. Just let us know.  2. All bookings require a security deposit of at least $300, which will be refunded within 7 days of your check-out. 3. For security measures we require all guests to provide proof of identification through ID verification on our own website. In order to check in we'll need a photo of your ID.  4. Our cancellation policy is as shown on our ad and defined by the site you are booking through.  5. Don’t let $300 go up in smoke. There's no smoking allowed in any Flatbook and a $300 fine for breaking this rule.  6. Unfortunately we don’t allow pets in any of our apartments. 7. Unless you’re staying in one of our specialty apartments, we don’t allow parties or excessive noise. 8. If we find the place very messy, we have to charge an extra $40 for every extra hour o",
46904094,CHIC EVENT SPACE,66206224600,unconfirmed,Michael,Brooklyn,Flatlands,40.62724,-73.93043,United States,US,True,moderate,Entire home/apt,2019,"$1,068 ",$214 ,1,0.0,,,5,1,365,No parties. No overnight guests. Please use your time in the city to get out and explore and use the apartment as an experience to stay in a neighborhood where you'll never find a hotel! You are so close to everything!,
46904646,*FEMALES ONLY* BEAUTIFUL ROOM in downtown NYC!,84403123711,unconfirmed,Michela,Manhattan,Chinatown,40.71611,-73.99405,United States,US,True,flexible,Private room,2017,$858 ,$172 ,25,8.0,10/21/2018,0.36,4,1,0,No smoking except smoke deck.,
46905198,Comfy Private Bedroom/Bathroom,39342163746,verified,David,Manhattan,Harlem,40.80482,-73.95107,United States,US,False,moderate,Private room,2004,$230 ,$46 ,2,54.0,12/27/2018,2.44,2,2,0,"No pets, and no smoking indoors.",
46905751,"Sunny & Modern Room in Brooklyn, NY",13439682159,verified,Marzian,Brooklyn,Bedford-Stuyvesant,40.68763,-73.92706,United States,US,True,moderate,Private room,2021,$983 ,$197 ,2,9.0,1/2/2019,0.4,2,1,0,"A list of house details, rules and local information will be provided upon arrival.",
46906303,Cozy Boerum Hill Apartment,17419306759,unconfirmed,Alex,Brooklyn,Carroll Gardens,40.68225,-73.99116,United States,US,False,flexible,Private room,2006,$742 ,$148 ,1,12.0,7/13/2018,0.54,5,1,0,"Shoes off apartment (slippers available to guests) No smoking of any substance on the property Respectful Friendly Quiet Leave things as they were found, clean after yourself  No dishes left in the sink  Please use green cups, bowls, utensils and plates and  Store dry foods in 2nd tall pantry cabinet for your personal food storage and store food in the fridge on the 2nd row Guests may not have additional guests without clearing them with me first",
46906855,Penthouse - 2 Floors with Private Outdoor Patio,50128802633,verified,Christopher,Brooklyn,Williamsburg,40.70929,-73.95381,United States,US,True,strict,Entire home/apt,2006,$326 ,$65 ,2,9.0,2/17/2019,0.44,5,1,0,,
46907407,"Manhattan nyc private room A
15 min F Times Square",52393370464,verified,Eliahu,Manhattan,Harlem,40.81394,-73.95334,United States,US,True,flexible,Private room,2018,$136 ,$27 ,2,13.0,1/7/2018,0.62,3,9,112,"Shoes off apartment (slippers available to guests) No smoking of any substance on the property Respectful Friendly Quiet Leave things as they were found, clean after yourself  No dishes left in the sink  Please use white cups, bowls, utensils and plates and  Store dry foods in pantry cabinet below the microwave for your personal food storage and store food in the fridge on the left half of the 3rd row Guests may not have additional guests without clearing them with me first",
46907960,Lovely Contemporary Home away from Home,1335595868,unconfirmed,Nicole,Queens,Jamaica,40.68503,-73.77983,United States,US,True,moderate,Entire home/apt,2019,$265 ,$53 ,2,45.0,6/30/2019,2.01,4,4,153,"No street shoes in the house, please, but especially not in the bedrooms. We recycle - make sure you do too while you're here. It's single stream so very easy -ask if you're not sure how it works. Check-in and check-out times are flexible all days except Sunday where check-out is by 11 a.m.",
46908512,Cool Brownstone for September,40497707950,unconfirmed,Hunter,Brooklyn,Bedford-Stuyvesant,40.69155,-73.93661999999999,United States,US,False,moderate,Private room,2022,$787 ,$157 ,7,5.0,4/28/2019,0.23,5,1,56,- Guests can smoke outside the building in my backyard if they smoke. - Please arrive at or after 6:30pm as I work during the day and before 11:30pm.,
46909064,"Six in the City, Stay in Brooklyn Tour New York!",3987080761,unconfirmed,Sofia,Brooklyn,East Flatbush,40.65413,-73.94846,United States,US,False,moderate,Entire home/apt,2010,$530 ,$106 ,4,55.0,7/2/2019,2.64,5,1,22,Shoes-off home Respectful Friendly Quiet No smoking of any substance on the property No pets Leave things as they were found Clean up after yourself Reminder: Rest of apartment (kitchen or living room) not available to guests  Guests may not have additional guests without clearing them with Celia or Jonathan.,
46909617,Whole Apt/Private Entry/Free Parking,49692558938,verified,Karl,Staten Island,St. George,40.64119,-74.08369,United States,US,True,strict,Entire home/apt,2003,"$1,083 ",$217 ,2,87.0,7/6/2019,5.08,3,1,100,#NAME?,
46910169,"Cozy and elegant apartment in New York, entire apt",70383043177,unconfirmed,Domingo,Manhattan,Washington Heights,40.84492,-73.93890999999999,United States,US,True,moderate,Entire home/apt,2017,"$1,028 ",$206 ,2,109.0,7/5/2019,4.86,4,1,261,"Pets are cool (just clean up after them!), smoking outside is allowed, and alcohol/coming home drunk is totally ok. If you drink our alcohol then please help replace it or chip in! Otherwise, we're pretty simple college guys who enjoy being social.",
46910721,Nice and Cozy Room in Astoria Close to Manhattan.,37908928500,verified,Yunmi,Queens,Long Island City,40.75401,-73.92013,United States,US,False,strict,Private room,2008,$576 ,$115 ,1,4.0,11/26/2017,0.19,2,1,0,"Starting mid-November, I am looking for a longer-term guest (2+ months); someone who is responsible and employed outside of the home. A sublease agreement will need to be signed for any stay longer than one month.",
46911274,Two-storey Park Slope Apartment,29850306486,verified,Morgan,Brooklyn,Park Slope,40.67884,-73.97493,United States,US,False,moderate,Entire home/apt,2016,$253 ,$51 ,3,7.0,4/28/2019,0.35,4,1,0,"Just be clean, be tidy, be yourself and enjoy your stay.",
46911826,"Manhattan nyc private room B
15 min F Times Square",51873411627,unconfirmed,Eliahu,Manhattan,Harlem,40.81225,-73.95196999999999,United States,US,True,strict,Private room,2009,$487 ,$97 ,2,10.0,1/2/2019,0.47,2,9,365,,
46912378,Central Park and Museum mile Privarte room 105th.,47093452648,verified,Thomas,Manhattan,East Harlem,40.79383,-73.94968,United States,US,False,strict,Private room,2014,"$1,092 ",$218 ,1,98.0,10/15/2018,4.39,2,2,0,#NAME?,
46912930,Private Studio Sublet in Upper East Side,83610765023,verified,Zing,Manhattan,Upper East Side,40.77037,-73.95734,United States,US,True,flexible,Entire home/apt,2017,$324 ,$65 ,6,0.0,,,2,1,0,Will send it as soon as reservation is confirmed.,
46913483,Sun-Filled Cobble Hill Loft,72988057644,unconfirmed,Lily,Brooklyn,Brooklyn Heights,40.6904,-73.99376,United States,US,True,flexible,Entire home/apt,2010,$771 ,$154 ,3,21.0,5/5/2019,0.95,2,1,15,,
46914035,Brownstone apartment in Bed-Stuy,79427265097,verified,Tim,Brooklyn,Bedford-Stuyvesant,40.68953,-73.93186999999999,United States,US,False,moderate,Private room,2020,$640 ,$128 ,2,1.0,9/11/2017,0.05,5,1,0,"Unlike most other Airbnb listings, what we do here is long-term rentals by the year, or by the semester and we can welcome compatible short-term guests. We try to keep the atmosphere conducive to studying and resting and a couple of house-rules are in place to this end.  1. Non-smoker preferred.  2. No loud music or TV etc.  3. Only for one person (no couples, no visitors). We seldom have visitors, let alone overnight guests. We know this will be a major turn-off to many people, but we believe we can find a like-minded roommate who can have fun outside the house.  4. If you re not sure about your check-out date, you can reserve the minimum days and extend your stay at a discounted rate.  5. Check-in time is flexible, but it has to be coordinated at least 24 hours ahead. On arrival, a short registration process with a picture ID is needed in exchange for keys and wifi access.  6. Inside the apartment, we take off our outside shoes. So if you bring your own flip-flops, slippers or some k",
46914587,Beautiful room+PRIVATE BATHROOM | 20m to Manhattan,31271461311,unconfirmed,Alina,Brooklyn,Bushwick,40.69855,-73.93670999999999,United States,US,False,strict,Private room,2021,$687 ,$137 ,11,13.0,3/31/2019,0.6,2,3,0,Please note that there is no smoking or any type of drugs in the apartment and please be respectful of other apartment mates. You are welcome to use the kitchen appliances as long as you clean up after yourself!,
46915140,The Prince - A Nolita One Bedroom Apartment,24840319112,unconfirmed,Bruce,Manhattan,Nolita,40.72372,-73.99318000000001,United States,US,True,strict,Entire home/apt,2009,$374 ,$75 ,2,0.0,,,3,1,2,Shoes off apartment (slippers available to guests)  No smoking of any substance on the property  No parties Respectful  Friendly  Quiet  Leave things as they were found upon check-out,
46915692,"Experiencing Tranquility in Private home, Room # 3",34420218216,unconfirmed,Bruce & Cyrina,Brooklyn,East Flatbush,40.64861,-73.94983,United States,US,False,flexible,Private room,2019,$486 ,$97 ,2,9.0,4/1/2018,0.4,3,4,4,,
46916244,"Colorful, Open and Spacious 1br in Inwood!",75788650011,unconfirmed,Lulu,Manhattan,Inwood,40.8608,-73.9281,United States,US,True,flexible,Entire home/apt,2018,$192 ,$38 ,2,5.0,5/29/2019,0.23,4,1,20,Shoes-off home [tray provided] Respectful Friendly Quiet No smoking of any substance(s) on the property No pets Leave things as they were found Clean up after yourself Reminder: Rest of unit (main kitchen & living room not available to guests) Guests may not have additional guests without clearing them with Celia [or Jonathan].,
46916797,"Hrlem Brownstone,By CentralPark.22 min Time Square",64704986710,unconfirmed,Khalif,Manhattan,Morningside Heights,40.808409999999995,-73.95625,United States,US,True,moderate,Private room,2004,$342 ,$68 ,3,13.0,8/27/2018,0.59,4,2,61,"No smoking within the apartment, though may do so on the back pouch. No pet allowed for other's safety reason. Keys must be left behind at the end of stay to avoid monetary penalty. Clean after self after use of  common areas for others comfort and convenience.",
46917349,Back to the 90s Bedroom,86207088521,unconfirmed,Alex,Brooklyn,Bedford-Stuyvesant,40.68566,-73.92551999999999,United States,US,False,flexible,Private room,2007,$462 ,$92 ,1,2.0,9/30/2017,0.09,2,1,0,Shoes-off home Respectful Friendly Quiet No smoking on the property Of course no drugs No pets Leave things as they were found Clean up after yourself,
46917901,Comfy room in Manhattan 4 blocks from central park,18796137496,unconfirmed,Elias,Manhattan,Harlem,40.80227,-73.9579,United States,US,True,moderate,Private room,2015,$999 ,$200 ,3,55.0,7/2/2019,2.52,4,1,66,,
46918453,"Luxury room w/ balcony, 5 mins to subway",81997580822,unconfirmed,Maya,Brooklyn,Bushwick,40.69954,-73.93579,United States,US,False,strict,Private room,2011,$84 ,$17 ,5,6.0,4/16/2019,0.27,3,1,13,No smoking on premises. no unnecessary noise.,
46919006,Home away from home in Brooklyn,22256425732,unconfirmed,Sarah,Brooklyn,Crown Heights,40.67542,-73.95107,United States,US,False,strict,Private room,2014,$759 ,$152 ,2,82.0,6/21/2019,3.7,5,1,30,,
46919558,Sunny Room in Kensington,41419896066,verified,Jennifer,Brooklyn,Kensington,40.64493,-73.97327,United States,US,True,moderate,Private room,2022,"$1,199 ",$240 ,2,61.0,6/30/2019,2.71,3,2,61,"Unlike most other Airbnb listings, what we do here is long-term rentals by the year, or by the semester.  We try to keep the atmosphere conducive to studying and resting and a couple of house-rules are in place to this end.  1. Towels and linens (sheets, blankets, and pillows) are NOT provided. The bed is twin size.  2. No smoking on the premises.  3. No loud music or TV etc.  4. Only for one person (no couples, no visitors). We seldom have visitors, let alone overnight guests. We know this will be a major turn-off to many people, but we believe we can find a like-minded roommate who can have fun outside the house.  5. If you are not sure about your check-out date, you can reserve the minimum days and extend your stay at a discounted rate.  6. Check-in time has to be coordinated at least 48 hours ahead. On arrival, a short registration process with a picture ID is needed in exchange for keys and wifi access.  7. Inside the apartment, we take off our outside shoes. So if you bring your ",
46920110,Williamsburg home away from home,75793654825,unconfirmed,Dana,Brooklyn,Williamsburg,40.7079,-73.96609000000001,United States,US,True,flexible,Private room,2015,$111 ,$22 ,7,8.0,3/15/2018,0.43,5,1,0,,
46920663,Cozy studio in Park Slope,25406845061,unconfirmed,Fourth,Brooklyn,Park Slope,40.67454,-73.9841,United States,US,False,flexible,Entire home/apt,2009,$109 ,$22 ,2,77.0,7/1/2019,3.43,5,1,243,,
46921215,Cheap Large Bedroom w/WorkDesk- 10min to JFK/Mall,78189696238,unconfirmed,Guelma,Queens,Rosedale,40.65429,-73.73432,United States,US,False,moderate,Private room,2016,$468 ,$94 ,30,34.0,5/14/2019,1.52,4,5,90,,
46921767,Spacious Room in Sunny Brownstone (Ft. Greene),82665795674,verified,Chandra,Brooklyn,Clinton Hill,40.6866,-73.96761,United States,US,False,moderate,Private room,2018,$555 ,$111 ,2,0.0,,,3,1,0,We ask that guests leave the apartment in the condition that they found it.,
46922320,Room with PRIVATE entrance! Welcome to Upper east!,37539706538,unconfirmed,Milica,Manhattan,Upper East Side,40.779540000000004,-73.94788,United States,US,True,flexible,Private room,2014,$289 ,$58 ,3,9.0,6/30/2019,1.03,4,1,18,,
46922872,Cheap Small Bedroom w/Desk 10min to JFK & Mall,66315118087,unconfirmed,Guelma,Queens,Rosedale,40.65251,-73.7365,United States,US,True,strict,Private room,2010,$308 ,$62 ,7,21.0,6/30/2018,0.94,2,5,297,No Smoking and please clean dishes before departure.,
46923424,"Flatbush - Ditmas Park, Brooklyn, NY",41186024187,verified,Mauro,Brooklyn,Flatbush,40.6473,-73.96245,United States,US,True,moderate,Private room,2005,$977 ,$195 ,2,10.0,6/28/2019,0.97,5,1,178,,
46923976,"DaDukes ""DC""",65349105264,verified,Alberto,Queens,Long Island City,40.764829999999996,-73.94073,United States,US,False,strict,Private room,2015,$369 ,$74 ,1,63.0,6/19/2019,2.81,4,6,356,Can have friends but not parties. Ideal for students,
46924529,"Spacious bedroom, next to Subway, mins to park!",37010150022,unconfirmed,Ana,Manhattan,Inwood,40.86339,-73.92045,United States,US,False,strict,Private room,2022,$373 ,$75 ,2,75.0,6/24/2019,3.37,3,1,332,"Shoes off apartment (slippers available to guests) No smoking of any substance on the property Respectful Friendly Quiet Leave things as they were found, clean after yourself  No dishes left in the sink  Please use black cups, bowls, utensils and plates and  Store dry foods in 1st tall pantry cabinet for your personal food storage and store food in the fridge on the right half of the 3rd row Guests may not have additional guests without clearing them with me first Reminder: The bedroom is lofted, open over the staircase located on the top penthouse level of the apartment & building (5th floor) all to yourself. There's no door.",
46925081,Cozy Spot on the UWS,47678094324,unconfirmed,Dana,Manhattan,Upper West Side,40.77998,-73.98218,United States,US,True,flexible,Shared room,2017,"$1,189 ",$238 ,1,10.0,8/6/2018,0.45,4,1,0,No smoking.,
46925633,IN MINT CONDITION-STUDIOS EAST 44TH/UNITED NATIONS,51402057461,unconfirmed,Rated,Manhattan,Midtown,40.7507,-73.97086,United States,US,False,flexible,Entire home/apt,2020,$163 ,$33 ,30,0.0,,,4,33,365,,
46926186,"LGBTQ+ Super Chill Brooklyn Private Room, JMZ,",18704360025,unconfirmed,Nate,Brooklyn,Williamsburg,40.70926,-73.95515,United States,US,False,moderate,Private room,2012,$590 ,$118 ,1,9.0,10/15/2017,0.4,3,1,310,,
46926738,Super Comfy Double Bed in new 2 story house!,19255859030,unconfirmed,Beth,Brooklyn,East Flatbush,40.6435,-73.94011,United States,US,True,strict,Private room,2003,$181 ,$36 ,1,4.0,6/23/2019,2.73,2,1,63,,
46927290,IN MINT CONDITION-STUDIOS EAST 44TH/UNITED NATIONS,81627710600,verified,Rated,Manhattan,Midtown,40.75161,-73.97017,United States,US,False,moderate,Entire home/apt,2006,"$1,001 ",$200 ,30,0.0,,,5,33,365,,
46927843,Private 1-bedroom Modern Apt in Upper Manhattan,42134285946,unconfirmed,Sebastian,Manhattan,Washington Heights,40.84962,-73.94011,United States,US,False,strict,Private room,2006,$828 ,$166 ,1,11.0,11/2/2017,0.49,4,1,0,,
46928395,SUNNY + MODERN NEW 1 BEDROOM APARTMENT IN BEDSTUY,20574117809,verified,Shawn,Brooklyn,Bedford-Stuyvesant,40.6918,-73.95151,United States,US,True,moderate,Entire home/apt,2014,"$1,122 ",$224 ,4,2.0,11/15/2017,0.09,4,1,0,No smoking in building per MGL. ,
46928947,IN MINT CONDITION-STUDIOS EAST 44TH/UNITED NATIONS,96660419742,unconfirmed,Rated,Manhattan,Midtown,40.75145,-73.97010999999999,United States,US,True,flexible,Entire home/apt,2017,$782 ,$156 ,30,0.0,,,2,33,365,"One week minimum stay please. No smoking, no pets. Antique furnishings so just be careful with glasses, coffee cups, etc..",
46929499,Comfy Clean Room Near JFK,53265333117,verified,Juan David,Queens,Richmond Hill,40.70305,-73.82687,United States,US,True,flexible,Private room,2009,$490 ,$98 ,2,10.0,1/1/2019,0.46,2,1,6,,
46930052,IN MINT CONDITION-1BR&TERRACE-E 44TH/UNITED NATION,30846554018,unconfirmed,Rated,Manhattan,Midtown,40.7518,-73.97074,United States,US,False,flexible,Entire home/apt,2021,$297 ,$59 ,30,0.0,,,4,33,365,No Smoking.  No Pets.,
46930604,Sofa bed in bright & beautiful apt (with rooftop),12524361148,verified,Hannah,Manhattan,Harlem,40.82992,-73.94563000000001,United States,US,False,flexible,Shared room,2008,"$1,108 ",$222 ,2,1.0,9/3/2017,0.04,5,2,0,No Smoking.  No Pets.,
46931156,Manhattan view in Bushwick,29156703231,unconfirmed,Steven,Brooklyn,Bedford-Stuyvesant,40.69099,-73.92657,United States,US,False,moderate,Private room,2007,$406 ,$81 ,1,1.0,9/7/2017,0.04,3,1,0,"1.  Check-in time is after 3 p.m. and check-out time is before 11 a.m.    2.  DO NOT TAKE KEYS WITH YOU! On the Departure Date, the keys shall be left on the kitchen counter.  The door to the Property MUST BE LOCKED BEHIND YOU using the key from the lockbox located inside the drawer to the foyer table.  The front door to the building can simply be closed behind you. 3. This is a NON SMOKING property. The smell of smoke in the property, including the common areas of the building, will result in loss of security deposit. 4. A Security Deposit of $250 is required for stays of less than one month.  For monthly stays a Security Deposit of $750 is required. The Security Deposit is fully refundable within 48 hours of departure, provided the following provisions are met:  a.    No damage is done to home or its contents, beyond normal wear and tear.  b.    No charges are incurred due to contraband, pets of Guest, or collection of rents or services rendered during the stay or any other act or om",
46931709,IN MINT CONDITION-STUDIOS EAST 44TH/UNITED NATIONS,54964541478,verified,Rated,Manhattan,Midtown,40.74978,-73.96977,United States,US,False,strict,Entire home/apt,2015,$423 ,$85 ,30,0.0,,,5,33,365,NO Smoking,
46932261,2BR Private Summer Oasis in Manhattan,30223965330,verified,Jeff,Manhattan,Harlem,40.82673,-73.94633,United States,US,False,flexible,Entire home/apt,2006,$81 ,$16 ,30,0.0,,,4,1,32,,
46932813,"Peaceful, Spacious and Comfy 3BR Oasis!",15136402629,unconfirmed,Jonathan,Brooklyn,Williamsburg,40.71972,-73.94337,United States,US,True,moderate,Entire home/apt,2022,$51 ,$10 ,3,3.0,1/1/2018,0.14,2,2,0,,
46933366,Sunny Bushwick Room w/ Rooftop Manhattan View!,67755019712,verified,Lindsay,Brooklyn,Bushwick,40.705740000000006,-73.92289,United States,US,True,strict,Private room,2010,$333 ,$67 ,1,14.0,5/4/2018,0.62,3,2,0,"No smoking in apartment, foyer,  or outside building.  No parties. No pets. Quiet and respectful of our neighbors.  ",
46933918,Charming 1 bed in ❤️ of Greenwich Village.,85067252012,verified,Brooke,Manhattan,Greenwich Village,40.72894,-74.00018,United States,US,False,strict,Entire home/apt,2018,$715 ,$143 ,3,4.0,1/3/2018,0.19,3,1,0,A few items to keep costs low and accommodations comfortable: • Only guests included in the booking are allowed in the apartment.  • No smoking in/near the apartment. • No shoes in the apartment. Slippers are provided. • Clean up after yourself and leave the apartment as you found it. • Be mindful of neighbors and other guests.  • Turn off the lights when you're not in the room.  • Tell me how I can help you enjoy your stay!,
46934470,Bushwick Oasis,46275391927,verified,Jaime,Brooklyn,Bushwick,40.704840000000004,-73.92645999999999,United States,US,True,flexible,Private room,2022,$992 ,$198 ,4,6.0,1/4/2018,0.28,5,1,0,"No smoking. No pets, please.",
46935022,Duplex w private garden - up to 6 guests,11979536410,unconfirmed,Katherine,Manhattan,East Village,40.72475,-73.97788,United States,US,True,flexible,Entire home/apt,2011,$781 ,$156 ,30,0.0,,,4,1,330,,
46935575,Airy room 2 beds 40 min to Man. Midway LGA/JFK,34492257713,unconfirmed,Mel & Ruth,Queens,Rego Park,40.715340000000005,-73.85828000000001,United States,US,True,flexible,Private room,2010,$587 ,$117 ,3,20.0,3/24/2019,0.95,3,1,48,"Hello! We look forward to having you. Have a great time! House Rules and Information  Greetings! We like to think of all of our guests as friends and hope that you will treat our apartment as you would treat yours, not as one might treat a hotel room.   There is NO SMOKING allowed in the apartment at any time.  Damages: if you notice any damage when you arrive, please report it to our office so we are aware of it and don’t assume it happened during your stay.  Laundry: there is a European style washer/dryer combo unit in the apartment. The manual is located on the left side wall in the closet. This is a high efficiency energy efficient unit. HE laundry detergent only is to be used. Be advised that wash/dry cycles take a considerable amount of time. Bath: there is a hair dryer in the bathroom for guest use. Linens: When you are done with your towels, please put them in the laundry basket in the bedroom. It would be great if you can take the sheets you have slept on and put them in the b",
46936127,Warm Duplex in a Brownstone,16458947296,verified,Roland,Brooklyn,Bedford-Stuyvesant,40.68371,-73.9405,United States,US,True,strict,Entire home/apt,2014,$707 ,$141 ,3,20.0,6/5/2019,0.94,3,1,136,"There is no smoking in any of the house rooms.    Single guests are preferred, but exceptions are made to accommodate 2 people if needed.  The Office Room will only accommodate 1 person.   Every effort is made to insure guest privacy, and quiet, especially during late evening hours.",
46936679,"New Building w/ Rooftop & Laundry, Cozy Room",65221831859,verified,Auni (Masroor),Brooklyn,Bedford-Stuyvesant,40.67927,-73.94758,United States,US,False,strict,Private room,2009,$585 ,$117 ,4,1.0,9/15/2017,0.05,4,1,0,,
46937232,"20 Min to Manhattan, in the Heart of Ridgewood",29446466790,verified,Jonathan,Queens,Ridgewood,40.701409999999996,-73.90290999999999,United States,US,False,flexible,Entire home/apt,2006,$872 ,$174 ,18,14.0,1/5/2019,0.64,4,2,141,"House Rules The house rules are an important part of staying in this condo.  You will be sharing a living space with other guests and a high level of consideration, respect, communication and tolerance is expected from you.  They are meant to make your stay more pleasant, to prevent conflicts and to protect the property of any damage.  If you feel there is something that needs to be addressed and that is not covered in these rules, please make sure you communicate that to the host. 1.  Toilet · The toilettes can only be used with toilet paper provided.  Any other material disposed of will cause the plumbing system to back up and create drainage problems.  No tissues, cotton balls, tampons, Q-tips cotton swabs or any kind of sanitary products are allowed down the toilets.  · Any plumbing work due to clogged toilets will be charged to the guests. 2. Noise and Quiet Hours · Quiet hours are from 10pm until 7am.  During quiet hours radios and stereos may be played at a level not to be heard",
46937784,Best location Large Room in the Heart of Wbrg!,58539729790,unconfirmed,Brian,Brooklyn,Williamsburg,40.7112,-73.95886,United States,US,False,flexible,Private room,2011,$252 ,$50 ,2,24.0,6/6/2019,1.08,5,1,0,Kindness and courtesy appreciated. Non-dishwasher safe: pots & pans knives Water filter in the refrigerator Recycling placed between kitchen counter and living room next to the counter,
46938336,Spacious Brooklyn Bedroom Close to Manhattan et al,29445539564,verified,Nick,Brooklyn,Bedford-Stuyvesant,40.693870000000004,-73.94688000000001,United States,US,False,strict,Private room,2019,$689 ,$138 ,3,51.0,6/21/2019,2.3,2,3,108,Please respect the residents at the building by keeping noise down and absolutely no smoking.  Thank you.,
46938889,Huge Room in Beautiful New Renovated Apartment,81266797534,verified,Bryan,Queens,Astoria,40.77028,-73.92112,United States,US,False,moderate,Private room,2014,"$1,160 ",$232 ,5,20.0,6/19/2019,0.89,4,1,16,,
46939441,Cozy Studio,57082517267,unconfirmed,Jeniffer,Manhattan,Hell's Kitchen,40.76354,-73.99283,United States,US,True,moderate,Entire home/apt,2018,$349 ,$70 ,30,3.0,6/2/2019,0.21,2,31,270,"House Rules 1. Check-in is 4 pm local time. If the unit is ready earlier, we’ll let you know. Check-out is normally 11 am local time, but we’d be happy to extend it as long as we don’t have a cleaning scheduled. Just let us know.  2. All bookings require a security deposit of at least $300, which will be refunded within 7 days of your check-out. 3. For security measures we require all guests to provide proof of identification through ID verification on our own website. In order to check in we'll need a photo of your ID.  4. Our cancellation policy is as shown on our ad and defined by the site you are booking through.  5. Don’t let $300 go up in smoke. There's no smoking allowed in any Flatbook and a $300 fine for breaking this rule.  6. Unfortunately we don’t allow pets in any of our apartments. 7. Unless you’re staying in one of our specialty apartments, we don’t allow parties or excessive noise. 8. If we find the place very messy, we have to charge an extra $40 for every extra hour o",
46939993,Large private bedroom near Manhattan.,64199104024,verified,Dinara,Queens,Sunnyside,40.74823,-73.91456,United States,US,True,strict,Private room,2006,$557 ,$111 ,4,1.0,9/20/2017,0.05,4,1,0,"House Rules 1. Check-in is 4 pm local time. If the unit is ready earlier, we’ll let you know. Check-out is normally 11 am local time, but we’d be happy to extend it as long as we don’t have a cleaning scheduled. Just let us know.  2. All bookings require a security deposit of at least $300, which will be refunded within 7 days of your check-out. 3. For security measures we require all guests to provide proof of identification through ID verification on our own website. In order to check in we'll need a photo of your ID.  4. Our cancellation policy is as shown on our ad and defined by the site you are booking through.  5. Don’t let $300 go up in smoke. There's no smoking allowed in any Flatbook and a $300 fine for breaking this rule.  6. Unfortunately we don’t allow pets in any of our apartments. 7. Unless you’re staying in one of our specialty apartments, we don’t allow parties or excessive noise. 8. If we find the place very messy, we have to charge an extra $40 for every extra hour o",
46940545,"$6,500 p/m or short term, 5 Star, LUX, Clean, Big",27747019260,unconfirmed,Hutch,Manhattan,Upper East Side,40.76401,-73.95929,United States,US,True,moderate,Entire home/apt,2016,$928 ,$186 ,7,29.0,6/29/2019,1.34,3,1,237,"House Rules 1. Check-in is 4 pm local time. If the unit is ready earlier, we’ll let you know. Check-out is normally 11 am local time, but we’d be happy to extend it as long as we don’t have a cleaning scheduled. Just let us know.  2. All bookings require a security deposit of at least $300, which will be refunded within 7 days of your check-out. 3. For security measures we require all guests to provide proof of identification through ID verification on our own website. In order to check in we'll need a photo of your ID.  4. Our cancellation policy is as shown on our ad and defined by the site you are booking through.  5. Don’t let $300 go up in smoke. There's no smoking allowed in any Flatbook and a $300 fine for breaking this rule.  6. Unfortunately we don’t allow pets in any of our apartments. 7. Unless you’re staying in one of our specialty apartments, we don’t allow parties or excessive noise. 8. If we find the place very messy, we have to charge an extra $40 for every extra hour o",
46941098,Newly Renovated Apartment in the Heart of Brooklyn,14545619779,unconfirmed,Maiya,Brooklyn,Park Slope,40.680640000000004,-73.97657,United States,US,True,flexible,Entire home/apt,2019,$470 ,$94 ,3,4.0,5/28/2019,0.18,3,1,0,No smoking and NO extra quests,
46941650,Charming Boerum Hill Private 2 Bdrm Apt,58115716993,unconfirmed,Tirinda,Brooklyn,Boerum Hill,40.68418,-73.98373000000001,United States,US,True,strict,Entire home/apt,2020,$544 ,$109 ,1,97.0,7/2/2019,4.48,2,2,39,"House Rules 1. Check-in is 4 pm local time. If the unit is ready earlier, we’ll let you know. Check-out is normally 11 am local time, but we’d be happy to extend it as long as we don’t have a cleaning scheduled. Just let us know.  2. All bookings require a security deposit of at least $300, which will be refunded within 7 days of your check-out. 3. For security measures we require all guests to provide proof of identification through ID verification on our own website. In order to check in we'll need a photo of your ID.  4. Our cancellation policy is as shown on our ad and defined by the site you are booking through.  5. Don’t let $300 go up in smoke. There's no smoking allowed in any Flatbook and a $300 fine for breaking this rule.  6. Unfortunately we don’t allow pets in any of our apartments. 7. Unless you’re staying in one of our specialty apartments, we don’t allow parties or excessive noise. 8. If we find the place very messy, we have to charge an extra $40 for every extra hour o",
46942202,Great studio on Restaurant Row in Harlem,48716852748,unconfirmed,Moya,Manhattan,Harlem,40.8055,-73.95478,United States,US,True,flexible,Entire home/apt,2005,$315 ,$63 ,6,8.0,7/1/2018,0.36,3,1,0,"House Rules 1. Check-in is 4 pm local time. If the unit is ready earlier, we’ll let you know. Check-out is normally 11 am local time, but we’d be happy to extend it as long as we don’t have a cleaning scheduled. Just let us know.  2. All bookings require a security deposit of at least $300, which will be refunded within 7 days of your check-out. 3. For security measures we require all guests to provide proof of identification through ID verification on our own website. In order to check in we'll need a photo of your ID.  4. Our cancellation policy is as shown on our ad and defined by the site you are booking through.  5. Don’t let $300 go up in smoke. There's no smoking allowed in any Flatbook and a $300 fine for breaking this rule.  6. Unfortunately we don’t allow pets in any of our apartments. 7. Unless you’re staying in one of our specialty apartments, we don’t allow parties or excessive noise. 8. If we find the place very messy, we have to charge an extra $40 for every extra hour o",
46942755,Clean Chinatown Studio,4165270558,unconfirmed,Frances,Manhattan,Chinatown,40.71515,-73.99863,United States,US,False,flexible,Entire home/apt,2014,$212 ,$42 ,4,13.0,6/10/2019,0.63,4,1,86,*No additional guest are to stay/visit besides pre-approved guests.  *Please do not drink my wine.,
46943307,Boutique Hotel-Like Room in Brooklyn With A View,95958384483,verified,Samantha,Brooklyn,Greenpoint,40.72056,-73.94118,United States,US,False,strict,Private room,2003,"$1,153 ",$231 ,2,58.0,5/26/2019,2.82,2,1,0,Please respect the residents in the building by keeping noise down and absolutely no smoking!  Thanks.,
46943859,Perfect room for female/steps to Ctral Park+subway,31177565921,verified,Jennifer,Manhattan,Harlem,40.80044,-73.95139,United States,US,True,moderate,Private room,2007,$214 ,$43 ,28,12.0,5/8/2019,0.62,5,1,39,Please respect the residents of the building by keeping noise down and absolutely no smoking.,
46944412,Charming 1BR in Lively Bed-Stuy neighborhood,34532088936,verified,Yomi,Brooklyn,Bedford-Stuyvesant,40.68251,-73.94102,United States,US,False,flexible,Entire home/apt,2017,$492 ,$98 ,2,18.0,1/1/2019,0.81,5,1,0,Please do not smoke in the building!!!   You may smoke outside on the private deck.    Please be reasonably quiet and respectful of the host (his bedroom his below your bedroom!),
46944964,IN MINT CONDITION-STUDIOS EAST 44TH/UNITED NATIONS,93175607824,unconfirmed,Rated,Manhattan,Midtown,40.75014,-73.97001,United States,US,True,strict,Entire home/apt,2022,"$1,058 ",$212 ,30,0.0,,,2,33,365,No Loud Music,
46945516,Clean Comfy 2 Bedrooms with 2. Bathrooms sleeps 6,85510800281,unconfirmed,Joy,Queens,St. Albans,40.69044,-73.75489,United States,US,True,flexible,Entire home/apt,2017,"$1,070 ",$214 ,2,3.0,3/24/2019,0.15,3,4,359,"House Rules 1. Check-in is 4 pm local time. If the unit is ready earlier, we’ll let you know. Check-out is normally 11 am local time, but we’d be happy to extend it as long as we don’t have a cleaning scheduled. Just let us know.  2. All bookings require a security deposit of at least $300, which will be refunded within 7 days of your check-out. 3. For security measures we require all guests to provide proof of identification through ID verification on our own website. In order to check in we'll need a photo of your ID.  4. Our cancellation policy is as shown on our ad and defined by the site you are booking through.  5. Don’t let $300 go up in smoke. There's no smoking allowed in any Flatbook and a $300 fine for breaking this rule.  6. Unfortunately we don’t allow pets in any of our apartments. 7. Unless you’re staying in one of our specialty apartments, we don’t allow parties or excessive noise. 8. If we find the place very messy, we have to charge an extra $40 for every extra hour o",
46946068,Big cozy private room next to the Park,51989154234,verified,Mariana,Brooklyn,Flatbush,40.65247,-73.96399,United States,US,True,moderate,Private room,2012,$985 ,$197 ,3,1.0,9/20/2017,0.05,4,3,0,,
46946621,<3 Summer in East Village! BEST DEAL,67180063778,unconfirmed,Emily,Manhattan,East Village,40.72653,-73.98539,United States,US,True,strict,Entire home/apt,2012,$179 ,$36 ,1,33.0,6/23/2019,1.5,3,1,269,"House Rules 1. Check-in is 4 pm local time. If the unit is ready earlier, we’ll let you know. Check-out is normally 11 am local time, but we’d be happy to extend it as long as we don’t have a cleaning scheduled. Just let us know.  2. All bookings require a security deposit of at least $300, which will be refunded within 7 days of your check-out. 3. For security measures we require all guests to provide proof of identification through ID verification on our own website. In order to check in we'll need a photo of your ID.  4. Our cancellation policy is as shown on our ad and defined by the site you are booking through.  5. Don’t let $300 go up in smoke. There's no smoking allowed in any Flatbook and a $300 fine for breaking this rule.  6. Unfortunately we don’t allow pets in any of our apartments. 7. Unless you’re staying in one of our specialty apartments, we don’t allow parties or excessive noise. 8. If we find the place very messy, we have to charge an extra $40 for every extra hour o",
46947173,Clean room across the street from the high bridge,4166571020,unconfirmed,Nahuel,Bronx,Highbridge,40.84101,-73.92626,United States,US,True,flexible,Private room,2019,$645 ,$129 ,2,75.0,6/16/2019,3.34,4,5,351,"House Rules 1. Check-in is 4 pm local time. If the unit is ready earlier, we’ll let you know. Check-out is normally 11 am local time, but we’d be happy to extend it as long as we don’t have a cleaning scheduled. Just let us know.  2. All bookings require a security deposit of at least $300, which will be refunded within 7 days of your check-out. 3. For security measures we require all guests to provide proof of identification through ID verification on our own website. In order to check in we'll need a photo of your ID.  4. Our cancellation policy is as shown on our ad and defined by the site you are booking through.  5. Don’t let $300 go up in smoke. There's no smoking allowed in any Flatbook and a $300 fine for breaking this rule.  6. Unfortunately we don’t allow pets in any of our apartments. 7. Unless you’re staying in one of our specialty apartments, we don’t allow parties or excessive noise. 8. If we find the place very messy, we have to charge an extra $40 for every extra hour o",
46947725,"NO XTRA FEES, 30 min To Grand Central:Pvt Entrance",4942251452,verified,Shera,Bronx,Wakefield,40.898109999999996,-73.85543,United States,US,True,moderate,Private room,2008,$825 ,$165 ,1,156.0,6/30/2019,7.0,3,4,318,9 guest maximum.  Smoking isn't permitted and unfortunately neither are pets. Sorry.   Quiet hours 9p-8a.,
46948278,"Manhattan nyc private room D
 15 MinTimes Square",62117785720,unconfirmed,Eliahu,Manhattan,Harlem,40.813159999999996,-73.95176,United States,US,True,flexible,Private room,2013,$211 ,$42 ,2,2.0,10/22/2018,0.1,2,9,365,"House Rules 1. Check-in is 4 pm local time. If the unit is ready earlier, we’ll let you know. Check-out is normally 11 am local time, but we’d be happy to extend it as long as we don’t have a cleaning scheduled. Just let us know.  2. All bookings require a security deposit of at least $300, which will be refunded within 7 days of your check-out. 3. For security measures we require all guests to provide proof of identification through ID verification on our own website. In order to check in we'll need a photo of your ID.  4. Our cancellation policy is as shown on our ad and defined by the site you are booking through.  5. Don’t let $300 go up in smoke. There's no smoking allowed in any Flatbook and a $300 fine for breaking this rule.  6. Unfortunately we don’t allow pets in any of our apartments. 7. Unless you’re staying in one of our specialty apartments, we don’t allow parties or excessive noise. 8. If we find the place very messy, we have to charge an extra $40 for every extra hour o",
46948830,Luxury Apt in the heart of Harlem,13403214872,unconfirmed,David,Manhattan,Harlem,40.80605,-73.94889,United States,US,False,flexible,Entire home/apt,2018,$203 ,$41 ,5,14.0,5/24/2019,0.67,3,1,16,This is a residential property and quiet is maintained.   Absolutely zero smoking on or near the property.  Be respectful and kind.,
46949382,Homey and nice furnished studio apartment,81024426225,unconfirmed,Bridge,Manhattan,Upper East Side,40.76141,-73.96265,United States,US,True,flexible,Entire home/apt,2012,$104 ,$21 ,50,0.0,,,3,8,176,,
46949935,Bushwick Palace,59872153021,verified,Alexandra,Brooklyn,Bushwick,40.70353,-73.9288,United States,US,False,moderate,Private room,2013,$179 ,$36 ,4,0.0,,,3,1,0,Keep the apartment clean & tidy and take care of the furnishings No smoking No  pets No parties Contact me immediately with any questions or concerns $150.00 Cleaning Fee Enjoy your stay!,
46950487,Lovely room across the street from high bridge.,32681231601,unconfirmed,Nahuel,Bronx,Highbridge,40.841840000000005,-73.92535,United States,US,True,strict,Private room,2014,$888 ,$178 ,2,92.0,5/19/2019,4.11,5,5,311,This is a residential property. Quiet is important. No smoking. No pets.,
46951039,Nice room across the street from the high bridge.,513632070,unconfirmed,Nahuel,Bronx,Highbridge,40.841029999999996,-73.92701,United States,US,True,moderate,Private room,2003,$70 ,$14 ,2,62.0,6/24/2019,2.76,3,5,1,No Smoking No Pets,
46951591,"Quiet, Comfortable room near A Express Train",76586234617,unconfirmed,Susan,Manhattan,Washington Heights,40.856629999999996,-73.93564,United States,US,True,flexible,Private room,2011,$154 ,$31 ,4,22.0,7/2/2019,1.46,5,1,42,No Pets. No smoking. Please :),
46952144,"Manhattan nyc private room C
15 min F Times Square",37223057481,unconfirmed,Eliahu,Manhattan,Harlem,40.814040000000006,-73.95233,United States,US,False,flexible,Private room,2019,$807 ,$161 ,2,15.0,6/13/2019,0.7,5,9,116,#NAME?,
46952696,Great Location - 1BR/Times Square/Hell's Kitchen,92817033696,verified,Andrew T,Manhattan,Hell's Kitchen,40.7631,-73.99133,United States,US,True,strict,Entire home/apt,2017,$346 ,$69 ,2,77.0,6/16/2019,3.62,5,1,194,"Clean sheets and towels will be provided.  At end of stay sheets and towels must be stripped and left on the bed. You will find the kitchen spotless when you arrive, please leave it the way you found it.  This same courtesy goes for the rest of the unit as well.  It's a real gem, thank you for helping to minimize cleaning fees and to help the next guest to enjoy it as much as you will. The furniture will be changed on Sept 14th, but will still be nicely set up. Also new screens have been installed, to avoid bugs in the early fall its best to have the Windows or screens down.  One last item is that with notice I may need to stop by / in the unit.  This would only be during the daytime, for a short duration, and would have 24 hr notice.  Thanks.  ;)",
46953248,"Comfy, cozy, private NYC Studio for One!",88972240777,unconfirmed,Jennifer,Brooklyn,Sunset Park,40.662729999999996,-73.99384,United States,US,True,strict,Entire home/apt,2022,$751 ,$150 ,4,10.0,7/31/2018,0.45,5,1,0,We don't allow parties or rude guests. We have others that are living in the building. Please treat our house as you would treat yours! No smoking in the apartment please!,
46953801,Queit get away,21502433899,verified,Patrick,Brooklyn,Crown Heights,40.6679,-73.93975999999999,United States,US,True,moderate,Private room,2018,"$1,152 ",$230 ,1,0.0,,,5,1,0,"Absolutely no smoking and no pets.  The place is decorated with taste, please be respectful. I will leave the place as is and expect you to live here as you are in your own home.  I will leave instructions for Cable, Wireless and some of the funky kitchen equipments.  Please enjoy coffee in the morning, make yourself lunch or diner and use utensils. ",
46954353,Cozy Apartment in Washington Heigths,69800235895,verified,Mariarosa,Manhattan,Washington Heights,40.85148,-73.9301,United States,US,True,moderate,Entire home/apt,2013,$639 ,$128 ,2,2.0,11/5/2017,0.09,5,1,0,,
46954905,Private Manhattan Room Close to Train!,37447457236,unconfirmed,Kellie,Manhattan,Harlem,40.817170000000004,-73.93856,United States,US,True,moderate,Private room,2003,$511 ,$102 ,6,21.0,7/8/2018,0.96,2,1,87,"Please take off your shoes when walking around in the apartment, especially in Winter.",
46955458,Small studio in the heart of hells kitchen,66755480423,unconfirmed,Micipsa,Manhattan,Hell's Kitchen,40.763659999999994,-73.99096,United States,US,True,flexible,Entire home/apt,2019,$245 ,$49 ,2,65.0,6/10/2019,3.04,4,1,59,No Smoking No Pets,
46956010,Private Bedroom Living Room w/Exposed Brick,2783549875,unconfirmed,,Manhattan,East Village,40.7263,-73.98432,United States,US,True,flexible,Private room,2015,$713 ,$143 ,1,2.0,12/16/2018,0.28,2,2,0,No Smoking No Pets,
46956562,Quirky apt in great area,85176794711,verified,,Brooklyn,Bushwick,40.6958,-73.91362,United States,US,False,flexible,Private room,2003,$363 ,$73 ,2,71.0,6/17/2019,3.22,4,1,3,"House Rules 1. Check-in is 4 pm local time. If the unit is ready earlier, we’ll let you know. Check-out is normally 11 am local time, but we’d be happy to extend it as long as we don’t have a cleaning scheduled. Just let us know.  2. All bookings require a security deposit of at least $300, which will be refunded within 7 days of your check-out. 3. For security measures we require all guests to provide proof of identification through ID verification on our own website. In order to check in we'll need a photo of your ID.  4. Our cancellation policy is as shown on our ad and defined by the site you are booking through.  5. Don’t let $300 go up in smoke. There's no smoking allowed in any Flatbook and a $300 fine for breaking this rule.  6. Unfortunately we don’t allow pets in any of our apartments. 7. Unless you’re staying in one of our specialty apartments, we don’t allow parties or excessive noise. 8. If we find the place very messy, we have to charge an extra $40 for every extra hour o",
46957114,Lovely Room in a Large Williamsburg Apartment,64847452898,unconfirmed,,Brooklyn,Williamsburg,40.71823,-73.94093000000001,United States,US,False,strict,Private room,2016,$770 ,$154 ,2,3.0,5/28/2018,0.14,3,1,0,"Thank you for your reservation. By placing your reservation online you indicated that you accepted the terms and conditions which have been printed below.  Please review your reservation summary as below - then print, sign and return the agreement to:  (EMAIL HIDDEN) or fax it to (PHONE NUMBER HIDDEN) or  mail it to: Spare Suite, Inc., 119 Braintree Street, Suite 510, Boston, MA 02134, USA Upon receipt, we will send you the welcome document with check in instructions and how to get your keys. ------------------------------------------------------------------------ ------------------------------------------------------------------------ Terms of the Agreement: BOOKING AND REFUND POLICY Once booked your reservation is guaranteed for the check in and check out times and dates specified. All reservations must be paid in advance, in full for the entire period of stay.  All reservations are final, and NON REFUNDABLE UNDER ANY CIRCUMSTANCES.  If you feel you may need to cancel once booked, yo",
46957667,420 Friendly with that  Southern Charm,79293766237,unconfirmed,,Bronx,Wakefield,40.89685,-73.85382,United States,US,True,flexible,Shared room,2007,"$1,071 ",$214 ,1,0.0,,,2,1,0,,
46958219,Eclectic studio steps from Highline Park Chelsea,39758940382,unconfirmed,,Manhattan,Chelsea,40.74641,-74.0051,United States,US,False,moderate,Entire home/apt,2019,$857 ,$171 ,3,3.0,5/19/2018,0.14,4,2,0,,
46958771,Marvelous Manhattan Marble Hill Private Suites,16904690124,verified,Randy,Manhattan,Marble Hill,40.87618,-73.91266,United States,US,False,strict,Private room,2013,$159 ,$32 ,2,7.0,10/6/2018,0.32,4,3,0,,
46959324,Rest Assured Private room/Ensuite bath nearJFK,18055546125,unconfirmed,Joy,Queens,St. Albans,40.68998,-73.75477,United States,US,False,flexible,Private room,2009,$646 ,$129 ,2,23.0,11/11/2018,1.23,3,4,0,,
46959876,Spacious and cosy bedroom in the heart of bushwick,34645043001,unconfirmed,Michael,Brooklyn,Bushwick,40.702459999999995,-73.92416999999999,United States,US,False,strict,Private room,2013,"$1,188 ",$238 ,4,6.0,7/15/2018,0.27,4,2,0,"-  No smoking in the building, please and thanks. -  Clean up after yourself. - $100 fee for lost or non-returned keys. - No outdoor shoes in the house.  Slippers or indoor shoes are fine. -  All guests who are not registered via Air BNB must provide a photo ID and will not be admitted without the person making the reservation - One off-street parking space is available.",
46960428,"Large Room,Private terrace, subway near",89697519960,unconfirmed,Eric,Queens,Rego Park,40.72684,-73.86409,United States,US,True,strict,Private room,2016,$57 ,$11 ,4,0.0,,,2,1,0,,
46960981,1 Bedroom for rent -Gorgeous East Harlem Apartment,79975215517,verified,Zaza,Manhattan,East Harlem,40.797109999999996,-73.93255,United States,US,False,moderate,Private room,2020,$598 ,$120 ,2,34.0,5/27/2019,1.53,2,1,86,No Smoking No Pets,
46961533,"The Schoolhouse, Garden Floor",6478634263,unconfirmed,Ian,Brooklyn,Bushwick,40.70015,-73.93951,United States,US,True,strict,Shared room,2004,$402 ,$80 ,1,0.0,,,3,1,0,,
46962085,Brick City,30996113840,unconfirmed,Wesly/Jessica,Brooklyn,Crown Heights,40.67262,-73.92534,United States,US,False,strict,Private room,2006,$914 ,$183 ,2,41.0,5/31/2019,1.88,4,4,320,"Please understand that this is an apartment building and be mindful of other tenants during your stay. Feel free to use window A/C units but please turn off whenever you leave the apartment. 2 guests maximum; extra $25 per additional adult.  (We can chat about kids) Help yourself to any non-alcoholic beverages (water, coffee. tea, milk etc) but please do not eat any food or drink any alcoholic beverages not explicitly left for you.   Please place all dirty towels and sheets in the laundry basket by the bedroom door upon vacating. Please leave all keys back in the lockbox outside upon vacating.",
46962637,Writer's Haven in Prime Bushwick,1028621391,verified,Lux,Brooklyn,Bushwick,40.70256,-73.92094,United States,US,False,strict,Private room,2017,$140 ,$28 ,1,79.0,7/7/2019,3.56,3,2,178,,
46963190,Basin Homes,91890935236,unconfirmed,Audlyn,Brooklyn,Canarsie,40.62944,-73.89678,United States,US,True,moderate,Entire home/apt,2003,$218 ,$44 ,2,73.0,7/6/2019,3.71,3,1,318,,
46963742,Manhattan Marble Hill Private Sleep'n Suites,49881213437,verified,Randy,Manhattan,Marble Hill,40.87519,-73.91245,United States,US,False,moderate,Private room,2015,$285 ,$57 ,2,5.0,6/14/2019,0.23,5,3,112,No smoking and no pets. No parties. Names and ages of all guests is required for booking.,
46964294,Private Room in Sunny Apartment - Laundry in unit,60734309135,unconfirmed,Fiona,Brooklyn,Bedford-Stuyvesant,40.683609999999994,-73.93883000000001,United States,US,False,flexible,Private room,2005,$823 ,$165 ,3,6.0,10/7/2018,0.27,4,1,0,"Hello! You will be sharing the apartment in a private room with my roommate and our very friendly dog. Also, the door to the room is a curtain, not a full door, so it is less private. Please understand this situation before booking. We have had dozens of other guests who have all had a great time!",
46964847,Your Own Flat in Historic Bed-Stuy District,94716881841,verified,Jaweer,Brooklyn,Bedford-Stuyvesant,40.68462,-73.93724,United States,US,True,flexible,Entire home/apt,2014,$923 ,$185 ,4,1.0,9/30/2017,0.05,4,1,0,"House Rules include no smoking, no illegal drugs, no pets, no entertaining others. Please be respectful of your wonderful neighbors while in the apartment.",
46965399,Beautiful Private Bedroom with Balcony,84555536255,verified,Mauro,Brooklyn,Bedford-Stuyvesant,40.69154,-73.93191,United States,US,False,moderate,Private room,2007,$606 ,$121 ,1,87.0,6/30/2019,3.91,5,1,31,"The building is a quiet place and people enjoy peaceful and relaxing stays.  We encourage consideration of others and it is the norm.  Check in is at 4 pm, and check out at 11 am.   When possible we will offer modifications with advanced notice.  There is a laundry available for use on the top floor and we ask that it not be used after 11 pm or before 8 am.  We ask that guests do not wear shoes in the apartment, and provide shoe covers for guests that feel more comfortable with shoes. There is absolutely no smoking on premises.  Trash is picked up by the City on Tuesday and Friday mornings and can be put out at 5 pm on the night before.  Recycling is picked up on Tuesdays, only, and has to be put out in clear plastic bags.  We can not permit residents to bring bicycles in the building.  ",
46965951,Williamsburg-Greenpoint Loft,36102947055,verified,Aaron,Brooklyn,Greenpoint,40.72591,-73.95645,United States,US,True,strict,Entire home/apt,2013,$431 ,$86 ,2,103.0,6/22/2019,4.62,4,1,268,No Smoking No Pets,
46966504,One Bedroom,35709530633,verified,Sydnee,Manhattan,Harlem,40.8204,-73.93867,United States,US,True,moderate,Private room,2006,$992 ,$198 ,1,2.0,9/10/2017,0.09,5,1,0,No Smoking No Pets,
46967056,"Brand new true 1BD, close to everything!",80447696025,unconfirmed,Avihay,Queens,Astoria,40.77039,-73.92626,United States,US,False,strict,Entire home/apt,2022,"$1,086 ",$217 ,7,1.0,9/17/2017,0.05,3,1,0,"No pets, no smoking whatsoever, no loud parties. Our building is home to some families with young children, some older folks, and many doctors who work long hours at the local hospitals, so quiet and respect are of utmost importance.",
46967608,Full Top Floor of Brownstone in Historic District,6117106673,unconfirmed,Christian,Brooklyn,Bedford-Stuyvesant,40.68181,-73.94214000000001,United States,US,False,flexible,Entire home/apt,2004,$983 ,$197 ,1,3.0,10/30/2017,0.14,4,1,51,"Guests need to understand that this is a private home, not a hotel.  Arrival and departure times are flexible with the owner's schedule. ",
46968160,"Bright, Clean + Beautiful West Village 1 Bedroom",52154619733,unconfirmed,Cyrus,Manhattan,West Village,40.734759999999994,-74.00477,United States,US,False,moderate,Entire home/apt,2008,$939 ,$188 ,4,10.0,3/11/2019,0.47,5,1,10,No Smoking No Pets,
46968713,Nice Room in the upper west Manhathan,60502926798,unconfirmed,Cesar,Manhattan,Harlem,40.81968,-73.95831,United States,US,True,moderate,Private room,2007,"$1,194 ",$239 ,1,36.0,6/23/2019,1.65,2,2,169,,
46969265,Queen sized bedroom with skyline view - Greenpoint,67421255526,unconfirmed,Ruben,Brooklyn,Greenpoint,40.73595,-73.95423000000001,United States,US,True,moderate,Private room,2006,$594 ,$119 ,5,3.0,8/22/2018,0.14,4,1,0,"**The building has 5 units in total and all other units are occupied by year-round young professionals who work at the local hospitals, law firms, consulting companies or even dance at the Boston Ballet! Please be mindful of them and act as you would with your year-round neighbors. You know, keeping it quiet, clean and pleasant to you and all else! **The kitchen is fully equipped with top of the line items, but please maintain it a vegetarian kitchen if you choose to cook, so that our kosher friends can enjoy the apartment as well. You may bring in non-vegetarian takeout from Wholefoods or one of the great restaurants around, we will have plenty of plastic/paper utensils and plates for your convenience. **Absolutely NO SMOKING, of any kind, in the apartment or the building's stoop. There is a garden with benches a few buildings down if you must have a smoke.",
46969817,Luxury 2 Bedroom Empire Loft,34765894529,unconfirmed,Patricia,Manhattan,Midtown,40.753409999999995,-73.98504,United States,US,False,flexible,Entire home/apt,2012,$755 ,$151 ,5,58.0,6/16/2019,2.6,2,1,339,"No smoking, no very late nights, no pets or and crooks allowed. Respectable guests only. In a family neighborhood and building.",
46970370,Designer's Chinatown Loft,88296678067,verified,Tess,Manhattan,Chinatown,40.71569,-73.99421,United States,US,False,moderate,Entire home/apt,2007,$690 ,$138 ,2,9.0,7/6/2019,0.46,5,1,41,No pets. No smoking. Please :),
46970922,BunkBeds 5 min to NYC 900Mb Full Closet,66908548037,verified,Patricio,Queens,Astoria,40.75713,-73.91334,United States,US,True,flexible,Private room,2006,$814 ,$163 ,3,1.0,9/16/2017,0.05,5,2,328,No pets. No smoking. ,
46971474,Sweet Cozy Bedroom with No Cleaning Fee : ),21356850465,verified,Marvis,Manhattan,Harlem,40.81561,-73.95393,United States,US,False,strict,Private room,2009,"$1,049 ",$210 ,4,59.0,6/15/2019,2.71,5,1,44,"No smoking in the apartment, in the foyer or outside the building at any time. No pets. No parties.",
46972027,"Cozy one bedroom aka ""The Green room"" (near JFK)",11285055877,unconfirmed,Nicole,Queens,Jamaica,40.68496,-73.78194,United States,US,True,moderate,Private room,2014,"$1,000 ",$200 ,1,5.0,10/28/2018,0.27,5,4,155,"No smoking, no pets",
46972579,Spacious gorgeous digs in East Village w elevator,5184855062,verified,Julia,Manhattan,East Village,40.72553,-73.98012,United States,US,False,strict,Entire home/apt,2003,$829 ,$166 ,2,5.0,4/14/2018,0.23,3,1,0,,
46973131,Our Astoria Apartment - (Long Term Rental),93430697831,verified,Michael,Queens,Astoria,40.763040000000004,-73.90785,United States,US,False,strict,Private room,2019,$664 ,$133 ,21,9.0,6/30/2019,0.56,2,1,58,"- The apartment is 3 levels - the 2nd, 3rd, and 4th floors of the house. We kindly ask that guests only utilize the space available on the 3rd and 4th floor (+ roof deck).",
46973683,Welcome to a beautiful House in Quiet Bronx,44143334290,unconfirmed,Mercedes,Bronx,Clason Point,40.81645,-73.86355,United States,US,True,strict,Private room,2013,"$1,018 ",$204 ,3,10.0,5/19/2019,0.46,4,2,156,No Pets. No Smoking. ,
46974236,Greenpoint Spacious New Room on McCarren Park,44524845505,verified,Michael,Brooklyn,Greenpoint,40.72228,-73.94816999999999,United States,US,False,strict,Private room,2003,$617 ,$123 ,2,2.0,10/15/2017,0.09,2,1,0,,
46974788,Large Sunny apartment,59232092742,unconfirmed,Kaylin,Bronx,Concourse Village,40.832570000000004,-73.91245,United States,US,False,strict,Shared room,2020,$356 ,$71 ,1,0.0,,,3,1,0,,
46975340,Romantic NYC Getaway,52080319147,verified,Cait,Manhattan,Washington Heights,40.845659999999995,-73.93998,United States,US,False,moderate,Entire home/apt,2012,$520 ,$104 ,3,3.0,12/27/2017,0.14,2,1,0,,
46975893,Central Park north,69561719078,unconfirmed,Miero,Manhattan,Harlem,40.800990000000006,-73.95105,United States,US,True,strict,Entire home/apt,2016,$840 ,$168 ,1,0.0,,,5,1,0,No Smoking No Pets,
46976445,Minimal Light-filled Home Near Prospect Park,22194895422,verified,Tina,Brooklyn,Windsor Terrace,40.65457,-73.97511999999999,United States,US,True,moderate,Entire home/apt,2004,$722 ,$144 ,3,1.0,10/9/2017,0.05,3,1,0,"There is no smoking and no pets allowed in the apartment. Please leave the apartment as you found it (dishes in the dishwasher, living room & kitchen tidy)",
46976997,Spacious 1BR Apt in heart of Gramercy! Sleeps 4,85431890618,verified,Bradley,Manhattan,Kips Bay,40.742940000000004,-73.98137,United States,US,True,strict,Entire home/apt,2010,$672 ,$134 ,1,5.0,6/24/2018,0.23,5,1,0,I want you to enjoy your stay!!  Please try not to break anything and also try not to make a mess that I'll have to pay a maid to clean.  Many people charge upwards of $100 a stay for a cleaning fee and I don't think that's fair to tack that on at the end so that's why I don't charge a cleaning fee.  Please note that I also don't clean up after you or clean in your space while you're here.,
46977550,Newly Renovated Apartment in the Heart of Brooklyn,78720855363,verified,Josh,Brooklyn,Park Slope,40.68117,-73.97785,United States,US,False,flexible,Private room,2004,"$1,111 ",$222 ,3,81.0,7/7/2019,3.67,5,2,42,,
46978102,Clean apartment-styled space. 10min from JFK.,47658121550,unconfirmed,Daré,Queens,Rosedale,40.6622,-73.73135,United States,US,True,strict,Private room,2014,$683 ,$137 ,1,45.0,7/4/2019,2.02,3,2,84,"House Rules 1. Check-in is 4 pm local time. If the unit is ready earlier, we’ll let you know. Check-out is normally 11 am local time, but we’d be happy to extend it as long as we don’t have a cleaning scheduled. Just let us know.  2. All bookings require a security deposit of at least $300, which will be refunded within 7 days of your check-out. 3. For security measures we require all guests to provide proof of identification through ID verification on our own website. In order to check in we'll need a photo of your ID.  4. Our cancellation policy is as shown on our ad and defined by the site you are booking through.  5. Don’t let $300 go up in smoke. There's no smoking allowed in any Flatbook and a $300 fine for breaking this rule.  6. Unfortunately we don’t allow pets in any of our apartments. 7. Unless you’re staying in one of our specialty apartments, we don’t allow parties or excessive noise. 8. If we find the place very messy, we have to charge an extra $40 for every extra hour o",
46978654,Sun Drenched Master Bedroom in Brooklyn Apartment,1804972502,unconfirmed,Josh,Brooklyn,Park Slope,40.68265,-73.97754,United States,US,False,flexible,Private room,2014,$329 ,$66 ,3,5.0,7/29/2018,0.23,3,2,0,,
46979206,Sunny Private Bedroom in a Luxurious Apartment,66889167453,verified,Ismail,Queens,Astoria,40.7623,-73.91645,United States,US,False,strict,Private room,2013,$941 ,$188 ,2,26.0,6/3/2019,1.18,2,2,364,"Have fun, but please be respectful of your neighbors with volume. Any noise complaints will will be forwarded to me and result in a negative review and requirement to leave the next day.",
46979759,Manhattan room with a fire escape!,57850051211,unconfirmed,Elina,Manhattan,Washington Heights,40.83636,-73.94487,United States,US,False,strict,Private room,2017,$864 ,$173 ,2,81.0,7/6/2019,3.8,2,1,11,No pets. No smoking. Please :),
46980311,Elegant Studio Apt in Prospect Heights,7468399023,verified,Miguel,Brooklyn,Prospect Heights,40.67935,-73.9723,United States,US,False,flexible,Entire home/apt,2021,$640 ,$128 ,2,7.0,11/27/2017,0.32,5,1,0,"“House Rules""   Checkout is by 11am.   At least one person in the apartment must be verified by Airbnb.   Please do not rent an apartment for your friends or extended family No overnight guests.  Even with prior permission, an extra charge of $100 per person per night will be added to your rent.   Boston and the south end are very conscious of overcrowding, (i.e. two families with kids sharing a two bedroom apartment, or three students per bedroom are examples of violations of Boston's occupancy ordinances) NO MORE THAN 4 PEOPLE s.v.p.  Soft soled shoes or socks.The apartments have oak floors, and although there's a lot of soundproofing, footfall can be uncomfortable for other tenants.   Please wear soft sole shoes or socks.   Also keep Direct TV,  Blu Ray DVD and music at a reasonable level between 8am and 10PM and very quiet or headphones after 10 pm.   The apartment is completely private ... your own entrances and exits.    The laundry room ($1.75 per wash and $1.75 per wash takes q",
46980863,A CLASSIC NYC NEIGHBORHOOD-EAST 86TH/5TH AVENUE,77161124665,unconfirmed,Rated,Manhattan,Upper East Side,40.77981,-73.96030999999999,United States,US,False,moderate,Entire home/apt,2017,$164 ,$33 ,30,0.0,,,5,33,334,"I expect my home to be treated as any mature adult would treat the home of a respected friend or family member. While the space is to be enjoyed-- there are artworks, antiques, books, electronics and more that need be viewed/handled thoughtfully (i.e. use a coaster when putting a glass on wood tables, etc.) The fireplace, outdoor grill, and washer/dryer are not to be used.  There is no smoking allowed (this includes on the back deck).  Any special check-in and check-out times should be discussed with host. All efforts will be made to accommodate visitor travel schedules.",
46981416,A CLASSIC NYC NEIGHBORHOOD-EAST 86TH/5TH AVENUE,9031702926,unconfirmed,Rated,Manhattan,Upper East Side,40.78098,-73.95854,United States,US,False,strict,Entire home/apt,2005,$62 ,$12 ,30,0.0,,,2,33,315,"House Rules 1. Check-in is 4 pm local time. If the unit is ready earlier, we’ll let you know. Check-out is normally 11 am local time, but we’d be happy to extend it as long as we don’t have a cleaning scheduled. Just let us know.  2. All bookings require a security deposit of at least $300, which will be refunded within 7 days of your check-out. 3. For security measures we require all guests to provide proof of identification through ID verification on our own website. In order to check in we'll need a photo of your ID.  4. Our cancellation policy is as shown on our ad and defined by the site you are booking through.  5. Don’t let $300 go up in smoke. There's no smoking allowed in any Flatbook and a $300 fine for breaking this rule.  6. Unfortunately we don’t allow pets in any of our apartments. 7. Unless you’re staying in one of our specialty apartments, we don’t allow parties or excessive noise. 8. If we find the place very messy, we have to charge an extra $40 for every extra hour o",
46981968,Large Studio in Forest Hills,90104104602,unconfirmed,Renee,Queens,Forest Hills,40.7281,-73.84886,United States,US,False,moderate,Entire home/apt,2010,$380 ,$76 ,2,18.0,1/1/2019,0.82,4,1,0,"Shoes off at the door. Whatever you do, clean up after yourself. Be courteous to my neighbors. Avoid activities inside the building at strange hours.  Big smile and loud greetings for extra points.",
46982520,A CLASSIC NYC NEIGHBORHOOD-EAST 86TH/5TH AVENUE,31741542992,unconfirmed,Rated,Manhattan,Upper East Side,40.78015,-73.95852,United States,US,True,strict,Entire home/apt,2006,"$1,092 ",$218 ,30,0.0,,,2,33,346,"We require a signed lease as soon as we accept your request. No smoking, no pets, no parties. We strive to maintain a quiet, professional community. Two week minimum stay. Two occupants maximum per apartment. No Sunday checkins and no check in after 6:30 pm",
46983073,Cozy apartment,63242039016,verified,Omar,Manhattan,Morningside Heights,40.802459999999996,-73.95971999999999,United States,US,False,moderate,Entire home/apt,2019,$201 ,$40 ,2,57.0,7/5/2019,2.58,4,1,54,"Thank you for your reservation. By placing your reservation online you indicated that you accepted the terms and conditions which have been printed below.  Please review your reservation summary as below - then print, sign and return the agreement to:  (EMAIL HIDDEN) or fax it to (PHONE NUMBER HIDDEN) or  mail it to: Spare Suite, Inc., 119 Braintree Street, Suite 510, Boston, MA 02134, USA Upon receipt, we will send you the welcome document with check in instructions and how to get your keys. ------------------------------------------------------------------------ ------------------------------------------------------------------------ Terms of the Agreement: BOOKING AND REFUND POLICY Once booked your reservation is guaranteed for the check in and check out times and dates specified. All reservations must be paid in advance, in full for the entire period of stay.  All reservations are final, and NON REFUNDABLE UNDER ANY CIRCUMSTANCES.  If you feel you may need to cancel once booked, yo",
46983625,Cozy Studio In Crown Heights,57864795306,unconfirmed,Kyle,Brooklyn,Crown Heights,40.67785,-73.95085999999999,United States,US,True,flexible,Entire home/apt,2011,$633 ,$127 ,2,85.0,6/23/2019,3.94,5,1,272,No Smoking Be courteous to neighbors No pets,
46984177,"Brooklyn At Its Best, Too!",53176367605,unconfirmed,Ainslie And John,Brooklyn,Prospect-Lefferts Gardens,40.66174,-73.95496,United States,US,True,strict,Private room,2008,"$1,007 ",$201 ,2,43.0,5/13/2019,1.94,3,2,182,,
46984729,Chic 1 Bedroom with Empire State Views in NYC,87999515512,verified,Kristin,Manhattan,Harlem,40.80344,-73.95513000000001,United States,US,True,moderate,Entire home/apt,2015,$672 ,$134 ,2,3.0,9/15/2017,0.13,3,1,37,,
46985282,Queens 20 mins to subway- 15 mins JFK- walk to bus,67524095157,unconfirmed,Beverley,Queens,St. Albans,40.69514,-73.74902,United States,US,False,strict,Private room,2008,$734 ,$147 ,1,97.0,7/6/2019,5.23,2,1,354,#NAME?,
46985834,New York Experience,9762750985,unconfirmed,Haniel,Manhattan,Upper West Side,40.797959999999996,-73.97255,United States,US,True,strict,Entire home/apt,2017,$389 ,$78 ,2,1.0,10/9/2017,0.05,5,1,0,No smoking. No pets.  No parties without prior approval.  Names and ages of all guests is required for booking.,
46986386,A serene apartment to rejuvenate yourself.,61135549451,verified,Alex,Brooklyn,Greenpoint,40.73658,-73.95418000000001,United States,US,False,strict,Entire home/apt,2019,$503 ,$101 ,2,0.0,,,2,1,0,"Act like you own the place... which is to say, make yourself at home but also treat it like you would if you owned it. This is our home so we trust and hope that you will treat it like yours.",
46986939,"Quiet/Modern Triplex loft, steps to prospect park!",95526389790,verified,Andrea,Brooklyn,Prospect Heights,40.67729,-73.96535,United States,US,False,flexible,Private room,2021,$56 ,$11 ,5,37.0,7/3/2019,1.71,5,1,135,No smoking please and no running of the washer/dryer after 8:00 P.M.  Thanks No pets ,
46987491,Huge One of A Kind Loft West Village/Meatpacking,52079474243,verified,Marlon,Manhattan,Chelsea,40.740390000000005,-74.00029,United States,US,False,strict,Private room,2021,$651 ,$130 ,2,1.0,9/14/2017,0.05,4,1,0,No Smoking No Pets,
46988043,Spacious Split Level  Apartment,86945798427,unconfirmed,Maggy,Brooklyn,Flatlands,40.62365,-73.93171,United States,US,False,moderate,Entire home/apt,2008,"$1,111 ",$222 ,3,17.0,7/1/2019,1.64,2,1,89,"--The building has 5 units in total and all other units are occupied by year-round young professionals who work at the local hospitals, law firms, consulting companies and University professors.  Please be mindful of them and act as you would with your year-round neighbors. Please keep quiet, clean and respectful at all hours. --Absolutely NO SMOKING, of any kind, in the apartment or the building's stoop. There is a park with benches across the street if you must have a smoke.",
46988596,House of Moon Dog,78638711602,unconfirmed,Eli,Brooklyn,Bushwick,40.696529999999996,-73.91492,United States,US,False,moderate,Private room,2009,$538 ,$108 ,3,29.0,6/24/2019,1.3,2,1,63,"Please no parties, guests, and loud noise past 11p out of respect for neighbors and my roommates. Please no smoking inside the building. If you cook or otherwise eat in the apartment, please reasonably clean up after yourself.",
46989148,Private Room in Trendy Williamsburg Loft,4201898997,verified,Sam,Brooklyn,Williamsburg,40.71591,-73.95513000000001,United States,US,True,flexible,Private room,2004,$694 ,$139 ,4,56.0,6/20/2019,2.53,3,4,8,Please tidy up and leave place clean. Dishes are to be placed in dishwasher and cleaned. Laundry to be placed in washer and turned on before leaving.,
46989700,Room o4,21509199125,unconfirmed,Justine,Bronx,University Heights,40.85751,-73.90805,United States,US,False,flexible,Private room,2005,$109 ,$22 ,3,12.0,5/26/2019,0.54,5,5,365,Quiet building,
46990252,"Cute, airy attic room",70471991510,unconfirmed,Frankie,Brooklyn,Bedford-Stuyvesant,40.69332,-73.95085,United States,US,True,moderate,Private room,2003,$522 ,$104 ,1,1.0,9/21/2017,0.05,3,2,0,Sorry No Smoking  Sorry No Pets This is an elegant property for those who appreciate a quiet environment. Our property has no elevator and because of its historic nature is not Handicap Accessible.,
46990805,Cozy Room in a Friendly House CLOSE TO SUBWAY,90280624821,unconfirmed,Lise,Queens,Woodhaven,40.69621,-73.8502,United States,US,False,moderate,Private room,2016,$51 ,$10 ,2,8.0,5/19/2019,0.51,3,2,96,"Events and parties YES...   but NON SMOKERS only and this is a ""quiet"" house -- so no bachelor parties, or large graduation parties.    Check out is at 11am.      The apartment is completely private as is the patio...   The laundry room and mail room are both off the common foyer..    Your private foyer is down a flight of stairs leading to your apartment an the mechanical room.   Please keep (SENSITIVE CONTENTS HIDDEN) TV, HULU,  Blu Ray DVD and music at a reasonable level between 7am and 11pm.      Maximum of two guests.   It's not possible to bring in an air mattress.   Sleeping in a car in the parking space is also not possible.     -- No smoking, pets, or (loud) parties.  158 is a Quiet building w Quiet Zones.. suitable for professionals, work at home, study, research.  There are events at Christmas and occasional meet-and-greets -- scheduled in the afternoon and early evening -- late night entertainment is easy at Sister Sorel, or 647 Tremont just steps away -- some restaurant's ",
46991357,Cozy & Charming Uptown NYC Bedroom Near Subway,69419727662,verified,Carla,Manhattan,Harlem,40.818670000000004,-73.95293000000001,United States,US,False,moderate,Private room,2008,$587 ,$117 ,2,80.0,4/21/2019,3.6,3,1,0,No Smoking No Pets,
46991909,My Little Cottage,42773149714,verified,Kimberly,Queens,Corona,40.75015,-73.85961,United States,US,False,strict,Entire home/apt,2006,$254 ,$51 ,2,166.0,7/7/2019,7.5,4,2,140,This is a family property with an 86 year old living in the 2nd floor unit. I live in the first floor unit. This home is not suitable for party people etc.  This is also a no smoking home both inside the house and on the front steps.,
46992462,"2 bed, 2 full bath quaint street in Brooklyn",43674348490,unconfirmed,Sabrina,Brooklyn,Boerum Hill,40.68592,-73.98181,United States,US,True,flexible,Entire home/apt,2004,"$1,179 ",$236 ,1,7.0,12/16/2018,0.43,3,1,129,,
46993014,"Sunny, Happy Space in Manhattan!",69353369662,verified,Melissa,Manhattan,Washington Heights,40.84381,-73.9385,United States,US,False,strict,Entire home/apt,2007,$79 ,$16 ,2,4.0,5/20/2018,0.19,4,1,0,"There are only a few rules: 1. Take good care of yourself, any visitors, and the place 2. Absolutely no smoking permitted on the premises including the outside space. The smoke detectors are hard wired and cannot be disabled. 3. Four guest maximum 4. Check in is at 3 pm.  Check out is at 11 am.  The apartment is usually occupied so a late check out or early check in is usually not possible.  There is also no capacity for luggage storage. 5. This apartment is not a party venue.   6. The private park is bordered by the homes of dozens of residents and all sounds echo in this space so please be respectful about noise. 7. Please refer to the ""house manual"" on the Airbnb site for any questions you may have about the apartment 8. If you turn something on i.e. heated towel rack, warming lights, etc,  please make sure to turn it back off.  9. There is usually no one available to accept deliveries and items left at the door are often taken so please no deliveries of packages, fruit, flowers, et",
46993566,The Penthouse,54435199619,verified,Eric,Manhattan,East Harlem,40.79398,-73.94159,United States,US,True,moderate,Entire home/apt,2013,$215 ,$43 ,2,14.0,6/2/2019,0.91,3,1,179,This is the house where I live all year around; please be respectful of the place as if it was yours and leave it as you found it upon arrival.,
46994119,Sunny apartment in the heart of trendy Greenpoint,77585061988,verified,Chris,Brooklyn,Greenpoint,40.72917,-73.95130999999999,United States,US,True,flexible,Entire home/apt,2006,$909 ,$182 ,30,44.0,5/25/2019,2.07,5,1,205,No smoking. No loud music.  Please leave the place as you found it!   Put your dirty linens in the laundry basket and please be respectful of our neighbors.   Please run the dishwasher with your dirty dishes when you leave.   Please do not put the trash out on curb or the trash cans in the back yard. Our cleaning person will remove the trash from the unit.  Do tie up any trash bags if there are food items in the garbage though.,
46994671,PRISTINE STUDIO IN THE HEART OF THE E.  VILLAGE,95025792106,verified,Luz,Manhattan,East Village,40.72945,-73.97986999999999,United States,US,False,strict,Entire home/apt,2022,$257 ,$51 ,30,136.0,5/24/2019,6.18,2,1,291,,
46995223,Lo Studio/15 min central park/wifi+ street parking,821272554,verified,Ez,Queens,Astoria,40.76064,-73.92481,United States,US,False,strict,Entire home/apt,2015,$490 ,$98 ,30,48.0,6/23/2019,2.97,3,5,217,"We're happy to be flexible with check-in and check-out times, so let us know what you need.  We expect guests to be courteous and respectful, and we will do the same.   We like to coordinate schedules for the bathroom on weekday mornings - we're both typically out of the house by 9am.   Since it is a small space that we share, please let us know in advance if you would like to have any visitors.  No need to wash your sheets or towels when you leave - we're happy to handle that for you! Please alert us immediately to any damage. Thank you!",
46995775,HI END LIVING IN UES LUXURY CONDOS-EAST 80TH ST,86906852219,verified,Rated,Manhattan,Upper East Side,40.771229999999996,-73.95040999999999,United States,US,False,strict,Entire home/apt,2007,"$1,021 ",$204 ,30,0.0,,,5,33,284,"We require a signed lease as soon as we accept your request. No smoking, no pets, no parties. We strive to maintain a quiet, professional community. Two week minimum stay. Two occupants maximum per apartment. No Sunday checkins and no check in after 6:30 pm",
46996328,Suite Di CLASSE East village-free Str.parking+wifi,76949775497,unconfirmed,Ez,Manhattan,East Village,40.73105,-73.98195,United States,US,True,flexible,Entire home/apt,2016,$88 ,$18 ,30,48.0,6/24/2019,3.03,5,5,199,"Guests must be quiet and clean adults,all the other apartments in the building are leased long term to working professionals. No students. The welcome/ check-in letter will be forwarded to you several days before your check in date.",
46996880,Sublet for Oct (Phone number hidden by Airbnb) utilities included,59985278688,verified,Jeanette,Queens,Ridgewood,40.7025,-73.90985,United States,US,False,flexible,Private room,2010,$995 ,$199 ,1,0.0,,,3,1,0,No Smoking No Pets,
46997432,Small Bedroom in Dreamy Brownstone,83418178130,unconfirmed,Brielle,Brooklyn,Williamsburg,40.71353,-73.96453000000001,United States,US,False,moderate,Private room,2007,$318 ,$64 ,3,1.0,3/16/2018,0.06,2,1,0,"There is a gas grill on the roof, but unfortunately, we cannot allow guests to use it due to safety concerns. Please make sure to close the door to the roof when not in use.",
46997985,SUPER LUXURY FOR 2 IN FINANCIAL DISTRICT,62431218097,verified,,Manhattan,Financial District,40.708490000000005,-74.01486,United States,US,True,moderate,Entire home/apt,2018,$206 ,$41 ,30,0.0,,,5,33,329,#NAME?,
46998537,The ocean view room size 12x14,17066478261,verified,,Brooklyn,Crown Heights,40.67139,-73.93131,United States,US,True,moderate,Private room,2020,$709 ,$142 ,5,11.0,1/1/2019,0.6,2,7,278,#NAME?,
46999089,"Harlem intimate room,20 min to Time Square,by Park",87706999542,unconfirmed,,Manhattan,Harlem,40.806709999999995,-73.95382,United States,US,True,moderate,Private room,2016,$357 ,$71 ,3,5.0,5/8/2018,0.23,3,2,89,This is a residential property and quiet is maintained.  Absolutely zero smoking on or close to the property.  Be respectful and kind.,
46999642,Midtown Apt. with a great view and everything near,57723691741,unconfirmed,,Manhattan,Hell's Kitchen,40.76697,-73.99134000000001,United States,US,True,strict,Private room,2006,"$1,006 ",$201 ,1,74.0,1/15/2019,3.32,2,1,157,,
47000194,3 Bedroom in Great Midtown Location,84241596963,verified,Deo,Manhattan,Midtown,40.761140000000005,-73.97596,United States,US,False,moderate,Entire home/apt,2007,$630 ,$126 ,30,1.0,12/18/2018,0.15,2,4,151,This is a residential property and quiet is maintained.   Absolutely zero smoking on or close to the property.  Be respectful and kind.,
47000746,Cozy room in lovely apartment close to subway,10030973203,verified,Farrel,Bronx,Claremont Village,40.835,-73.91114,United States,US,False,strict,Private room,2022,$427 ,$85 ,4,30.0,7/7/2019,1.38,5,2,179,,
47001298,cozy & clean room in the Bronx,3123782903,verified,Bonissat,Bronx,Concourse,40.83497,-73.9189,United States,US,True,flexible,Private room,2012,$956 ,$191 ,7,32.0,6/25/2019,1.68,2,1,50,"No loud parties, no smoking",
47001851,Astoria apartment near Manhattan/LaGuardia,87435224534,verified,Zachary,Queens,Astoria,40.76271,-73.92213000000001,United States,US,False,flexible,Entire home/apt,2011,$363 ,$73 ,3,5.0,4/22/2019,0.23,5,1,0,A residential building. Quiet is important. No smoking. No Pets.,
47002403,The Peach Room,23045702352,unconfirmed,Denise,Brooklyn,Crown Heights,40.67302,-73.93143,United States,US,True,moderate,Private room,2013,$528 ,$106 ,4,17.0,6/9/2019,0.76,4,7,303,"We're always happy to welcome considerate and respectful guests into our home. To us this means picking up after yourself (dishes in the dishwasher, coats hung up), bringing your own food, enjoying our space quietly after 11PM, and letting us know what we can do to make your stay enjoyable. 1. Please make sure to keep your bedroom door and the door to the bathroom closed or our puppy will steal all of your socks/drag the toilet paper across the living room. 2. Feel free to use whatever you need:  -cups are in the cabinet to the right of the sink  -there are towels on your bed if you'd like to shower  -the roofdeck is a great place to unwind after traveling- just push up on the handle (it's a little heavy). -feel free to put food in the refrigerator. -there is tea in the cabinet to the right of the stove. 3. Shoes off in the house please. 4. We try to keep the living room and common areas free of ""stuff"" and there's a decent sized closet in your room, but if you need more space let us k",
47002955,Bright charming studio in quiet treelined Brooklyn,39415354833,verified,Rhianna,Brooklyn,Crown Heights,40.67064,-73.9476,United States,US,True,moderate,Private room,2022,$799 ,$160 ,4,2.0,10/1/2017,0.09,5,1,0,"Pets are allowed but no smoking inside the house. You're welcome to smoke outside. Quiet building overall, respect the other tenants and please no large parties.",
47003508,My studio,64955484461,verified,Rubén,Brooklyn,Williamsburg,40.70732,-73.94385,United States,US,False,strict,Entire home/apt,2015,$972 ,$194 ,2,13.0,1/4/2019,0.59,2,1,6,"We kindly ask that you clean up after yourselves, especially in the kitchen. We will have someone clean the linens, the bathroom, and floors after your stay.",
47004060,CHARMING OLD WORLD FLAT - WEST VILLAGE NEAR SOHO,81307431384,verified,Juliana,Manhattan,West Village,40.73145,-74.00184,United States,US,False,moderate,Private room,2022,"$1,189 ",$238 ,1,10.0,11/28/2017,0.47,2,1,0,respect others in the building,
47004612,"2017 Renovated Central Flushing, NYC法拉盛中心的新装修房Wifi",31531868522,unconfirmed,M,Queens,Flushing,40.75918,-73.82921999999999,United States,US,True,strict,Entire home/apt,2015,$522 ,$104 ,3,22.0,4/15/2019,0.99,5,1,96,No more than 2 people. I have neighbors above and below and to each side. Please be respectful in avoiding noises that will disturb the neighbors.,
47005165,Apartment-Styled space in Queens. 10Min from JFK.,72757503121,verified,Daré,Queens,Rosedale,40.66183,-73.72943000000001,United States,US,False,flexible,Private room,2006,$199 ,$40 ,1,65.0,6/30/2019,2.92,3,2,84,No Smoking No Pets,
47005717,450sqft Studio Stunning Water Front Balcony View,83754668445,verified,Brandon,Queens,Ditmars Steinway,40.77691,-73.92662,United States,US,False,flexible,Entire home/apt,2013,$59 ,$12 ,3,6.0,6/21/2019,0.28,3,1,15,No Smoking No Pets,
47006269,Beautiful bright 1 bedroom in Greenwich Village,93087714684,verified,Cat,Manhattan,Greenwich Village,40.73127,-73.99939,United States,US,False,flexible,Entire home/apt,2021,$64 ,$13 ,1,1.0,9/21/2017,0.05,2,1,0,"•  Please respect the privacy of other residents of the building and keep the noise level down. •  No parties, no outside visitors, no overnight guests without previous approval from your host. •  No Smoking. •  No Pets. •  Please do not drink the host's alcohol. •  Use of any rooftop grill is prohibited. •  Do not engage in any illegal activities anywhere on the property. •  If you break or damage something, please let me know and arrange for its replacement or repair. •  Return all keys / Leave them on the counter upon exit.",
47006821,Sunny & Stylish Room in lush apartment,34239701340,verified,Jae,Brooklyn,Williamsburg,40.71725,-73.9438,United States,US,True,strict,Private room,2009,"$1,063 ",$213 ,5,15.0,8/23/2018,0.71,4,3,0,"Some of these rules may sound silly but they have been written because we have seen some silly behavior ; )  • Please only leave with what you came with. Our towels, sheets, shampoo, Q tips, cotton pads, cups, plates, decorative items, trash bags, toilet paper, TV remotes, etc are not parting gifts or favors : )  Use what you need while you are here and leave the rest behind please.  • We love a good party but not in our ABnB unit unless its discussed well in advance. Please no parties, gatherings or events over the registered number of guests! If you would like to have friends over for a gathering please let us know! We understand you are on vacation but ask that late night drunken excursions choose another property. We expect quiet hours after 10 PM and until 6:30 AM. We will commit to the same respect upstairs for you.  • Please come and go quietly. We will do the same. Although we do have 2 children and sometimes they ""forget"" to use their quiet voices.  • Please keep pass code and",
47007374,1 Bedroom in 2 bedroom Apartment,24547046516,unconfirmed,Mirko,Brooklyn,Flatbush,40.647059999999996,-73.96056999999999,United States,US,True,moderate,Private room,2011,$286 ,$57 ,30,1.0,5/22/2019,0.63,2,1,0,"The whole PENTHOUSE is available for events your caterer or one I can recommend.   But with my permission read on AND  s.v.p. plan in advance.   It's a ""quiet house"" so events like small graduation parties, corporate parties, small meet and greets are examples of good ideas for the space.   Bachelor parties, weddings, grooms dinners are not possible.   Although it's a good space for the Bride and Groom to stay if you plan to hold your reception at nearby venus.   THAT SAID, it's also a Quiet Spot on a quiet street in an historic (1860) neighborhood, ideal for professionals ""working-out-of -the-house, for authors, photographers, graduate students who need to study, or for people attending or presenting at conferences.     Check out is at 11am.      The apartment is completely private as is the patio...   The laundry room and mail room are both off the common foyer..    Please keep  TV, HULU,  Blu Ray DVD and music at a reasonable level between 7am and 11pm.      Maximum of two guests.  ",
47007926,"Pretty 1 bedroom apt, Williamsburg/ Females only",9251443584,unconfirmed,Michelle,Brooklyn,Williamsburg,40.7069,-73.95371999999999,United States,US,True,moderate,Private room,2016,$160 ,$32 ,5,61.0,7/3/2019,2.84,2,1,53,,
47008478,Ocean Room at Great Location,4320123009,verified,Gulcin,Manhattan,Chinatown,40.713640000000005,-73.99153000000001,United States,US,True,moderate,Private room,2022,$826 ,$165 ,1,42.0,6/19/2019,1.91,3,4,257,,
47009031,"Homey Midtown East 1BR w/ Gym, Doorman, near the 6th street by Blueground",38138092829,verified,Blueground,Manhattan,Kips Bay,40.7451,-73.97915,United States,US,False,moderate,Entire home/apt,2003,"$1,068 ",$214 ,30,0.0,,,5,232,156,#NAME?,
47009583,Entire Private Brownstone in Brooklyn,23898810333,verified,Sam,Brooklyn,Dyker Heights,40.624990000000004,-74.01684,United States,US,False,strict,Entire home/apt,2012,"$1,157 ",$231 ,1,69.0,6/29/2019,3.15,2,1,127,Smoking is forbidden in the apartment and on the rooftop.,
47010135,Cozy Room in Bushwick.,67267213238,verified,Kennedy,Brooklyn,Bushwick,40.69813,-73.91991,United States,US,False,strict,Private room,2019,$303 ,$61 ,7,1.0,10/4/2017,0.05,4,1,0,"House Rules The house rules are an important part of staying in this condo.  You will be sharing a living space with other guests and a high level of consideration, respect, communication and tolerance is expected from you.  They are meant to make your stay more pleasant, to prevent conflicts and to protect the property of any damage.  If you feel there is something that needs to be addressed and that is not covered in these rules, please make sure you communicate that to the host. 1.  Toilet · The toilettes can only be used with the toilet paper provided.  Any other material disposed of will cause the plumbing system to back up and create drainage problems.  No tissues, cotton balls, tampons, Q-tips cotton swabs or any kind of sanitary products are allowed down the toilets.  · Any plumbing work due to clogged toilets will be charged to the guests. 2. Noise and Quiet Hours · Quiet hours are from 10pm until 7am.  During quiet hours radios and stereos may be played at a level not to be h",
47010688,Bright UES 1-BR. Walk to Central Park and museums,43447875355,verified,Jorge,Manhattan,Upper East Side,40.78539,-73.95056,United States,US,True,flexible,Entire home/apt,2017,$948 ,$190 ,2,13.0,12/16/2018,0.69,3,1,0,,
47011240,INVITING BRIGHT & STYLISH STUDIO,31882840804,unconfirmed,Stephon,Brooklyn,Bedford-Stuyvesant,40.683279999999996,-73.93719,United States,US,True,strict,Entire home/apt,2018,$667 ,$133 ,2,20.0,2/15/2019,0.9,4,1,0,"No smoking allowed in property or on roof deck. No pets allowed.  Please be respectful of other neighbors who live in close proximity, especially when enjoying the roof deck.",
47011792,Charming Apartment on Central Park West!,30875315288,unconfirmed,Abigail,Manhattan,Upper West Side,40.78717,-73.96806,United States,US,False,strict,Entire home/apt,2021,"$1,054 ",$211 ,1,24.0,5/2/2019,1.08,3,1,27,No Smoking No Pets,
47012344,Brand New Apt In A Beautiful Elevator Building,51435048401,verified,Ramonex,Manhattan,Harlem,40.81643,-73.94041999999999,United States,US,False,flexible,Private room,2009,$746 ,$149 ,3,,6/22/2019,3.8,2,1,205,,
47012897,Modern Loft overlooking McCarren Park,33789617629,unconfirmed,Dan,Brooklyn,Greenpoint,40.71986,-73.95344,United States,US,True,moderate,Entire home/apt,2013,$301 ,$60 ,6,0.0,,,2,1,0,"We require a signed lease as soon as we accept your request. No smoking, no pets, no parties. We strive to maintain a quiet, professional community. Two week minimum stay. Two occupants maximum per apartment. No Sunday checkins and no check in after 6:30 pm",
47013449,Sunny 1 bedroom apartment on quiet block,54537870583,unconfirmed,Fay,Brooklyn,Carroll Gardens,40.6802,-73.99739,United States,US,True,moderate,Entire home/apt,2011,"$1,024 ",$205 ,1,117.0,7/6/2019,5.31,3,1,15,"House Rules The house rules are an important part of staying in this condo.  You will be sharing a living space with other guests and a high level of consideration, respect, communication and tolerance is expected from you.  They are meant to make your stay more pleasant, to prevent conflicts and to protect the property of any damage.  If you feel there is something that needs to be addressed and that is not covered in these rules, please make sure you communicate that to the host. 1.  Toilet · The toilettes can only be used with toilet paper provided.  Any other material disposed of will cause the plumbing system to back up and create drainage problems.  No tissues, cotton balls, tampons, Q-tips cotton swabs or any kind of sanitary products are allowed down the toilets.  · Any plumbing work due to clogged toilets will be charged to the guests. 2. Noise and Quiet Hours · Quiet hours are from 10pm until 7am.  During quiet hours radios and stereos may be played at a level not to be heard",
47014001,NYC private room in Private house|Mt Vernon area,22278350024,unconfirmed,Tunzil,Bronx,Wakefield,40.90356,-73.84172,United States,US,True,flexible,Private room,2014,"$1,035 ",$207 ,1,11.0,6/10/2019,0.5,3,1,35,"For Your CarYup! IT'S JUST THE PARKING SPACE.  And it's reasonable but not FREE, and not even a bed is included.  No Queen No Real Bed, No Beds at all, but I don't care how few or how many people use the car you park in the space.   I'm writing to AIRBNB's Help Desk, to get them to add OTHER to their ""Room Type"" menu, and to add a choice of 0 beds to the pull down menus.     Parking in Boston's South End is more scarce than Penthouses or Hen's Teeth.  And parking per square foot rents for more than a square foot of air-mattress-for-a-night!  Go To https://www.airbnb.com/rooms/",
47014554,East Village Penthouse Terrace,28468506773,verified,Spiritt,Manhattan,East Village,40.72737,-73.98815,United States,US,True,flexible,Private room,2017,$484 ,$97 ,2,0.0,,,5,1,0,NO SMOKING IN OR OUT THE APARTMENT. please be aware of the Neighbors and respect their space and privacy as well. No free parking,
47015106,Brooklyn’s finest pt. Deux,23178378615,unconfirmed,Xie,Brooklyn,Canarsie,40.63295,-73.89202,United States,US,False,flexible,Private room,2005,$971 ,$194 ,2,19.0,6/19/2019,1.23,3,3,331,#NAME?,
47015658,Restaurants- Nightlife-  Greenpoint - Williamsburg,58436471942,verified,Eric,Brooklyn,Greenpoint,40.723929999999996,-73.95347,United States,US,True,flexible,Entire home/apt,2013,$919 ,$184 ,2,0.0,,,5,2,0,Please no smoking and no parties! Hope you don't mind if we let you know if you are too loud.,
47016211,Bedford Bungalow  5  min cab from Williamsburg,47227561905,unconfirmed,Malcolm,Brooklyn,Bedford-Stuyvesant,40.69211,-73.95496,United States,US,True,flexible,Entire home/apt,2015,"$1,110 ",$222 ,1,61.0,6/19/2019,2.83,3,1,113,We just ask that you respect the other guests and residents in the building.,
47016763,Perfect one bedroom in midtown Manhattan,94659610497,unconfirmed,Stanley,Manhattan,Murray Hill,40.74814,-73.97554000000001,United States,US,False,strict,Entire home/apt,2011,"$1,191 ",$238 ,30,1.0,8/11/2018,0.09,3,50,365,"House handbook sent prior to arrival but please be considerate with noise, smoking on roofdeck only and parties are not allowed...thank you!",
47017315,Two bedroom Beauty in midtown Manhattan,62498719540,verified,Stanley,Manhattan,Murray Hill,40.74844,-73.97694,United States,US,True,strict,Entire home/apt,2014,$607 ,$121 ,30,1.0,8/19/2018,0.09,5,50,358,,
