id,NAME,host id,host_identity_verified,host name,neighbourhood group,neighbourhood,lat,long,country,country code,instant_bookable,cancellation_policy,room type,Construction year,price,service fee,minimum nights,number of reviews,last review,reviews per month,review rate number,calculated host listings count,availability 365,house_rules,license
24860696,STEINWAY..The heart of Astoria,73083709323,verified,Bidhya,Queens,Astoria,40.7577,-73.91728,United States,US,False,moderate,Private room,2012,$813 ,$163 ,2,6,5/10/2019,1.94,2,1,333,No parties no loud music any issues please call,
24861248,Large Room in Brownstone Townhouse  (2nd fl),89163648557,verified,Emilie,Brooklyn,Bedford-Stuyvesant,40.682109999999994,-73.92695,United States,US,True,moderate,Private room,2008,$948 ,$190 ,5,2,5/11/2019,0.76,3,2,71,,
24861801,Coming soon: stunning Upper West Side apartment,39755883146,unconfirmed,Joseph,Manhattan,Upper West Side,40.77112,-73.98964000000001,United States,US,True,flexible,Entire home/apt,2005,$318 ,$64 ,31,0,,,2,1,103,"Check-in time can sometimes be flexible and we can provide advice for luggage storage if needed. No smokers please. Please do not spray perfumes, colognes or after-shaves as Nina has allergies.  Thanks for understanding. No eating in the bedroom.  Enjoy your stay!",
24862353,Cozy NoHo Studio Apartment,46699758689,verified,Lori,Manhattan,NoHo,40.72493,-73.99318000000001,United States,US,True,strict,Entire home/apt,2004,$445 ,$89 ,7,2,5/19/2019,0.94,5,1,3,"Earlier than 1pm check-in may be an option, will accommodate when possible.   Mutual civility and respect make life simple.  I tend to turn in by 10pm - so this not a great location for very  late night check-ins.  Not a good situation for coming and going into the small hours. Quiet after 10pm.",
24862905,New Furnished Modern Two-Bedroom Apartment,11200019343,verified,Jessica,Queens,Astoria,40.75744,-73.91839,United States,US,False,flexible,Entire home/apt,2022,$644 ,$129 ,30,1,5/31/2019,0.77,2,1,311,"People live downstairs, so please don't walk around wearing hard shoes, be quiet on the stairway, and quiet down after 11:00. No candles in the apartment. Please carefully make sure the front door clicks shut when you come or go! Thank you!",
24863458,Close to city in trendy Queens! Females only,9969813984,verified,Linda,Queens,Elmhurst,40.72688,-73.87861,United States,US,False,flexible,Private room,2003,$467 ,$93 ,1,6,6/19/2019,2.34,3,1,36,,
24864010,中城西豪华客厅!,12687983556,verified,Wang,Manhattan,Hell's Kitchen,40.76695,-73.99103000000001,United States,US,False,flexible,Private room,2017,$618 ,$124 ,4,0,,,4,1,57,"Kid friendly if you bring your own pack n play or crib. IF YOU HAVE ALLERGIES PLEASE LET US KNOW. There is a dog who lives here, who will not be present for your stay, but who might have left behind some dander that could make you sad!",
24864562,Private Room near to Manhattan,98070669979,verified,Lidu,Queens,Astoria,40.767990000000005,-73.90995,United States,US,True,strict,Private room,2007,$992 ,$198 ,1,6,4/29/2019,1.96,3,1,31,"We would love to hear a bit about you and what brings you to Boston before accepting any reservations. Please make sure your profile is filled out (including a clear picture of you), and your online and offline verifications are complete before you submit a reservation request so we have an idea of who you are.  Please be respectful of my home and other guests - clean up after yourself, keep your toiletries neat and organized in the shared bathroom, no smoking indoors, and please remove your shoes upon entering.   I have coffee and tea for guests, and will leave out some basic breakfast items like snack bars and fresh fruit, however if you are planning on using the kitchen during your stay I ask that you provide your own food and drink.   Please do not bring additional guests home without express prior permission from the host.   Sorry, no pets allowed.",
24865114,Cozy vibes next to Prospect Park/Botanical Gardens,80639299527,verified,Ronni,Brooklyn,Prospect-Lefferts Gardens,40.66277,-73.9574,United States,US,False,strict,Private room,2022,$431 ,$86 ,2,7,6/19/2019,3.23,4,1,111,"-NO smoking inside. You are welcome to smoke outside, but please be respectful if the kids are in the yard or garden. -NO candles or incense please! The gas stove should be the only indoor flame.  -We ask guests to maintain quiet from 9pm-9am and be respectful of noise levels during the day. You are welcome to have a few friends over for dinner, and we love noisy kids, but loud music or loud parties do not work well in this space.  -The original house and foundation are over 150 years old, and although we strive to keep it very clean the occasional mouse or animal has found it's way in (mostly behind the walls, so you might hear scratching although we are trying to seal all the foundation holes), so please keep food mess put away. -Please clean up messes that could stain or damage our carpets, furniture or bathroom. Hair dyeing and hair cuts are not allowed in the apartment as the wood and claw foot tub can stain very easily. -Please remove muddy, snowy or shoes with anything on them t",
24865667,Bright and Spacious East Village Apartment,9479883473,unconfirmed,Ranita,Manhattan,East Village,40.723440000000004,-73.98479,United States,US,True,flexible,Entire home/apt,2008,$289 ,$58 ,30,0,,,5,2,221,Please treat my home with the love and care you would give your own.,
24866219,Chic modern 1 bedroom apartment in Astor Place,54363631952,unconfirmed,Javier,Manhattan,East Village,40.7299,-73.98979,United States,US,False,flexible,Entire home/apt,2021,"$1,013 ",$203 ,3,2,6/12/2019,0.7,5,1,123,- Animaux sur place (lapins) - respect du voisinage - Acces à la chambre des autres locataires interdit ,
24866771,Cozy And Stylish Modern Home,39222953555,verified,Yien,Staten Island,New Brighton,40.64098,-74.0935,United States,US,True,strict,Entire home/apt,2021,$410 ,$82 ,2,8,6/22/2019,2.58,4,1,241,"No candles. Close and lock windows when you leave the house. Clean up after yourself in the bathroom and the kitchen. Mutual respect and have fun! If you want to have an event or party, let's check in about it first.",
24867324,"Class, Comfort, Convenience In The Heart of NYC",38342463139,verified,Devin,Manhattan,Hell's Kitchen,40.76485,-73.99229,United States,US,True,strict,Entire home/apt,2017,$940 ,$188 ,2,5,6/2/2019,2.38,3,1,247,Guests are liable for any damage to the unit or property. Guests assume all personal liability and risk for injury to themselves and others during their stay.,
24867876,"Spacious apt, New building in trendy Bushwick!",73591482868,verified,Tamara,Brooklyn,Bushwick,40.7042,-73.92719,United States,US,True,flexible,Entire home/apt,2020,$435 ,$87 ,2,0,,,5,1,0,"Guests to be reasonable; don't make late-night and AM noise,  ASK about having pets-- dogs usually OK; cats (due to allergy) usually not OK Children welcome Shared bath has never been a problem No smoking inside. Washer and Line for drying available. Pls. use fridge/stove, etc.",
24868428,Sunny 1 Bedroom Apt in Bed-Stuy Brownstone,13026592832,verified,Kirby,Brooklyn,Bedford-Stuyvesant,40.69318,-73.95054,United States,US,True,moderate,Entire home/apt,2011,$386 ,$77 ,14,0,,,2,1,0,"-Remove shoes -be sure to lock the front door when entering or leaving the house -be reasonably quiet during sleeping hours - clean up after yourself in common areas like kitchen and bathroom -Good communication is key - There may be other guests staying and you will be sharing the bathroom with the host and one other guest. Please tell me a little bit about yourself and your purpose for the trip. Are you traveling for work, visiting friends in this area, or a tourist on vacation? This is a friendly household, reasonably quiet. -We expect guests to be reasonably quiet coming in and out before (9AM and after 10PM.  -No smoking -No pets - For safety reasons please do not invite other people to our place.  -Ask if you need anything, I will be providing you with towels, shampoo, conditioner, body wash, lotion, hair dryer. Self serve breakfast items will be provided as well, Coffee, tea, milk, half and half, yogurt, english muffins, with jam and butter, fresh fruits, instant oatmeal, and ce",
24868981,Crown Heights Studio,35098595924,unconfirmed,Marion,Brooklyn,Crown Heights,40.671440000000004,-73.92496,United States,US,True,moderate,Entire home/apt,2014,$862 ,$172 ,3,3,5/6/2019,1.18,2,1,7,"No shoes in the house please - helps clean the house clean from dirt and germs. We don't charge a cleaning fee, so please leave the house in good shape.  Thank You!",
24869533,"Massive, Incredible Brand New East Village Loft",22109313490,verified,Dustin,Manhattan,East Village,40.72735,-73.98917,United States,US,False,flexible,Private room,2013,$646 ,$129 ,30,0,,,5,9,325,No smoking inside or outside.  Please no food in the bedroom and keep the bedroom and bathroom neat.  Clean up after you are finished in the kitchen.,
24870085,"Kings palace close to jfk, Belmont track  & casino",74642748260,unconfirmed,Adeola,Queens,St. Albans,40.699670000000005,-73.75026,United States,US,False,flexible,Entire home/apt,2007,$184 ,$37 ,2,2,6/23/2019,1.58,2,3,332,"No smoking, no extra guests and no parties.",
24870637,Bedroom in Soho for working professional,97924281267,unconfirmed,Noah,Manhattan,SoHo,40.720290000000006,-74.00033,United States,US,False,flexible,Private room,2017,$699 ,$140 ,30,0,,,5,1,50,"Quiet house, respectful of other units in the building.",
24871190,Comfortable master room in Brooklyn close to train,50472696358,verified,Vitória,Brooklyn,Bedford-Stuyvesant,40.67723,-73.91256,United States,US,False,flexible,Private room,2010,$471 ,$94 ,2,6,6/1/2019,2.47,4,5,213,Guest should bring own towels; sheets are provided.,
24871742,Nightly or long sublet. (12x12 room in 2BR),49987934160,verified,Fagan,Brooklyn,Bushwick,40.707229999999996,-73.92066,United States,US,False,moderate,Private room,2005,$760 ,$152 ,2,0,,,3,2,0,- We have school age children and request that our guests do not come and go and after 11pm on weekdays.,
24872294,STOP n SLEEP Large - LGA LaGuardia Airport and JFK,95039108472,unconfirmed,Noel,Queens,East Elmhurst,40.75985,-73.88294,United States,US,False,moderate,Private room,2004,$479 ,$96 ,1,8,5/10/2019,2.58,5,4,210,,
24872847,Chic+Charming Soho Loft Apartment [True 1BR],37715220768,verified,Sophia,Manhattan,SoHo,40.72347,-74.00463,United States,US,False,strict,Entire home/apt,2017,$943 ,$189 ,1,3,6/4/2019,1.25,4,1,34,smoking outside no pets quiet friendly people preferred,
24873399,Manhattan Treasure (Harlem Find),88519733029,unconfirmed,Dee,Manhattan,Harlem,40.8026,-73.95829,United States,US,False,strict,Entire home/apt,2014,$446 ,$89 ,2,5,7/6/2019,5.0,2,1,19,Quiet times are 9pm-8am. Please note that there are children in the house getting up for school at 6 am on Thursdays and Fridays. This is not the ideal place for late-sleepers! All overnight guests must be booked through Airbnb. If you plan to have visitors to your room please check with us beforehand. No smoking or drugs in the house. Moderate drinking ok. No candles or any open flames. ,
24873951,The New Harlemites,53488373814,verified,Eric,Manhattan,Harlem,40.81325,-73.9398,United States,US,True,strict,Entire home/apt,2022,$573 ,$115 ,3,6,5/21/2019,2.31,3,1,25,"All overnight guests must be booked through Airbnb. If you plan to have visitors to your room please check with us beforehand. No candles or other open flames. No smoking, or drugs in the house.  Moderate drinking ok. ",
24874504,One bedroom apartment in mid-town,896227464,unconfirmed,Francesco,Manhattan,Murray Hill,40.74535,-73.9764,United States,US,True,flexible,Entire home/apt,2010,"$1,170 ",$234 ,2,6,6/30/2019,1.94,3,1,0,"I'm a semi kosher vegetarian which means that I don't bring any pork or shelled fish into the house.  Chicken/Red meat is fine. Please confirm in your message that you're ok with this ""house rule.""",
24875056,,93672917143,verified,Lisa,Brooklyn,East New York,40.66155,-73.88916,United States,US,False,strict,Entire home/apt,2008,$537 ,$107 ,2,4,7/5/2019,4.0,5,1,96,"Follow the Golden Rule of treating others (homes) as you'd like (your home) to be treated.  Jamaica Plain is a neighborhood with a lot of families, so please no parties and maintain noise levels after 11 pm and before 7 am.  Pets are okay, smoking is not.",
24875608,new years eve week,49347565788,unconfirmed,Chandler,Manhattan,Midtown,40.75383,-73.97207,United States,US,True,flexible,Private room,2022,$729 ,$146 ,5,0,,,4,1,353,- has to be clean!,
24876160,Entire Luxurious Condominium Near JFK Airport,90576092873,verified,Giovanina,Queens,Jamaica,40.67138,-73.77238,United States,US,True,moderate,Entire home/apt,2004,$337 ,$67 ,1,7,5/28/2019,2.66,2,1,0,Be respectful of my roommates and my dogs.,
24876713,Sonder | Stock Exchange | Pristine Studio + Lounge,58767236753,verified,Sonder (NYC),Manhattan,Financial District,40.70604,-74.01021,United States,US,True,flexible,Entire home/apt,2015,"$1,098 ",$220 ,2,3,6/3/2019,1.27,5,327,303,"SUMMER SEASON: We have 2 A/C units in apartment, please do not move them, they must remain where they are for electrical reasons and they have to be on a certain angle as well. They are heavy too. Please turn them off when you are not in the condo. It’s an older home; don’t over charge electricity; the circuit breaker will pop if too much charged electricity... (Read utilities on the “house notes”) We ask our guests to be considerate of our neighbors and keep noise levels reasonable. This is a quiet neighborhood.",
24877265,Best of Brooklyn: Prospect Park,63539522687,verified,Josephine,Brooklyn,Prospect Heights,40.67323,-73.96863,United States,US,True,strict,Entire home/apt,2016,"$1,020 ",$204 ,3,1,6/4/2019,0.86,4,1,45,"No candles. Close and lock windows when you leave the house. Clean up after yourself in the bathroom and the kitchen. Mutual respect and have fun! If you want to have an event or party, let's check in about it first.",
24877817,,19195680081,unconfirmed,Sonder (NYC),Manhattan,Financial District,40.70763,-74.0105,United States,US,True,flexible,Entire home/apt,2009,$192 ,$38 ,2,5,6/2/2019,1.88,4,327,272,"Relax and enjoy. Kitchen fully equipped. Linens and towels supplied.  No smoking. No candles. And, sorry, but this is a place for one adult or a couple. Not suitable for kids.",
24878370,Sonder | Stock Exchange | Relaxed 1BR + Lounge,10230439441,verified,Sonder (NYC),Manhattan,Financial District,40.70747,-74.01226,United States,US,False,flexible,Entire home/apt,2016,"$1,090 ",$218 ,2,9,6/14/2019,3.42,3,327,272,"As mentioned, this is a quiet neighborhood with a mix of young people starting out and families, and we have neighbors living above us in the house and on either side of the house.  As such, loud, late night parties will not be hosted here. We would hope that this house would serve as your staging place to a great Boston experience, but that the bulk of that experience will occur while you are out exploring the area!",
24878922,Sunny Bedroom in Ridgewood/Bushwick,1571835288,verified,Adham,Queens,Ridgewood,40.70622,-73.90641,United States,US,False,strict,Private room,2021,$870 ,$174 ,1,13,6/24/2019,4.53,4,2,5,"Please review the terms of this rental agreement. Enclosed is our rental contract and rules. Please read carefully. If you have any questions please don't hesitate to contact me before submitting your payment. By submitting your deposit you agree to these terms, and the fee and dates outlined in the booking email. Please make sure that you have provided us with a cell phone for the primary contact as well as the EXACT number of occupants. Our rates are based on 2 person occupancy. We charge $25 per person, per night for additional persons.  The unit is located at 256 Amory St. #1, Jamaica Plain, MA If you need directions don’t hesitate to call Christine at (PHONE NUMBER HIDDEN). Your confirmation is as follows: Check-in: after 3pm EST (No early check-in please)  Check-out: by 10 am EST (No late check-outs please) Pre-arrival info will be emailed to you before check in. By submitting my deposit, I agree to all terms and conditions of this agreement RENTAL RULES AND REGULATIONS  Arthouse",
24879474,Sonder | 21 Chelsea | Vibrant 1BR + Rooftop,28622417433,unconfirmed,Sonder (NYC),Manhattan,Chelsea,40.7425,-73.99443000000001,United States,US,False,strict,Entire home/apt,2011,$705 ,$141 ,29,0,,,5,327,365,,
24880027,Sunlit Bedroom with Private Terrace - Williamsburg,31867923680,unconfirmed,Kelvin,Brooklyn,Williamsburg,40.706520000000005,-73.94541,United States,US,False,flexible,Private room,2021,$80 ,$16 ,1,2,5/19/2019,0.65,5,1,0,"Rules are detailed in the House Manual, which was emailed to you. There is also a printed copy of the house manual in the condo. Summary: - no guests other than those arranged with host. - no parties. - no smoking. - please be respectful of our neighbors. - please follow the check-out list provided. Failure to follow house rules will result in forfeiture of your security deposit.",
24880579,Spacious Williamsburg Duplex w/ Private Patio,431068174,verified,Chelsea,Brooklyn,Williamsburg,40.70855,-73.94991999999999,United States,US,True,strict,Entire home/apt,2003,$273 ,$55 ,2,0,,,3,1,3,#NAME?,
24881131,bellissima stanza privata  in east harlem NYC,36259153877,unconfirmed,Lele,Manhattan,East Harlem,40.79433,-73.94414,United States,US,True,moderate,Private room,2022,$380 ,$76 ,2,0,,,3,1,103,,
24881683,"Private, warm & inviting contemporary space.",59198699175,unconfirmed,Antoinette,Bronx,Wakefield,40.88491,-73.85484,United States,US,False,flexible,Private room,2004,$108 ,$22 ,1,0,,,2,1,116,,
24882236,,7335829149,verified,Leonora,Manhattan,East Village,40.72705,-73.9846,United States,US,True,strict,Private room,2003,$865 ,$173 ,1,1,4/4/2019,0.31,4,5,15,"No rules per say. I just ask that you respect my friendly ""building mates"" with noise levels. Oh, and no smoking or pets please!",
24882788,Large Private room minutes to Times Square,26418930755,unconfirmed,Carlton,Manhattan,Harlem,40.81089,-73.94309,United States,US,False,strict,Private room,2009,$667 ,$133 ,1,7,7/5/2019,2.21,2,2,172,"ANDREA’S HOUSE RULES:  ** The PINK ROOM is a room in a no-shoes house. Please [BRING] wear slippers or inside-only shoes.  ** All overnight guests must be booked through Airbnb. If you plan to have visitors during your stay, please check with us beforehand.  ** Please help us avoid any staining and damage to the furniture & linens by keeping food and beverages out of the bed. [**For MAKEUP REMOVAL please use the wipes provided and/or the dark washcloth.]  ** Enjoy our PINK ROOM, our BEVERAGE AREA in the living room, the bathroom, and please ** leave these spaces clean & tidy as you found  them **  ** As it states in the “Amenities” section on my listing, I do not provide breakfast (unless you have made a specific arrangement for meals with me). I do offer a few things to get you started. However, there are always several options for coffee in the freezer and other beverage materials in the beverage section.  ** Please hang coats and LEAVE shoes/boots in the hall  ** Please leave towels",
24883340,Comfy & Cheerful Oasis in Vibrant Neighborhood,54925256315,unconfirmed,Rocco,Brooklyn,Williamsburg,40.7198,-73.94125,United States,US,True,moderate,Entire home/apt,2013,$522 ,$104 ,2,6,6/17/2019,3.0,4,1,48,No loud noise.  Calm pets ok.  Friendly welcome!,
24883893,Entire studio with separate kitchen & dining room!,4259374456,unconfirmed,Ulviyya,Brooklyn,Sheepshead Bay,40.59516,-73.96208,United States,US,False,moderate,Entire home/apt,2015,"$1,067 ",$213 ,1,0,,,2,1,0,"No smoking, no loud parties. I would consider a pet, for an extra fee.",
24884445,"West Village Town House 
With Private Backyard",17225279624,verified,Donald,Manhattan,West Village,40.73103,-74.00778000000001,United States,US,False,flexible,Entire home/apt,2017,$178 ,$36 ,3,0,,,3,1,16,"House quiet hours are from 10 pm to 8 am.  We ask guests to simply be respectful and mindful that there are others living downstairs.  We also ask guests to remember that although you will have your own private space, this is not a hotel or even a room for rent, it is a private home that we will be sharing.  As such, we ask you to treat the apartment and its' contents as any guest would in a private home and to keep it clean and leave it as you find it.  There are no overnight guests in our home other than those on the actual reservtion. If there is a last minute situation, please check with us first.  There are no pets or smoking anywhere on the premises inside or out, or any other open flames.",
24884997,LUXURY 2bedrm w/ Outdoor Patio - TimeSq/42nd & 9th,15481945691,verified,Janio,Manhattan,Hell's Kitchen,40.760220000000004,-73.99253,United States,US,True,moderate,Entire home/apt,2010,"$1,123 ",$225 ,2,11,6/23/2019,3.63,4,1,247,"Quiet time (including TV sound turned low) at 9:30 PM, though guests, of course, can come and go before and after that. Just be respectful that this is also a house where we live and work. Also, no smoking and no pets - thanks.",
24885550,Sunny Private bedroom in convenient location,59221457671,verified,Melissa,Brooklyn,Bushwick,40.700390000000006,-73.92352,United States,US,True,moderate,Private room,2019,$274 ,$55 ,2,2,5/6/2019,0.7,4,1,364,Respect our home and our house is your house. Checkout is 11 am at the end of your stay. You are welcome to leave your bags for the day. Please let us know when you plan to arrive. Depending on circumstances we can be very flexible.,
24886102,"Only for airline crew, pilots and flight attendant",80277275689,unconfirmed,Hanine,Queens,East Elmhurst,40.76078,-73.88221999999999,United States,US,True,flexible,Private room,2021,"$1,129 ",$226 ,1,1,7/7/2019,1.0,3,3,76,"Please do not let any of the animals outside! Quiet hours are from 10 pm - 6:30 am on weekdays, 11 pm - 8:30 am on weekends. Please be considerate and clean up after yourself in the kitchen and bathroom, as they are shared. We use the shower in the shared bathroom, so we appreciate it if you would refrain from lingering there in the mornings. No smoking allowed anywhere on the premises.",
24886654,BKLYN Cozy B&B,2853729807,verified,Anthony,Brooklyn,Bedford-Stuyvesant,40.69655,-73.93458000000001,United States,US,True,strict,Private room,2019,"$1,174 ",$235 ,1,18,6/22/2019,6.0,4,1,0,"We hope you will be nice to the dogs, quiet in your comings and goings and respectful of our Eco, vegetarian ways. Please take off your shoes when you come in and clean up after yourself.",
24887206,Urban Zen Oasis,96172155463,unconfirmed,Victoria,Brooklyn,Crown Heights,40.674009999999996,-73.92371,United States,US,False,moderate,Entire home/apt,2022,$761 ,$152 ,1,8,6/8/2019,2.61,2,1,178,Please be respectful of my things! I have a lot of stuff that I have collected over the years. Absolutely NO smoking.  This is a really relaxing space and the neighbors are all really cool.  -Pets are allowed,
24887759,"MASTER ROOM
Close to the JFK and LGA airport",30893192330,verified,Marcelo Y Lucio,Queens,Elmhurst,40.73018,-73.87172,United States,US,True,strict,Private room,2004,$959 ,$192 ,1,20,7/5/2019,6.32,4,4,156,Please be mindful after 23:00 in the kitchen or bathroom.,
24888311,Chic Blush Freesia,72865084982,unconfirmed,Jackie,Manhattan,Lower East Side,40.71629,-73.98862,United States,US,False,flexible,Private room,2013,$519 ,$104 ,4,15,7/5/2019,4.74,4,2,191,,
24888863,Feel free and at home In  my cozy apartment.,83325135976,unconfirmed,W. Jesse,Bronx,Kingsbridge,40.86313,-73.90183,United States,US,True,moderate,Shared room,2016,$215 ,$43 ,1,3,4/6/2019,0.94,2,1,0,,
24889416,Chic Blush Shine,41065852778,unconfirmed,Jackie,Manhattan,Chinatown,40.71515,-73.99099,United States,US,False,moderate,Private room,2021,$824 ,$165 ,4,16,7/6/2019,5.0,4,2,166,1) We live in a quiet neighborhood so no loud noise after 10:00 pm.  2) No outside guests after 10:00 pm. 3) No overnight guests not listed on the reservation.,
24889968,★ Private Room in great location near Times Square,96354402028,verified,Rubens,Manhattan,Hell's Kitchen,40.7637,-73.99037,United States,US,False,flexible,Private room,2014,$557 ,$111 ,1,12,7/7/2019,5.9,4,1,278,,
24890520,Home away from home!! (4A),5768610902,verified,Northern Star Realty,Queens,Flushing,40.766709999999996,-73.81935,United States,US,False,strict,Entire home/apt,2015,$904 ,$181 ,1,8,7/1/2019,2.82,3,4,150,No smoking please. Sorry but no pets. No drinking to excess. No drugs. No children or guests under 21. ,
24891073,Spacious one bedroom Suit! (2T),83394548401,verified,Northern Star Realty,Queens,Flushing,40.7651,-73.81749,United States,US,False,moderate,Entire home/apt,2009,$690 ,$138 ,1,5,6/3/2019,2.08,3,4,156,"All outside doors including door to the backyard are to remain closed and locked at all times.   No smoking in any area including backyard and front porch. Quiet hours are from 10 pm to 8 am. 11:30 on weekend.  No parties or guests allowed in the property other than people who book the room.  No cooking. Cold foods, salads, sandwiches, microwaveable food only.  Clean after yourself.  Lost keys replacement $100 (to replace lock)",
24891625,Sun Lit Room in Ridgewood/Bushwick 25 mins to NYC,20231838714,unconfirmed,John,Queens,Ridgewood,40.70811,-73.91054,United States,US,False,moderate,Private room,2018,$166 ,$33 ,3,3,6/1/2019,1.15,4,2,264,"Check-in and check-out times are flexible. In general, afternoon/evening check-ins and morning/early afternoon check-outs are preferred. Guests are expected to be respectful and independent.  Guests are welcome to use the kitchen, and are asked to clean up after themselves.",
24892177,Modern Suite in Bed-Stuy,82336722636,unconfirmed,Bianca,Brooklyn,Bedford-Stuyvesant,40.67837,-73.91871,United States,US,False,strict,Entire home/apt,2019,$543 ,$109 ,2,5,6/30/2019,1.53,4,1,0,,
24892729,Cozy 2 bedroom Manhattan apartment,97377681119,verified,Toli,Manhattan,Upper East Side,40.782340000000005,-73.9476,United States,US,False,moderate,Entire home/apt,2006,"$1,159 ",$232 ,2,20,6/28/2019,6.52,3,1,133,"No smoking inside. Be tidy, we don't have a maid so treat our house like you'd want us to treat yours, simple really. Don't throw a ""rager"". Be respectful.",
24893282,Cozy 3BR/2BA in LES - Close to Subway - Sleeps 9,86555055479,verified,Anne & Gary,Manhattan,Lower East Side,40.71917,-73.98343,United States,US,False,strict,Entire home/apt,2020,$215 ,$43 ,1,12,6/23/2019,4.5,4,1,253,,
24893834,LAVISH 3 Bedroom in Williamsburg!!,31190724118,unconfirmed,Inez,Brooklyn,Bedford-Stuyvesant,40.69421,-73.93834,United States,US,False,moderate,Entire home/apt,2016,$812 ,$162 ,2,3,7/7/2019,1.5,2,1,117,THIS IS A NON-SMOKING RESIDENCE. NO Children under the age of 16  Smoking is permitted on the outside front porch deck only. Quiet hours are from 11:00 p.m. - 7:00 a.m. No pets allowed. Be respectful of your neighbors.,
24894386,Sunny Astoria One-Bedroom With Stunning NYC Views,74496455787,verified,Bharat,Queens,Astoria,40.76625,-73.91946,United States,US,False,strict,Entire home/apt,2020,$349 ,$70 ,2,1,4/22/2019,0.38,4,1,7,"Shoes are removed at the door to keep the house clean; slippers will be provided.  Guests should be polite, courteous and respectful. Guests seeking to book 5 days or more must have a completed profile, at least three verifications and at least two reviews and/or references.  Exceptions to this policy may be granted individually as warranted.  Please write to inquire. There is no smoking allowed on the property. This is an environmentally friendly home and guests are encouraged to be sensitive to their use of natural resources.  For example, twenty-minute long showers are discouraged.",
24894939,"Large, Bright, Full Home in Greenpoint w/ Backyard",55638960907,unconfirmed,Shelley,Brooklyn,Greenpoint,40.73279,-73.954,United States,US,False,flexible,Entire home/apt,2011,$724 ,$145 ,2,1,4/28/2019,0.42,2,1,7,"Thanks for not smoking and leaving your pets at home! Thanks for keeping the house locked. Thanks for not throwing parties. And... all of the usual stuff that is just good common sense like using coasters and place mats and returning the apartment to the way it looked when you arrived. There is no parking in the driveway. At the end of your stay, please strip the beds and put the sheets in the pantry or on the bathroom floor. Towels can be put with the sheets. Trash and recycling pick up is on Tuesdays. If you are staying through a Tuesday, please put your garbage and recycling outside in the appropriate barrels Monday night or by 7:00 am on Tuesdays. THANKS!",
24895491,Modern & Cozy Room with PRIVATE balcony!,75510112736,verified,Tiara,Brooklyn,Flatbush,40.6307,-73.95815,United States,US,True,strict,Private room,2012,$191 ,$38 ,2,0,,,5,1,90,We hope you’ll enjoy our Boston home and that you will care for it as we do. We do not allow pets or smoking in the house.,
24896043,Entire apartment in the heart of Williamsburg,46837656398,verified,Edgar,Brooklyn,Williamsburg,40.71285,-73.96535,United States,US,False,flexible,Entire home/apt,2014,"$1,043 ",$209 ,30,0,,,5,2,188,"Please do not rent this house if you plan to party. This is a quiet house in a quiet neighborhood. Other than that, we are pretty laid back.",
24896596,Sanctuary in the Heart of Williamsburg!,20239049116,unconfirmed,Timothy,Brooklyn,Williamsburg,40.72037,-73.95857,United States,US,False,flexible,Entire home/apt,2004,$942 ,$188 ,3,0,,,3,1,99,"Non Smoking, No illicit Drug Usage. Keep loud music to a minimum. Soiled shoes please keel outside. Thank you.",
24897148,Musical loft sanctuary with private roof deck,98520397301,verified,Charles,Brooklyn,Greenpoint,40.732929999999996,-73.95889,United States,US,True,flexible,Entire home/apt,2011,$804 ,$161 ,5,0,,,3,1,174,- Quiet hours from 10 p.m - 7 a.m. - No loud parties or events - No illegal substance or activity,
24897700,Luxury Chelsea Loft with Private Elevator,62507772614,verified,Yullya,Manhattan,Chelsea,40.745670000000004,-73.99254,United States,US,True,flexible,Entire home/apt,2020,"$1,134 ",$227 ,2,6,6/5/2019,2.02,3,1,270,"You will be sharing a bathroom, so you must be considerate of time spent in the bathroom in the morning when getting ready. If you use the kitchen, please put the dirty cups, bowls, plates, and silverware in the dirty dishes tub, and hand wash all of the pots, pans, and cooking tools you use. Please clean up any mess you may have made. Remember to turn on the fan when using the stove or oven so the fire alarm does not go off from the steam! Please only smoke outside, away from the apartment building, and dispose of your cigarettes responsibly. Checkout: Checkout is at 11:00 am, please inquire if you would like to check out later or leave your bags with us for the day. If we are not awake/home when you leave, please leave the passes on the desk in your room, lock the front door behind you, and put your keys in the lock box behind the front stair case.",
24898252,Sun soaked private room with all the amenities!,48369409983,verified,Jarrod,Brooklyn,Crown Heights,40.67692,-73.92241,United States,US,True,strict,Private room,2020,$605 ,$121 ,1,26,7/7/2019,7.88,4,1,330,"Please only smoke across the street, (smoke travels) there's a lovely green space and a bus shelter if raining Please, no bikes on the fence in front of the house. There's plenty of places to park the bikes. I have a wonderful dog, he's submissive with people, unfortunately aggressive with other dogs. I'm unable to welcome other dogs in the space.",
24898805,Beautiful Fifth Avenue Studio with Garden,66152498618,unconfirmed,Angeline,Manhattan,Upper East Side,40.78513,-73.95588000000001,United States,US,True,moderate,Entire home/apt,2009,$951 ,$190 ,5,1,4/27/2019,0.41,4,1,77,"No candles. Close and lock windows when you leave the house. Please clean up after yourself in the bathroom and the kitchen. And have fun! If you want to have an event or party, we are open to that, but we should check in about that before you make plans.",
24899357,Heaven,26494611681,unconfirmed,Lùis,Brooklyn,Bushwick,40.7023,-73.91911,United States,US,False,flexible,Private room,2016,$131 ,$26 ,1,8,6/25/2019,2.73,5,1,56,You have a private room but sounds should be moderate for me and the neighbors  Quiet at 11pm   No Pets  No Parties  No Smoking,
24899909,2 BRM Heart of Time Square,29330882712,unconfirmed,Alex,Manhattan,Hell's Kitchen,40.76273,-73.99061,United States,US,True,flexible,Entire home/apt,2019,$121 ,$24 ,1,14,7/6/2019,4.52,4,1,306,"Maximum of 2 guests staying in the studio.  No smoking anywhere in or outside the property.  No pets anywhere in or outside the property.  No parties anywhere in or outside the property.  No parking on our property or in the driveways.  No frying food.  No extreme temperature settings.   Any broken house rules, including evidence of cigarette butts, ashes, odors, stained linens, damaged furniture, or missing items will result in loss of deposit. All doors must be locked, and all lights should be turned off each time you leave. We kindly ask that you respect our property and our neighbors in this wonderful community.",
24900462,1 Bedroom open floor garden apartment,22255672502,unconfirmed,Juan,Brooklyn,Bedford-Stuyvesant,40.68592,-73.92695,United States,US,False,moderate,Entire home/apt,2003,$511 ,$102 ,31,1,5/11/2019,0.51,5,2,155,"1.Check-ins Monday – Friday will preferably only happen between 6pm – 10:30pm because we work full-time. However, exceptions can be made. If you really need to check in at another time we are flexible and can try to coordinate accordingly.   2.We are only renting the bottom floor where the private room and bathroom is. The rest of the house is off limits for short stays. If you are staying for more than 1 week and would like to have access to cooking and other areas of the house please let us know. We are pretty easy going.  3.No smoking, No animals, No house parties.  4.The maximum number of guests allowed in this room is two. (Both have to be registered on the original reservation). Surprise additional guests are not allowed.  5.We are trustworthy, clean and respectful and expect our guests to be the same.  6.This is a calm, quiet neighborhood, so we ask that guests please adjust their volumes accordingly.  7.I ask that guests leave rooms the same way they found them, making sure to ",
24901014,"seconds from subway, 30 min drive to city,solo tra",21595673034,verified,Danny,Brooklyn,Bensonhurst,40.61225,-73.9815,United States,US,True,moderate,Private room,2020,$834 ,$167 ,7,12,6/11/2019,4.5,4,2,58,"We live on the 3rd floor of a 3-family house, so please minimize noise for our neighbors, especially at night and when entering or exiting.  Our bedroom and office are not for guest use.",
24901566,A Nice Room,13244951549,verified,Syeda,Queens,Jamaica,40.70585,-73.80866999999999,United States,US,False,strict,Private room,2020,$551 ,$110 ,1,13,6/23/2019,4.53,4,9,358,"Please clean after yourself, wipe spilled water after using the bathroom, do not smoke in the apartment and treat the place as you would treat your home! Please let us know about pets or service animals in advance.",
24902119,"HUGE, SUNNY room in Financial District",9742013358,unconfirmed,Pat,Manhattan,Financial District,40.70598,-74.00804000000001,United States,US,True,moderate,Private room,2014,$59 ,$12 ,4,2,4/15/2019,0.62,5,1,90,No smoking  Not pets  No parties or events No candles,
24902671,"CATALINA’S ROOM
 Close to JFK and LGA airport",63695416589,verified,Marcelo Y Lucio,Queens,Elmhurst,40.73101,-73.87139,United States,US,False,strict,Private room,2009,$599 ,$120 ,1,12,6/27/2019,3.96,5,4,180,"You will be sharing a bathroom, so you must be considerate of time spent in the bathroom in the morning when getting ready. If you use the kitchen, please put the dirty cups, bowls, plates, and silverware in the dirty dishes tub, and hand wash all of the pots, pans, and cooking tools you use. Please clean up any mess you may have made. Remember to turn on the fan when using the stove or oven so the fire alarm does not go off from the steam! Please only smoke outside, away from the apartment building, and dispose of your cigarettes responsibly. Checkout: Checkout is at 11:00 am, please inquire if you would like to check out later or leave your bags with us for the day. If we are not awake/home when you leave, please leave the passes on the desk in your room, lock the front door behind you, and put your keys in the lock box behind the front stair case.",
24903223,Spacious private room for rent.,78119126450,verified,William,Manhattan,Washington Heights,40.84316,-73.94062,United States,US,True,flexible,Private room,2015,$754 ,$151 ,2,11,7/1/2019,4.29,2,1,55,"We do not allow any pets on the property to protect our guests and family from allergies.  Please do not park in our driveway. You may find on-street parking available on Spring Park Ave or Rockview St. There is no smoking on the property. Please feel free to take a walk around our lovely neighborhood if you need a smoke. Otherwise we have no real ""rules"" except common courtesy please. We always want our guests to feel as much at home as possible, so feel free to do so. Should you need something or have a question, just ask! We are always happy to help. Most of all, enjoy your visit here in our studio!",
24903775,Great Room with WC,18853061462,unconfirmed,German,Brooklyn,Williamsburg,40.71492,-73.94397,United States,US,False,flexible,Private room,2007,$441 ,$88 ,3,1,6/2/2019,0.81,5,1,0,"No smoking in the house and no late noises, please!   ",
24904328,"Artist Loft: Clean, Cozy, Sun Filled, Plant Oasis",88557843693,verified,Jessi,Brooklyn,Bedford-Stuyvesant,40.69446,-73.9543,United States,US,False,moderate,Entire home/apt,2020,$235 ,$47 ,1,4,7/2/2019,1.85,5,1,10,#NAME?,
24904880,Private room in loft (check out my pictures)!!!!,69345344498,unconfirmed,Marilyn,Brooklyn,Bushwick,40.70044,-73.92503,United States,US,False,strict,Private room,2022,$921 ,$184 ,2,5,5/27/2019,1.76,5,1,15,No smoking or open flames permitted on the property. No drugs.  No pets. Notify host of extra people ($10 charge per night per extra person).,
24905432,Our sanctuary,39914109043,unconfirmed,Somaya,Manhattan,Harlem,40.82457,-73.94008000000001,United States,US,False,moderate,Entire home/apt,2021,$509 ,$102 ,7,1,4/26/2019,0.41,3,4,33,Please treat our house as we'd treat yours: with care and respect.,
24905985,,79667102348,unconfirmed,Sedef,Brooklyn,Williamsburg,40.70796,-73.94826,United States,US,False,flexible,Private room,2018,$170 ,$34 ,3,0,,,2,2,78,"Please be respectful to other members of this home., no parties or loud music is permitted. You can use a porch on the back of the house. No smoking or candles is allowed inside or outside the house,  Please strip the bed and put linen and towels into laundry basket.",
24906537,Charming 1BD Astoria Penthouse,92487847150,unconfirmed,Regina,Queens,Astoria,40.75909,-73.92005,United States,US,True,moderate,Entire home/apt,2013,$87 ,$17 ,2,1,4/3/2019,0.31,5,1,292,- Noise to be kept to minimum level as to not to disturb others in the apartment or building between 11pm and 6:30am. - No cooking or storage of meat in the apartment (we are vegetarians) - No candles permitted  - Use the compost for non-animal organic waste and recycle all recyclables,
24907089,Sunny 4 bedrooms in Manhattan,8713644076,unconfirmed,Artem,Manhattan,East Harlem,40.794909999999994,-73.94162,United States,US,False,moderate,Entire home/apt,2004,$824 ,$165 ,3,7,6/14/2019,2.33,5,1,307,,
24907642,"Homey and spacious 1BR Apt, near Prospect Park",22088783537,verified,Chuck,Brooklyn,Flatbush,40.6491,-73.96321999999999,United States,US,True,strict,Entire home/apt,2016,"$1,106 ",$221 ,3,2,7/7/2019,2.0,3,1,108,"We want our guests to be comfortable and enjoy not just our house but our city.  To those ends we welcome inquiries about what to do and where to go.  Our guests should feel free to use the kitchen and living room and not feel confined to ""their room"". Store your food in the fridge, eat your meal on the terrace, read a book on the couch or hammock.  We request only your general consideration of living with others.  Our one hard and fast rule is: No smoking on the property. ",
24908194,Astoria Center Location,96189927732,verified,Rafael,Queens,Astoria,40.765229999999995,-73.9118,United States,US,True,flexible,Private room,2022,$411 ,$82 ,1,8,6/4/2019,3.04,3,4,192,,
24908746,Designer's spacious 4bedrooms Manhattan apt,20730593746,unconfirmed,Javanshir,Manhattan,Washington Heights,40.851290000000006,-73.92954,United States,US,False,strict,Entire home/apt,2017,$440 ,$88 ,3,12,6/24/2019,3.91,4,1,313,"Be respectable, try to keep the place clean (no wearing shoes in the house!), and no wild parties, please! No smoking, please. I only ask that you treat my home as you would treat your own! When leaving the apartment, please always lock both locks on the door. Please shut off all the lights, air conditioner, TV, etc. before you leave. Please take your shoes off inside the apartment.",
24909298,,7017362015,unconfirmed,Acadia,Brooklyn,Flatbush,40.633759999999995,-73.95148,United States,US,False,strict,Private room,2017,$994 ,$199 ,3,0,,,4,1,0,,
24909851,Center of the Universe Stay,74967534673,verified,Jane,Manhattan,East Village,40.73361,-73.98995,United States,US,True,strict,Private room,2022,$298 ,$60 ,1,0,,,5,2,177,,
24910403,A GREY DOOR - BED-STUY.,42018136570,unconfirmed,Eunice,Brooklyn,Bedford-Stuyvesant,40.68395,-73.92998,United States,US,True,strict,Entire home/apt,2019,$344 ,$69 ,5,8,6/27/2019,2.55,4,2,101,"Since it's a vegetarian house, please don't bring meat or fish into the house! Smoking outside please.",
24910955,Private Studio Space in Windsor Terrace Brooklyn,44247755896,verified,Sheila,Brooklyn,Windsor Terrace,40.65596,-73.97951,United States,US,True,flexible,Entire home/apt,2004,$741 ,$148 ,1,5,6/20/2019,2.21,3,3,232,- No shoes in apartment - No parties - Enjoy yourself!,
24911508,"Location Location Location! Basic, Clean & Cheap!",98411168774,unconfirmed,Khero,Manhattan,Kips Bay,40.74385,-73.97669,United States,US,True,moderate,Entire home/apt,2009,$416 ,$83 ,4,25,7/5/2019,8.24,4,1,4,,
24912060,Charming Soho large 1 bedroom apartment style loft,17109340875,verified,Kyle,Manhattan,SoHo,40.72745,-74.0025,United States,US,False,moderate,Entire home/apt,2017,$754 ,$151 ,5,3,6/17/2019,0.98,2,1,365,"No smoking, no pets.",
24912612,Big room with king bed,30398073307,unconfirmed,Jewel,Brooklyn,Bay Ridge,40.632090000000005,-74.018,United States,US,True,strict,Private room,2008,$418 ,$84 ,1,1,4/8/2019,0.32,3,1,95,Our home is well cared for and loved. We would love to invite people who respect personal spaces and enjoy an exotic looking home. Please note that our home is a non-smoking home.,
24913165,Contemporary Brooklyn Lifestyle Apt /JFK Airport,48759527157,verified,Joyce,Brooklyn,East New York,40.66115,-73.89352,United States,US,True,moderate,Entire home/apt,2015,$610 ,$122 ,2,5,6/23/2019,2.83,2,4,347,"No drugs, no smoking, no pets (our dog is enough pet for us). Make sure the front door is shut securely when you come and go, as our dog Lucy likes to sneak out and explore when we're not looking! No additional guests or visitors without prior permission. If you'd like to have guests over please ask us first.",
24913717,Amazing Cortelyou road,80819503761,unconfirmed,Moncef,Brooklyn,Flatbush,40.638659999999994,-73.96735,United States,US,False,flexible,Entire home/apt,2013,"$1,047 ",$209 ,30,1,6/22/2019,1.0,2,1,279,#NAME?,
24914269,Alojamiento Betsaida.,15170168052,unconfirmed,Delsy,Bronx,Fordham,40.86255,-73.90059000000001,United States,US,True,flexible,Private room,2015,"$1,034 ",$207 ,1,2,6/30/2019,1.82,5,1,332,"No smoking, No animals—we already have enough! No house parties. The maximum number of guests allowed in this room is one. Additional guests are not allowed unless they're just stopping in for a brief visit—still, please do clear it with me first.  I am trustworthy, clean and respectful and I expect my guests to be the same.  This is a calm, quiet neighborhood, so we ask that guests please adjust their decibels accordingly.  I ask that guests leave rooms the same way  they found them, making sure to clean up after cooking, to take hair out of the drains, and to put trash in trashcans.  Please  make yourself at home and feel free to use all my kitchen stuff.  No pets allowed. No smoking. No storage permitted outside of rented room, outside of basket and pockets on shower curtain for toiletries in bathroom that I'll  point out to you.  Guests will please keep perishables in a college-size refrigerator dedicated to their use in the kitchen.",
24914821,Cozy studio for the best rest,94871815490,verified,Anastasia,Manhattan,Harlem,40.82011,-73.9404,United States,US,True,strict,Entire home/apt,2019,$197 ,$39 ,1,0,,,4,1,180,"We expect guests to be clean, neat and respectful. Communication is very important. No smoking indoors and no pets.",
24915374,Stylish NYC Apartment Right Next to Subway,58369769053,verified,Andrew,Manhattan,Washington Heights,40.8312,-73.9399,United States,US,False,moderate,Private room,2015,"$1,033 ",$207 ,7,2,6/16/2019,0.77,4,1,90,"Greetings! Check-in: 5pm onwards - please contact me to schedule a time Check-out: 11am If you need an earlier or later check in time, please let me know, and I will do my best to accommodate if I can. Please contact me through the Airbnb prior to booking. Please do not hesitate to call or text or both if you need assistance during your stay. I only accept reservations from Airbnb members that have:  -A profile photo showing their face :-) -ID verification No smoking in the house or on the property, please. You may use coffee maker & electric kettle for tea/coffee and you are welcome to store things in the fridge. No guests allowed in the house but those who have a reservation. If you need to reach me for any reason before or during your stay, please do not hesitate to text me or call any time. We look forward to meeting you!",
24915926,Sunny big room in East Williamsburg,89381259100,unconfirmed,Olga,Brooklyn,Williamsburg,40.71379,-73.94104,United States,US,True,flexible,Private room,2022,$341 ,$68 ,27,1,5/4/2019,0.45,4,1,323,Please do not smoke in the house. If you smoke outside please be curteous and dispose of your cigarette butts. We have small children and would rather not have them picking those up outside. Please also keep the noise level down and be respectful of our neighbors.,
24916478,"DEMETRIO’S ROOM
Close to JFK and LGA Airport",83303235972,verified,Marcelo Y Lucio,Queens,Elmhurst,40.72997,-73.87183,United States,US,False,flexible,Private room,2008,$986 ,$197 ,1,20,6/25/2019,6.38,4,4,365,"Please no smoking inside.  During the warmer months, please bring your conversations inside after 10 pm on weekdays and 11 pm on weekends. No gatherings/parties with more than 6 outside guests without my expressed consent are not allowed.  Guests who ignore this rule will lose their security deposit.  I'm sorry about this but the neighbors have complained about the noise!  Treat the house as your own so leave it in the same condition as you found it.  Thanks!",
24917031,Sunny And Spacious Apartment In Chelsea,81906486255,unconfirmed,Minnie,Manhattan,Chelsea,40.74038,-74.00139,United States,US,False,moderate,Entire home/apt,2015,"$1,114 ",$223 ,3,2,6/1/2019,1.09,4,1,39,"Check-In is 3pm.  Check-Out is 12 Noon.  In order to keep the apartment clean and tidy, we ask all guests to adhere to these Check-In and Check-Out times. No parties. No pets. No smoking.   Yes, enjoying yourself.",
24917583,RV camper for the outdoor lovers,84902012759,verified,New Roc,Bronx,Allerton,40.872679999999995,-73.85424,United States,US,True,moderate,Entire home/apt,2012,$69 ,$14 ,2,0,,,4,1,180,,
24918135,Master bedroom in Luxury High Rise,86715611507,verified,James,Manhattan,Financial District,40.70824,-74.01403,United States,US,False,strict,Private room,2018,"$1,115 ",$223 ,4,1,5/25/2019,0.67,4,1,0,,
24918688,"Still NYC...  Grymes Hill, Staten Island",45706722058,unconfirmed,Julie Ann,Staten Island,Grymes Hill,40.6105,-74.09132,United States,US,False,strict,Entire home/apt,2007,$668 ,$134 ,1,1,6/30/2019,1.0,3,1,339,"Apartment has stairs, so its most appropriate for children 6 years or older. Smoking is allowed outside on the porch but not inside apartment. Cats are allowed, but not dogs as pets (noise consideration).",
24919240,HOSTEL MY REFUGE PAISA(Camarote#2abajo),79669006394,unconfirmed,Albeiro Y Katalina,Queens,East Elmhurst,40.76255,-73.88019,United States,US,False,moderate,Shared room,2009,$255 ,$51 ,1,0,,,2,4,153,"This is our home, not a hotel so we expect guests to leave it as clean as they found it.  No smoking in the house. No pets are allowed.",
24919792,"Rad Chelsea 2BR w/ Sundeck, Doorman + Rooftop views by Blueground",14720255422,unconfirmed,Blueground,Manhattan,Flatiron District,40.74394,-73.99094000000001,United States,US,False,strict,Entire home/apt,2009,$744 ,$149 ,30,0,,,3,232,278,,
24920344,"Gorgeous Gramercy Park 2BR w/ Large private terrace, Gym + Doorman",17151130054,verified,Blueground,Manhattan,Gramercy,40.73823,-73.98343,United States,US,True,flexible,Entire home/apt,2016,$377 ,$75 ,30,0,,,5,232,331,"No smoking  Not suitable for pets  No parties or events  Check-in time is after 2pm Quiet hours: 10pm-8am - Please refrain from loud noise after 10pm as this is a family neighborhood. Music and voices . - No parties. Although we want your group to have tons of fun, additional unnamed guests at a party will result in a 100% loss of deposit. AGREEMENT This Lease Agreement (the “Agreement"") is made by and between Airbnb host (“Homeowner"") and (“Guest"") as of the date last set forth on the agreement made via the (website hidden). For good and valuable consideration, the sufficiency of which is acknowledged, the parties hereby agree as follows: 1. Property. The property address will be disclosed at time of booking. 2. Rental Party. The rental party shall consist of Adults and Children (under age 18). The maximum number of guests is limited to 2 persons. Additional guests staying the night beyond the agreed upon number is not allowed. Any guests found staying at the house over the agreed num",
24920897,PRIME WEST VILLAGE STUDIO APARTMENT,31553064214,unconfirmed,Sacha,Manhattan,West Village,40.73532,-73.99874,United States,US,False,moderate,Entire home/apt,2015,$881 ,$176 ,2,0,,,5,1,2,"• Check-in time is 3PM. This is my home and my sanctuary and I'm happy to share it with gentle people who are respectful of themselves and others. House goes quiet at 10 PM, and is smoke and drug-free always. Social drinking, especially with your meals, is A-OK. If you're a musician, you're welcome to use my gear, and we can even lay down a jam! Please note: We have clicked ""Hot Tub"" as an amenity because what we have, a jacuzzi-stye therapeutic bath, comes very close. Typically, Hot Tubs are big, hold 6-8 people and are out on the deck somewhere. What we have is a tub that makes serious bubbles with both water and air jets, and comes with a built-in customized 4-head shower. This tub also happens to be extra deep, extra wide, and extra long. You will love it!",
24921449,Cozy bedroom with patio in  townhouse in Brooklyn,52654189332,verified,Leandro And Julia,Brooklyn,Bedford-Stuyvesant,40.68775,-73.9277,United States,US,False,strict,Private room,2012,$488 ,$98 ,4,1,6/16/2019,1.0,5,3,23,,
24922001,Comfortable and spacious bedroom in Brooklyn,55012866679,unconfirmed,Leandro And Julia,Brooklyn,Bedford-Stuyvesant,40.688990000000004,-73.9289,United States,US,True,moderate,Private room,2019,$446 ,$89 ,3,8,7/4/2019,3.81,3,3,9,This is a non smoking house.  Quiet hours are from 10pm until 8am.  Cars must be parked within fence so as not to block neighbors driveway.  One parking spot only per room. Please don't use the kitchen for cooking as cleanliness becomes difficult to maintain with the velocity of guests that we host.   Please place dirty dishes in the dishwasher unless it’s full of clean dishes!,
24922554,HOSTEL MY REFUGE PAISA  (Camarote#1 arriba),30603834528,unconfirmed,Albeiro Y Katalina,Queens,East Elmhurst,40.76275,-73.88198,United States,US,False,moderate,Shared room,2014,$963 ,$193 ,1,1,4/9/2019,0.33,2,4,91,,
24923106,shared apt only for female  near Times Square,54846475570,unconfirmed,Demir,Manhattan,Hell's Kitchen,40.76461,-73.98745,United States,US,False,strict,Shared room,2019,$587 ,$117 ,1,0,,,3,3,365,"Please remember that this house is located in the middle floor of a triple decker. We all have our fair share of get together/small parties but we expect that you will be respectful of the space and of our neighbors. If you are visiting friends in Boston and want to invite a few people over, that is fine, however please do not throw any big parties. Also, please do not smoke inside the house. ",
24923658,Hotel Room at Midtown 45 at New York City,15256307556,verified,Allan,Manhattan,Midtown,40.75325,-73.97176,United States,US,True,moderate,Private room,2021,"$1,083 ",$217 ,5,0,,,5,1,0,"We take great care of our home and want our guests to feel welcome. We only ask that our guests respect our home and neighbors, and keep these rules in mind: - Please advise us at booking how many people are in your group so we can adequately prepare.  No smoking is allowed inside.  Pets are not allowed, unless you have gotten us to agree to an ""exception."" Shoes off inside please. Please do not wander into neighbors' yard.",
24924211,Great Apartment super close to the train.,24621010177,unconfirmed,Bernard,Brooklyn,Cypress Hills,40.67875,-73.90704000000001,United States,US,False,moderate,Entire home/apt,2003,$694 ,$139 ,2,2,6/18/2019,2.0,2,1,162,"This is our home and therefore we ask that you respect our things and realize this is a not a rental home or hotel where anything goes.  No shoes inside, no parties, respect our neighbors, etc...  Basically, we ask that you treat our home the way you would like us to treat yours were we to stay over!  Also, we are a smoke-free household.  If you do need to smoke, do so outside and dispose of butts properly.  And please, no shoes since with a small children who pick things up of the floor, we need to minimize outside dirt being tracked in.",
24924763,Spacious and sunny one bedroom,64418960058,unconfirmed,Pete,Queens,Long Island City,40.75912,-73.92903000000001,United States,US,True,flexible,Entire home/apt,2021,$779 ,$156 ,3,2,6/9/2019,1.43,2,2,0,,
24925315,Sonder | Stock Exchange | Calming 3BR + Laundry,62641143517,verified,Sonder (NYC),Manhattan,Financial District,40.7075,-74.01179,United States,US,False,strict,Entire home/apt,2010,$176 ,$35 ,2,8,6/22/2019,3.58,3,327,263,"Smoking isn't allowed in the apartment, though you can do it on our back deck. Because this is our primary residence, we would love it if you would treat it as your own!",
24925867,Art Deco Charm in the heart of The Village!,16791888942,verified,Walker Hotel Greenwich Village,Manhattan,Greenwich Village,40.73571,-73.99694000000001,United States,US,True,strict,Private room,2012,$105 ,$21 ,1,0,,,5,2,353,Tenant Agreement: House Rules: The landlord reserves the right to inspect the unit to enforce the terms of this agreement at any time. No smoking. No pets. No parties. Reduced noise after 11pm. No sublet. No more than eight people to reside on premises unless given written approval.  No refunds to be given for shortened stays.  No refunds to be given for any cable or internet WI-FI outages.  You are responsible for safe keeping of your own valuables. The landlord is not responsible for lost items.,
24926420,Art Deco Charm in the heart of The Village!,30838871007,unconfirmed,Walker Hotel Greenwich Village,Manhattan,Greenwich Village,40.73679,-73.99592,United States,US,True,flexible,Private room,2020,"$1,099 ",$220 ,1,4,6/23/2019,1.52,4,2,359,,
24926972,"Spacious, Clean and Modern 2 Bedroom Suite",34127885130,verified,Michaelle,Brooklyn,Prospect-Lefferts Gardens,40.66002,-73.94363,United States,US,False,moderate,Entire home/apt,2015,$766 ,$153 ,2,8,7/5/2019,7.27,5,1,30,,
24927524,"clean  room  with private bath, 10 Mins to city",2483810368,verified,Wendy,Brooklyn,Bushwick,40.70092,-73.93732,United States,US,False,moderate,Private room,2021,$675 ,$135 ,1,26,7/4/2019,9.07,2,1,9,"Since I live in the apartment, I expect guests to respect the space and be quiet when coming in late.   No entertaining or overnight guests, please.",
24928077,Cozy Guest Quarters in East Village Penthouse!,46742760071,verified,Haffro,Manhattan,East Village,40.7234,-73.98267,United States,US,True,flexible,Private room,2018,"$1,129 ",$226 ,2,15,6/21/2019,4.84,5,4,284,,
24928629,Lovely apartment 2 bedrooms 2 bathrooms in UWS,39475672413,verified,Thibault,Manhattan,Upper West Side,40.793209999999995,-73.96823,United States,US,True,strict,Private room,2005,$585 ,$117 ,3,1,4/21/2019,0.38,4,1,24,Treat our property with respect:  There is no smoking in the loft. Clean up after yourself & turn lights and heating off whenever leaving the space. No Noise after 10 pm.  Guest are not allowed to have other guests come over.,
24929181,Comfy’s Bedroom Close Subway,46041569027,unconfirmed,Mei,Brooklyn,Bath Beach,40.60615,-74.00315,United States,US,False,strict,Private room,2020,$836 ,$167 ,2,3,4/26/2019,1.05,3,2,347,Please treat my home with the same love and care you would give your own home.,
24929734,New 2 Bed 1 Bath in the UES #6131,59617595720,unconfirmed,Yaacov,Manhattan,Upper East Side,40.7786,-73.95208000000001,United States,US,False,moderate,Entire home/apt,2007,"$1,109 ",$222 ,30,1,6/11/2019,1.0,3,33,311,I'm a semi kosher vegetarian which means that I don't bring any pork or shelled fish into the house.  Chicken/Red meat is fine. There is no smoking in or around the condo.,
24930286,Lower East Side Studio,65821755638,unconfirmed,Omar,Manhattan,Lower East Side,40.720279999999995,-73.98794000000001,United States,US,False,moderate,Entire home/apt,2022,$429 ,$86 ,30,1,5/31/2019,0.77,2,1,96,,
24930838,Nolita Gem,7730958133,unconfirmed,Jia,Manhattan,Nolita,40.72175,-73.99544,United States,US,True,strict,Entire home/apt,2007,$925 ,$185 ,5,3,6/29/2019,2.5,5,1,7,,
24931390,Amazing New 1 Bedroom in the UES #6132,11690677878,unconfirmed,Yaacov,Manhattan,Upper East Side,40.77721,-73.95222,United States,US,True,moderate,Entire home/apt,2006,"$1,129 ",$226 ,30,0,,,2,33,189,"We have put a lot of time and effort into giving you a well furnished home with anything you could need, with this in mind, please respect our space by using the apartment for intending living purposes only and abide to the following:  -Leave the home as you found it -Limit noise at all times; quiet hours begin at 9pm -No additional guests except by prior arrangement with hosts.  -No filming  -Smoking of any kind in the apartment and within 50 feet of the outside is not allowed.  -lighting candles is strictly prohibited -The backyard is for the owners' and their family who live upstairs. They respectfully ask that you do not use the outside space  -No pets",
24931943,Cozy Corner,28229437680,verified,Candace,Brooklyn,East Flatbush,40.65477,-73.92206999999999,United States,US,True,moderate,Private room,2007,"$1,153 ",$231 ,1,10,7/2/2019,3.19,2,4,365,"-Remove shoes -be sure to lock the front door when entering or leaving the house -be reasonably quiet during sleeping hours - clean up after yourself in common areas like kitchen and bathroom -Good communication is key - No pets  -No smoking -There may be other guests staying and you will be sharing the bathroom with the host and one other guest. is a friendly house hold, reasonably quiet. We expect guests to be reasonably quiet coming in and out before (9AM and after 10PM. Kindly remove your shoes as well.  For safety reasons please do not invite other people to our place.  For summer months, there will be an AC unit provided. PLEASE keep doors and windows closed whenever you are using the AC. Otherwise please shut the AC off, if you want to open the windows and doors. This is for your comfort, as the AC unit will only cool the room if the doors and windows are shut.  Ask if you need anything, I will be providing you with towels, shampoo, conditioner, body wash, lotion, hair dryer. Se",
24932495,"Gorgeous, Large Brownstone with Backyard & Parking",90943435873,verified,Shannan,Brooklyn,Crown Heights,40.66806,-73.95295,United States,US,False,flexible,Entire home/apt,2003,"$1,125 ",$225 ,2,7,6/23/2019,2.63,5,1,82,"The usual ""social code"": There are three of us altogether in the flat, so use of the bathroom should be considerate of others' needs as well.   Quiet is appreciated after 10:00 PM.  You are more than welcome to use the kitchen for preparing food; I would ask only that you leave it in the condition you would wish to find it.  Smoking allowed on deck. *Good communication is essential to ensure everyone is contented.",
24933047,"Large room in sunny Williamsburg apt, HUGE BALCONY",16527378612,verified,Guy,Brooklyn,Williamsburg,40.70845,-73.94266,United States,US,True,flexible,Private room,2021,$592 ,$118 ,2,6,5/5/2019,1.89,3,2,5,"Not really a 'rules based' household, or perhaps  it is more that  we and our guests have always understood each other! We do appreciate people taking outdoor shoes off in the house.",
24933600,AMAZING 3 BEDROOM APARTMENT IN FLUSHING QUEENS,49927243910,unconfirmed,Samuel & Toluwani,Queens,Flushing,40.74006,-73.82894,United States,US,False,moderate,Entire home/apt,2006,$602 ,$120 ,1,12,6/30/2019,6.0,3,1,145,,
24934152,No Cleaning Fee! 1.5 blocks to 2 Train. 9pm-9am,94933817566,verified,Kenneth,Bronx,Wakefield,40.89613,-73.85503,United States,US,False,flexible,Private room,2022,$944 ,$189 ,1,9,6/27/2019,3.18,3,1,0,,
24934704,B-comfortable queen size bed try it yourself,8718448924,verified,Mohamad,Staten Island,Dongan Hills,40.57882,-74.09196999999999,United States,US,False,moderate,Private room,2006,$473 ,$95 ,1,8,6/9/2019,2.53,3,3,342,,
24935257,“Mi casa es tu casa” “My home is your home” NYC,70106071901,verified,Javier,Queens,Fresh Meadows,40.743759999999995,-73.7942,United States,US,True,moderate,Entire home/apt,2008,$912 ,$182 ,2,15,7/7/2019,6.92,3,1,69,"No candles, maximum 2 guests",
24935809,Comfy Home ~ 1st Floor,91388765888,unconfirmed,Frances,Queens,Springfield Gardens,40.66465,-73.74906999999999,United States,US,True,strict,Entire home/apt,2011,$323 ,$65 ,3,6,6/14/2019,2.28,2,1,176,We are a second-floor apartment so please do not stomp or jump on floors.,
24936361,QUIET 1BR apartment CLOSE to EVERYTHING,94299101085,verified,Eric,Manhattan,Hell's Kitchen,40.76386,-73.98901,United States,US,True,flexible,Entire home/apt,2016,$498 ,$100 ,5,11,7/5/2019,5.08,5,1,14,"This is a family place no large parties,i.e. over 10 people.  No smoking inside except vaporizer. Treat our home as you would want someone to treat yours . Be mindful of neighbors.  If a dish or something breaks don't worry we can resolve anything. The plumbing is old so it's  helpful to use the hair strainer in-place at the  drain of the bath tub and of course nothing down the toilet except waste and toilet paper .  We have an emergency number for a plumber if something unforeseen occurs. Kitchen we have a garbage disposal but we do our best to throw all the waste in the garbage can and use the disposal just for little bits .  The switch for the disposal is located to the left of the sink on the wall. Its the one on the right the other switch is for the upper cabinet lights. very important, no grease or oil down the drain ..save it up in a container and throw the container away in the garbage. Trash/garbage day is Friday in the a.m. it needs to be out on the sidewalk in front of the g",
24936913,,29133038382,verified,Jenna,Manhattan,Upper East Side,40.76928,-73.94855,United States,US,True,strict,Entire home/apt,2009,$572 ,$114 ,2,11,7/1/2019,3.93,2,1,3,"Absolutely no smoking, indoors or out. Please take your shoes off in the house. No pets allowed. We have a lovely 3-year old cat who is he's friendly and low-maintenance but will require some food and water during your stay.",
24937466,Bay parkway Private room,47926734022,verified,Antony,Brooklyn,Bensonhurst,40.6062,-73.98995,United States,US,False,moderate,Private room,2021,$128 ,$26 ,1,7,5/21/2019,2.44,2,12,0,"WHEN BOOKING, PLEASE PROVIDE THE FOLLOWING IN YOUR MESSAGE to me:  - 1. Total number of guests (adults, children, babies)? Are there any elderly or children under 18? If so, what are their ages?  - 2. Arrival Date AND Time of Check In? (Check In between 2 pm and 9 pm with some leniency)  - 3. Departure Date (Check out before 12 pm/noon)  - 4. Please tell me a little about yourselves and the purpose of your trip.  - 5. What Other Needs or Special Requests or Extra Options (please read below for additional options and possible related additional fees).  ------  PLEASE NOTE THE FOLLOWING BEFORE REQUESTING A BOOKING:  * I will reply as soon as possible to let you know if my apartment will be available for ALL your needs.  - 1. We are happy to host Friendly, Neat, Low-Maintainence Adults & Well-Behaved Children, as well as their well Behaved Pets.  ---- All cookware and utensils in the kitchen are at your disposal. There will be water (brita) and basic condiments provided for you. We ask th",
24938018,Huge Room For Rent Close to JFK and the Q train,76470264384,verified,Cebile,Brooklyn,Sheepshead Bay,40.608979999999995,-73.95340999999999,United States,US,True,strict,Private room,2011,$728 ,$146 ,1,5,7/6/2019,1.83,2,8,348,We expect that you will treat our house like yours.  We have done many exchanges all over the world and everybody loved our house. No smoking and no pets.,
24938570,Private Room Near Q Train in Brooklyn,93032831857,unconfirmed,Cebile,Brooklyn,Sheepshead Bay,40.60765,-73.95392,United States,US,False,strict,Private room,2015,"$1,048 ",$210 ,1,4,7/7/2019,2.26,2,8,359,"Respect our home and our house is your house. Checkout is 11 am at the end of your stay, however you are welcome to leave your bags for the day. Please let us know when you plan to arrive. Depending on circumstances we can be very flexible.",
24939123,,91380148369,verified,Cebile,Brooklyn,Sheepshead Bay,40.60755,-73.95303,United States,US,False,moderate,Private room,2004,$955 ,$191 ,1,5,6/28/2019,2.63,4,8,352,"Please treat the home as you would your own, and treat your hosts as you would like to be treated!",
24939675,Brand new private apartment 5 minutes from JFK!,39807442457,verified,Tapashi,Queens,Springfield Gardens,40.668209999999995,-73.75263000000001,United States,US,False,flexible,Entire home/apt,2012,$490 ,$98 ,1,16,6/30/2019,6.0,3,2,304,"No smoking, no drugs, no parties, no pets. Please be polite and courteous.",
24940227,Comfortable Sofa Bed For Rent In NYC. Female ONLY,61854464735,unconfirmed,Cebile,Brooklyn,Sheepshead Bay,40.6093,-73.95211,United States,US,False,flexible,Shared room,2009,"$1,106 ",$221 ,2,8,6/8/2019,2.55,5,8,358,"Please be respectful of my things! I have a lot of stuff that I have collected over the years. Absolutely NO smoking. This is a really relaxing space and the neighbors are all really cool. -Pets are allowed -If you cook, please clean after yourself and make proper use of the garbage disposal.",
24940780,Sofa Bed For Rent Near The Q Train: Girls Only.,66483655657,unconfirmed,Cebile,Brooklyn,Sheepshead Bay,40.60852,-73.95368,United States,US,True,strict,Shared room,2011,$217 ,$43 ,2,3,7/4/2019,1.14,3,8,343,- no shoes inside - quiet after 8:30pm,
24941332,"Beautiful Private Home in Bushwick, Brooklyn!",58129695862,verified,Luis,Brooklyn,Bushwick,40.69477,-73.93011,United States,US,False,strict,Entire home/apt,2008,$60 ,$12 ,3,6,6/24/2019,2.86,4,1,119,,
24941884,Beautiful Chelsea townhouse bedroom,74061366520,verified,Jen,Manhattan,Chelsea,40.746790000000004,-74.00263000000001,United States,US,False,flexible,Private room,2017,$675 ,$135 ,1,3,6/30/2019,1.11,4,2,113,"Maximum of 2 guests staying in a bedroom.  No smoking anywhere in or outside the property.  No pets anywhere in or outside the property.  No parties anywhere in or outside the property.  No parking on our property or in the lot.  No frying food.  No extreme temperature settings.   Any broken house rules, including evidence of cigarette butts, ashes, odors, stained linens, damaged furniture, or missing items will result in loss of deposit. All doors must be locked, and all lights, fans, air conditioners, and heaters should be turned off each time you leave. We kindly ask that you respect our property and our neighbors in this wonderful community.",
24942436,Uptown Minimalist Chic,78992068926,unconfirmed,Omar,Manhattan,Washington Heights,40.85549,-73.92789,United States,US,False,strict,Private room,2010,$121 ,$24 ,2,7,6/23/2019,2.19,3,1,14,"The building is mainly families and retirees, and there are quiet hours after 10pm weeknights and 11pm weekends. No cats in our unit, and no smoking anywhere in the building.",
24942989,A beautiful Gem,96666457560,unconfirmed,Ulrika,Bronx,Clason Point,40.806259999999995,-73.85122,United States,US,False,flexible,Private room,2009,$630 ,$126 ,7,2,6/7/2019,1.76,3,1,59,My condo unit is one of three units shared with my fabulous neighbors. I ask for respect that my wood floors are noisy for my downstairs neighbors. Slippers or socks would be preferred.,
24943541,,82902007279,verified,Viviana,Queens,Woodhaven,40.6875,-73.8664,United States,US,False,flexible,Private room,2003,$110 ,$22 ,3,8,6/21/2019,3.04,2,9,358,"We do not allow any pets on the property to protect our guests and family from allergies. Please do not park in our driveway. You may find on-street parking available on Spring Park Ave or Rockview St. There is no smoking on the property. Please feel free to take a walk around our lovely neighborhood if you need a smoke. Otherwise we have no real ""rules"" except common courtesy please. We always want our guests to feel as much at home as possible, so feel free to do so. Should you need something or have a question, just ask! We are always happy to help. Most of all, enjoy your visit here in our studio!",
24944093,Union Square Private Double & Single Bed w/ Shower,7817753867,unconfirmed,Jp,Manhattan,Gramercy,40.73446,-73.9867,United States,US,False,moderate,Private room,2009,$806 ,$161 ,2,8,7/4/2019,3.53,4,4,13,No smoking of any kind allowed in house or on property at any time.  Quiet and respectful of our neighbors.,
24944646,"Central Herald Sq.1BR w/ Roofdeck, Gym next to the subway by Blueground",20392222696,unconfirmed,Blueground,Manhattan,Midtown,40.74875,-73.98675,United States,US,True,moderate,Entire home/apt,2021,$74 ,$15 ,30,0,,,4,232,311,"Dear Guest, Thank you for appreciating that I live in a building with other people. Please always lock all doors (especially the front one) when coming and going.",
24945198,Share in cozy 1BR,76735863344,verified,Jenny,Manhattan,East Harlem,40.78722,-73.94481999999999,United States,US,False,flexible,Shared room,2013,$318 ,$64 ,22,1,6/10/2019,1.0,2,1,12,"I feel very responsible and accountable for your needs and comfort while you stay at my home... I will go above and beyond for you!  That being said -- I do not charge hotel pricing for a reason. Hotels allow for 24 hour on call service, if you lock yourself out or are having trouble with something... a hotel front desk can help immediately. Your $300 a night for a hotel in Boston covers that.... I am charging almost a 10th of that for this room. I have my own business, clients, and social obligations to attend to. If you lock yourself out or have some other issue, of course I will come help you, but its important to understand that it will not be immediate. I will do my best to get back to the house as quickly as possible. ***IMPORTANT** I'd rather save you all the money and trust you to be independent / responsible guests... than to charge you for my 24 hour support! So please -- keep your keys on hand and in sight, keep the room clean, and maintain healthy choices while in my space ",
24945750,"MARCELO’S  ROOM 
Close to JFK airport and LGA",69983967180,verified,Marcelo Y Lucio,Queens,Elmhurst,40.73125,-73.87250999999999,United States,US,True,strict,Private room,2021,$245 ,$49 ,1,28,7/2/2019,8.94,4,4,365,"The usual ""social code"": There are three of us altogether in the apartment -- myself and two others, usually housemates, though one of the bedrooms may also be occupied by another guest -- so use of the bathroom should be considerate of others' needs as well.   Quiet is appreciated before 8:00 AM and after 10:00 PM.  You are more than welcome to use the kitchen for preparing food; we would ask only that you leave it in the condition you would wish to find it.  Smoking allowed on deck. *Good communication is essential to ensure everyone is contented.",
24946303,"Premium FiDi 1BR w/ Roofdeck, Gym + Doorman near Wall St. by Blueground",68829343334,unconfirmed,Blueground,Manhattan,Financial District,40.70429,-74.00714,United States,US,False,strict,Entire home/apt,2022,$910 ,$182 ,90,0,,,5,232,115,"Be respectful of all and communicate well enough so we can all enjoy your stay. Pets are invited in theory...we would have to talk about it before hand. Small , very small parties could work here. You could also use the outside under the grape vine",
24946855,Cozy room in Soho,62701263787,verified,Yana,Manhattan,SoHo,40.7204,-74.00027,United States,US,True,moderate,Private room,2006,$772 ,$154 ,3,1,4/12/2019,0.34,3,3,86,Please be mindful in the kitchen and bathroom after 23:00.,
24947407,Bright One Bedroom Loft,32336106875,verified,Julia,Brooklyn,Williamsburg,40.71255,-73.93921999999999,United States,US,False,moderate,Entire home/apt,2012,$121 ,$24 ,3,3,6/8/2019,1.23,3,1,3,"In fairness to the other owners who live on the 1st and 3rd floors, it will be important to keep noise to a respectful volume. No house parties allowed. No smoking on the premises. No pets allowed. No open flames (candles of any kind) allowed. Do not use back stairs off of balcony/deck, enter and exit balcony through TV room only, when sitting outside. Back stairs are meant to be used as an emergency egress only in the event of a fire should the main egress become blocked.",
24947959,Beautiful Chelsea Townhouse bedroom,33080128279,verified,Jen,Manhattan,Chelsea,40.7461,-74.00329,United States,US,True,moderate,Private room,2008,$545 ,$109 ,1,10,6/10/2019,3.49,3,2,108,Yes try to be quite for other tenants and roommates so nothing to loud and be respectful. Be clean!,
24948512,"Large Comfy 2Bdrm Apt in Williamsburg, Brooklyn",33580869830,verified,Sean,Brooklyn,Williamsburg,40.713809999999995,-73.95187,United States,US,False,strict,Entire home/apt,2015,"$1,180 ",$236 ,3,1,5/6/2019,0.47,2,3,257,"- House Rules  Wifi Network: NotYours and NotYours_2EXT Password: Notyours69  Welcome to Jamaica Plain! We are located centrally with easy access to the Green Street T stop on the Orange Line. There is on street parking if needed. Street cleaning takes place at 8:00am the first and third Monday of every month, DO NOT PARK ON GREEN STREET on the first or third Monday or you risk the pleasure of ticketing and TOWING :(   You are a guest in our condo, make yourself at home but please respect it as you would the home of a very tidy friend. Help yourself to tea & coffee.  **No shoes in the condo!   **Please water plants every 2-3 days, yellow watering can is behind couch.  **Buzzer is self- explanatory.   **No smoking!!  **Smoke alarms have reset buttons if needed  **Please turn off or set the AC to 75 when you leave.   **The front door of the building needs to be pulled firmly shut to close, please be sure you close it behind you when you enter & exit.  **Please be respectful of our neighb",
24949064,Cosy apartment in heart of the East Village,58091531834,unconfirmed,Faye,Manhattan,East Village,40.72392,-73.98915,United States,US,False,strict,Entire home/apt,2016,$495 ,$99 ,7,3,7/7/2019,1.05,3,1,15,"No smoking, drugs, loud volume, loud partying please. No outdoor shoes inside the house please, indoor slippers are provided. Please help me keep the place clean and organized by cleaning up after yourself, thank you.",
24949616,Your Next Vacation Should be Here...Walk to TimeSq,77096273175,verified,Mona,Manhattan,Hell's Kitchen,40.760909999999996,-73.99126,United States,US,False,flexible,Entire home/apt,2010,$800 ,$160 ,4,16,6/26/2019,5.45,5,1,59,#NAME?,
24950169,Brand New Studio~W/D in unit~Prime Gramercy,41833660724,verified,Izi,Manhattan,Kips Bay,40.73948,-73.97973,United States,US,False,strict,Entire home/apt,2004,$825 ,$165 ,30,0,,,2,13,327,This is a non smoking house.  Quiet hours are from 10pm until 8am.  Cars must be parked within fence so as not to block neighbors driveway.  One parking spot only per room. Please don't use the kitchen for cooking as cleanliness becomes difficult to maintain with the velocity of guests that we host. We welcome you to have breakfast at your leisure.  Please place dirty dishes in the dishwasher unless it’s full of clean dishes!We look forward to having you! Boston is a terrific city and we are walking distance to public transportation and many wonderful shops and restaurants.  Check out our reviews.,
24950721,"Spacious,Quite,beautiful room in Astoria-Ditmars",88355801530,verified,Onur,Queens,Ditmars Steinway,40.77832,-73.90604,United States,US,True,flexible,Private room,2003,$360 ,$72 ,20,0,,,2,3,0,Cleaning fee only applies to stays under 4 nights.  4 nights or more I pay the fee.  Monthly stays do have to also pay a cleaning fee.,
24951273,Sonder | Theater District | Airy 1BR + City View,38155220946,unconfirmed,Sonder (NYC),Manhattan,Theater District,40.76142,-73.98629,United States,US,True,strict,Entire home/apt,2017,$997 ,$199 ,29,0,,,4,327,349,"Since I go to bed early (I'm a public school teacher), I ask that you keep noise down after 9:30 p.m. on weeknights. The family upstairs would appreciate this as well. Also please let me know if you're planning to have anyone else come over. No pets, no smoking/drugs, be clean, etc.",
24951826,5BR Designer Loft in Soho/TriBeCa! Best Location!,47971036502,unconfirmed,Steve,Manhattan,Tribeca,40.71859,-74.00459000000001,United States,US,False,strict,Entire home/apt,2010,$681 ,$136 ,31,3,6/20/2019,1.06,2,1,165,"Please treat our home like you would your own family's! AGREEMENT This Lease Agreement (the “Agreement"") is made by and between Airbnb host (“Homeowner"") and (“Guest"") as of the date last set forth on the agreement made via airbnb. For good and valuable consideration, the sufficiency of which is acknowledged, the parties hereby agree as follows: 1. Property: The property address will be disclosed at time of booking. 2. Rental Party: The rental party shall consist of Adults and Children (under age 18). The maximum number of guests is limited to 2 persons.  3. Term of the Lease. The lease begins at 3:00 p.m. on (the “Check-in Date"") and ends at 10:00 a.m. on (the “Check-out Date""). No refunds are issued for late check-in or early departure. 4. Rental Rate and Fees.  As listed in the Airbnb reservation system and subject to change. Refer to the official reservation for details. 5. Security Deposit. The Security Deposit is required to protect Homeowner from loss or damage to the Property, ",
24952378,Cozy and Comfortable Studio Apartment,3467399759,unconfirmed,Iris,Queens,Corona,40.73747,-73.86404,United States,US,False,strict,Entire home/apt,2006,$385 ,$77 ,7,3,6/27/2019,1.23,3,2,54,"- Maximum number of guests at any time is 2 adults - No cigarette smoking inside - Please do not take food/beverages unless otherwise noted (but you can use any equipment in the kitchen) - Pets may be accepted on a case by case basis for an additional fee (Note that we have one cat and one (large, chill) therapy dog)",
24952930,"Bright Large Room, only 30mins to Times Square",5606145901,verified,Victor,Bronx,Fordham,40.86615,-73.88828000000001,United States,US,False,strict,Private room,2006,$872 ,$174 ,2,6,6/23/2019,1.96,2,3,34,"Since you will be living in my own residence, I expect that you take care and keep the common areas cleaned and neat.",
24953482,My awesome room :0),40955395706,unconfirmed,Leo,Brooklyn,Bushwick,40.70069,-73.93675999999999,United States,US,False,strict,Private room,2017,$138 ,$28 ,3,0,,,3,2,15,"I feel very responsible and accountable for your needs and comfort while you stay at my home... I will go above and beyond for you!  That being said -- I do not charge hotel pricing for a reason. Hotels allow for 24 hour on call service, if you lock yourself out or are having trouble with something... a hotel front desk can help immediately. Your $300 a night for a hotel in Boston covers that.... I am charging almost a 10th of that for this room. I have my own business, clients, and social obligations to attend to. If you lock yourself out or have some other issue, of course I will come help you, but its important to understand that it will not be immediate. I will do my best to get back to the house as quickly as possible. ***IMPORTANT** I'd rather save you all the money and trust you to be independent / responsible guests... than to charge you for my 24 hour support! So please -- keep your keys on hand and in sight, keep the room clean, and maintain healthy choices while in my space ",
24954035,Vacate NYC.,14341486724,verified,Janei,Brooklyn,Bedford-Stuyvesant,40.67758,-73.92751,United States,US,True,strict,Private room,2013,$978 ,$196 ,1,12,6/29/2019,4.29,5,1,179,"No smoking  Not suitable for pets  No parties or events  Check-in time is after 2pm Quiet hours: 10pm-8am - Please refrain from loud noise after 10pm as this is a family neighborhood. Music and voices from the upper deck carries down the block. We enforce a loss of deposit if there are noise complaints. - No parties. Although we want your group to have tons of fun, additional unnamed guests at a party will result in a 100% loss of deposit. AGREEMENT This Lease Agreement (the “Agreement"") is made by and between Airbnb host (“Homeowner"") and (“Guest"") as of the date last set forth on the agreement made via the (website hidden). For good and valuable consideration, the sufficiency of which is acknowledged, the parties hereby agree as follows: 1. Property. The property address will be disclosed at time of booking. 2. Rental Party. The rental party shall consist of Adults and Children (under age 18). The maximum number of guests is limited to 4 persons. Additional guests staying the night b",
24954587,Spacious yellow room in Brooklyn,43785653453,unconfirmed,Candace,Brooklyn,East Flatbush,40.65401,-73.92013,United States,US,True,flexible,Private room,2017,$128 ,$26 ,1,10,6/25/2019,3.75,4,4,365,,
24955139,Charming 1BR next to subway & walk to Central Park,67035474822,verified,Fé,Manhattan,East Harlem,40.79013,-73.94958000000001,United States,US,True,flexible,Entire home/apt,2020,"$1,191 ",$238 ,3,9,6/23/2019,3.55,5,1,85,"The usual ""social code"": There are three of us altogether in the apartment -- myself and two others, usually housemates, though one of the bedrooms may also be occupied by another guest -- so use of the bathroom should be considerate of others' needs as well.  Quiet is appreciated before 8:00 AM and after 10:00 PM.  You are more than welcome to use the kitchen for preparing food; I would ask only that you leave it in the condition you would wish to find it.  Smoking allowed on deck. *Good communication is essential to ensure everyone is contented.",
24955692,Nolita! Cute one bedroom (Website hidden by Airbnb) Location!,46523227773,unconfirmed,Bernarda,Manhattan,Little Italy,40.72002,-73.99704,United States,US,False,moderate,Entire home/apt,2015,$647 ,$129 ,3,2,6/13/2019,1.43,4,1,33,Please be respectful of my things! I have a lot of stuff that I have collected over the years. Absolutely NO smoking.  This is a really relaxing space and the neighbors are all really cool.  -Pets are allowed,
24956244,Brooklyn Spacious Sunny Apartment,64074027494,unconfirmed,Pascale,Brooklyn,Crown Heights,40.66431,-73.95083000000001,United States,US,True,strict,Private room,2003,$482 ,$96 ,1,0,,,2,1,0,-Quiet hours after 10 pm -Lock the front door when exiting and entering the property,
24956796,Clean and quiet Brooklyn room 35 mins from Soho,97005918430,unconfirmed,Ann,Brooklyn,Bedford-Stuyvesant,40.68898,-73.94139,United States,US,False,flexible,Private room,2008,$377 ,$75 ,10,1,6/1/2019,0.77,4,1,246,"No smoking, drugs, lighting candles, or campfires on the bed. (ha!) We aren't going to tell you not to drink alcohol (we're not your mom), but it would be great if you wouldn't come in super drunk, knock on our neighbor's doors, knock over a ton of our stuff, freak out our dog, and throw up everywhere. Please remove your shoes indoors. Boston streets are pretty gross. Please do not bring your friends into the home. We are sure they're lovely people, but we don't know who they are! We are generally in bed by 10:30 pm on weeknights. You are absolutely welcome to come and go at any time of the night, just try to keep things quiet for the sake of everyone in the building. If you need anything, like a hair dryer or toiletries, please don't hesitate to ask! We are very happy to share (within reason, of course).",
24957349,The Pineapple tree (Girls shared room only),76866927928,unconfirmed,Antony,Brooklyn,Gravesend,40.586490000000005,-73.97339000000001,United States,US,False,flexible,Shared room,2021,$120 ,$24 ,11,2,5/2/2019,0.74,5,12,0,The cleaning fee only applies to stays under 4 nights.  4 nights or more it is included.,
24957901,Large Bedroom with privet bathroom,4570791077,verified,Christina,Brooklyn,Crown Heights,40.665440000000004,-73.9577,United States,US,False,flexible,Private room,2009,$718 ,$144 ,2,0,,,4,1,224,"**We would love to hear a bit about you and what brings you to Boston before accepting any reservations. Please make sure your profile is filled out (including a clear picture of you), and your online and offline verifications are complete before you submit a reservation request so we have an idea of who you are.** Please be respectful of my home and other guests - clean up after yourself, keep your toiletries neat in the shared bathroom or leave them in your room, no smoking indoors, and please remove your shoes upon entering.   I have coffee and tea for guests, and will leave out some basic breakfast items like snack bars and fresh fruit, however if you are planning on using the kitchen during your stay I ask that you provide your own food and drink.   Please do not bring additional guests home without express prior permission from the host.  Sorry, no pets allowed! Check out time is 12pm.  Please clean your leftovers out of the refrigerator and put in the trash. Clean dishes buy run",
24958453,Cozy and beautiful  room for a couple,54193522868,unconfirmed,Salome J,Queens,Jackson Heights,40.75278,-73.89114000000001,United States,US,False,strict,Private room,2008,$285 ,$57 ,3,1,5/9/2019,0.49,4,1,59,Be respectful of house and neighbors on second and third floor. That's all we ask.,
24959005,★Affordable Clean Private Room#1 in Hell' kitchen★,78841563760,verified,Kita,Manhattan,Upper West Side,40.77029,-73.98761,United States,US,True,moderate,Private room,2008,$742 ,$148 ,3,5,6/14/2019,2.08,5,2,158,,
24959558,Highland Park 2 bedroom share,25427548909,unconfirmed,Eric,Brooklyn,Cypress Hills,40.68176,-73.89402,United States,US,False,moderate,Private room,2010,$216 ,$43 ,30,0,,,2,1,98,Relatively quiet after 10 in the evening.,
24960110,Beautiful Home in Heart of Brooklyn,32260607791,verified,T+Y+K+M,Brooklyn,East Flatbush,40.64673,-73.94686,United States,US,True,moderate,Entire home/apt,2014,$693 ,$139 ,1,28,7/5/2019,10.77,4,1,292,"No Smoking inside the apartment No Pets When possible, please remove shoes at entryway.  This is our home so please treat it as you would your own and tidy up upon your checkout.",
24960662,Private House in Trendy Crown Heights,89205989572,verified,Yehudis,Brooklyn,East Flatbush,40.66247,-73.93784000000001,United States,US,False,moderate,Entire home/apt,2014,$642 ,$128 ,2,2,6/27/2019,2.0,4,2,59,"This is a no-smoking apartment. If you do smoke outside, please dispose of the cigarettes properly.  No pets are allowed.",
24961215,Modern & Spacious in trendy Crown Heights,64426625789,verified,Yehudis,Brooklyn,Crown Heights,40.66387,-73.9384,United States,US,True,strict,Entire home/apt,2012,$241 ,$48 ,1,6,5/27/2019,2.5,5,2,148,"no inside smoking, quiet(ish) after 11, help yourself to condiments, oils, spices, coffee. use of bikes at your own risk. No parties. I'm super tight with neighbors and usually I'm staying 2 doors down.",
24961767,Charming Room in Clean Apt! Soho!,85599409946,verified,Jasmine,Manhattan,SoHo,40.72589,-74.00015,United States,US,False,moderate,Private room,2012,$341 ,$68 ,1,7,6/11/2019,2.44,3,10,23,NO Smoking,
24962319,Large Cozy Prospect Lefferts II,28742943485,unconfirmed,Sydney,Brooklyn,East Flatbush,40.65292,-73.95229,United States,US,True,strict,Private room,2014,$618 ,$124 ,5,2,5/31/2019,1.07,2,5,159,No Smoking.,
24962872,Queen Room,44590090019,unconfirmed,The Redford,Manhattan,Lower East Side,40.7211,-73.9893,United States,US,False,strict,Private room,2020,$985 ,$197 ,1,0,,,2,2,162,,
24963424,Standard Queen Room,445597004,unconfirmed,The Gatsby,Manhattan,Lower East Side,40.72335,-73.99138,United States,US,True,flexible,Private room,2009,$828 ,$166 ,1,0,,,5,1,358,,
24963976,Standard Queen,75845145493,unconfirmed,The Orchard Street,Manhattan,Lower East Side,40.72018,-73.98813,United States,US,True,flexible,Private room,2005,$499 ,$100 ,1,0,,,2,1,362,,
24964528,Double Room with Two Double Beds,94323982355,unconfirmed,The Redford,Manhattan,Lower East Side,40.719429999999996,-73.98753,United States,US,False,flexible,Private room,2015,"$1,158 ",$232 ,1,0,,,4,2,161,"Your our guest, so please make yourself at home. Be clean! Hunter and I keep a tight ship around the apartment and we'd like our guests to be as clean as us. =) Speak up! Let us know if you need anything.  Party down (if you let us know).  We aren't huge partiers, but if you like to listen to music or watch loud TV, let us know ahead of time.  This is important.",
24965081,East Village Bedroom,24061100872,verified,Brian,Manhattan,East Village,40.72585,-73.98831,United States,US,True,moderate,Private room,2017,$160 ,$32 ,4,9,6/16/2019,3.14,3,1,48,"Guest is expected to behave in a nice and orderly manner with respect to other roommates and neighbors. The guest is expected to keep the WHOLE apartment in the same condition they found it in, including the bedroom and bathrooms.",
24965633,Cozy Bedroom in Bed-Stuy apartment,75043657305,verified,Sean,Brooklyn,Bedford-Stuyvesant,40.68375,-73.91503,United States,US,False,flexible,Private room,2021,"$1,058 ",$212 ,1,0,,,4,2,177,"1. No additional guests not part of the reservation in the building at all.  2. No Pets 3. No Smoking  4. No Children under 10. (The house is not child proof) 5. Remove your shoes 6. Check in is 3-11pm  7. Check out is 10am  *early check in or late check out must be arranged before the reservation starts and may not be accommodated* 8. The bathroom is a shared space, keep the sink clear, there is limited room for your bath products in the shower. 9. No Parties",
24966185,HOSTEL MY REFUGE PAISA (CAMAROTE#4 Parte Baja),62883520342,verified,Albeiro Y Katalina,Queens,East Elmhurst,40.76303,-73.88039,United States,US,True,flexible,Shared room,2013,$232 ,$46 ,1,2,5/4/2019,0.7,4,4,123,,
24966738,Olive's Guest Quarters #2,8724588569,unconfirmed,Arline,Brooklyn,East Flatbush,40.63196,-73.94572,United States,US,False,strict,Private room,2011,$858 ,$172 ,2,4,6/13/2019,1.52,3,3,43,,
24967290,Private Bedroom in Williamsburg Apt!,26082052017,unconfirmed,Andi,Brooklyn,Williamsburg,40.71829,-73.95819,United States,US,False,moderate,Private room,2019,$229 ,$46 ,3,3,4/28/2019,1.07,3,2,97,,
24967842,"Comfortable,spacious and luxurious homely settings",61118328368,unconfirmed,Odaine,Brooklyn,East New York,40.6633,-73.89733000000001,United States,US,False,strict,Entire home/apt,2010,$58 ,$12 ,2,7,6/9/2019,2.63,3,1,157,"• Check-in time is 4PM. As me and my roommates are students, we often need to concentrate and study at home, what requires the environment to be quiet and silent. We like to party on the weekends though!",
24968395,Comfy and quiet bed for women travelers,20691273497,verified,Svetlana,Brooklyn,Midwood,40.61489,-73.94541,United States,US,False,flexible,Shared room,2005,$757 ,$151 ,2,5,5/10/2019,1.83,5,1,0,No smoking in the bedroom. Smoking is allowed on the back porch.,
24968947,Olive's Guest Quarters #3,26827157376,verified,Arline,Brooklyn,Flatlands,40.6313,-73.94534,United States,US,False,strict,Private room,2019,$871 ,$174 ,2,4,6/18/2019,2.18,2,3,43,,
24969499,"Perfectly Located Near Restaurants, Shops, & Sites",30050175686,verified,Wendy,Manhattan,Hell's Kitchen,40.76248,-73.98937,United States,US,True,strict,Entire home/apt,2022,$52 ,$10 ,4,8,6/23/2019,2.89,5,1,61,"Absolutely no smoking is permitted. Unfortunately no cats because I'm allergic. You may come and go as you please as long as you're staying here and are expected to keep a clean living space (kitchen, bathroom, etc.).",
24970051,Sonder | Stock Exchange | Amazing 1BR + Sofa Bed,38914610353,unconfirmed,Sonder (NYC),Manhattan,Financial District,40.70748,-74.0108,United States,US,True,flexible,Entire home/apt,2008,$501 ,$100 ,2,7,6/20/2019,2.66,4,327,309,"Never any smoking of any kind in the apartment or building! Leave the apartment in a respectful state of tidiness upon leaving.  Wet towels should be hung in the shower/tub, trash taken out. Please check first about bringing pets (typically discouraged). Please keep reasonably quiet!   Sheets, towels and other cleaning are done by me.  I do these things at different times.  Always before dinner time (or before you arrive it's a really late arrival). Probably before 3pm, during the school year at about 1pm usually. In the dead of winter, esp. if there is a lot of snow there may be delays.  If you have really specific needs, you should speak up ahead of time.  NOTE although i do try to keep the apartments stocked with toilet paper and soap i do not make additional trips to the apartments to replenish them. Try to sort out recycling, take out recycling/ trash to the alley bins if you can.  Do not leave trash laying around, especially outside. Please communicate, communicate, communicate. ",
24970604,Sonder | Stock Exchange | Cozy 1BR + Laundry,24939312372,unconfirmed,Sonder (NYC),Manhattan,Financial District,40.7071,-74.01194,United States,US,False,flexible,Entire home/apt,2019,$51 ,$10 ,2,6,6/20/2019,2.28,4,327,327,,
24971156,Sonder | Stock Exchange | Sunny 1BR + Kitchen,30213347247,unconfirmed,Sonder (NYC),Manhattan,Financial District,40.70642,-74.01255,United States,US,True,moderate,Entire home/apt,2010,$263 ,$53 ,2,2,6/24/2019,1.5,5,327,319,"Be thoughtful and considerate! Be kind to the space and place things back in their place after use.  It is a shoe-free apartment; please use the shoe racks and freely borrow the in-door slippers if you need one. Please ask before bringing visitors, and sorry I can only allow the number of guest on the reservation to stay overnight.  Please No smoking anywhere (even on the balcony) and No pets; I am allergic to both! But most importantly feel at home :).",
24971708,Hamilton Heights Home Away from Home! (30-Day Min),12728570890,unconfirmed,Eliot,Manhattan,Harlem,40.82479,-73.94218000000001,United States,US,False,flexible,Entire home/apt,2008,$745 ,$149 ,30,0,,,5,1,242,No pets allowed. No smoking inside the house. Maintain cleanliness.,
24972261,Sonder | The Biltmore | Charming 1BR + Rooftop,8667410812,verified,Sonder (NYC),Manhattan,Theater District,40.76112,-73.98663,United States,US,True,moderate,Entire home/apt,2008,$878 ,$176 ,29,1,5/31/2019,0.75,3,327,337,"I expect guests to be neat, reasonably quiet and respectful especially when using shared spaces of my home. Please no pets or smoking on the property. Before booking, please take care to thoroughly complete your profile, including a photo. I live alone and like to have a feel for  who my guests are before welcoming them into my home. The apartment is open to Airbnb guests only. No overnight guests please.",
24972813,Sonder | The Biltmore | Warm Studio + Rooftop,16866423560,verified,Sonder (NYC),Manhattan,Theater District,40.76122,-73.98583,United States,US,False,moderate,Entire home/apt,2018,$732 ,$146 ,29,0,,,3,327,333,,
24973365,Sonder | The Biltmore | Cozy Studio + Rooftop,50584678208,unconfirmed,Sonder (NYC),Manhattan,Theater District,40.759479999999996,-73.98615,United States,US,True,flexible,Entire home/apt,2011,$992 ,$198 ,29,1,5/21/2019,0.6,5,327,193,NO Smoking.,
24973918,The Sunshine Palace,15735263692,verified,Lucy,Queens,Queens Village,40.70303,-73.74906,United States,US,False,moderate,Entire home/apt,2009,$760 ,$152 ,1,38,7/5/2019,12.0,2,3,362,,
24974470,Sonder | The Biltmore | Serene 1BR + City View,37481423317,unconfirmed,Sonder (NYC),Manhattan,Theater District,40.76149,-73.98633000000001,United States,US,False,flexible,Entire home/apt,2022,$838 ,$168 ,29,0,,,4,327,346,NO Smoking.,
24975022,Sonder | The Biltmore | Sunny 1BR + City View,59012889418,unconfirmed,Sonder (NYC),Manhattan,Theater District,40.75923,-73.9865,United States,US,True,moderate,Entire home/apt,2016,$555 ,$111 ,29,0,,,4,327,331,,
24975574,Charming 2BR Apt! Popular Neighborhood!,63542072411,verified,Jasmine,Manhattan,Greenwich Village,40.72667,-73.99878000000001,United States,US,True,flexible,Entire home/apt,2009,$611 ,$122 ,1,3,7/1/2019,1.5,4,10,133,"不要恶意破坏家具,不能过于吵闹影响他人生活。这里不是度假村或是轰趴馆,只是提供舒适的休息场所。",
24976127,STYLISH 2 BEDROOM APART. IN PRIME UPPER WEST SIDE,1489967482,unconfirmed,Antonio,Manhattan,Upper West Side,40.7977,-73.96115,United States,US,True,flexible,Entire home/apt,2008,$636 ,$127 ,4,9,6/20/2019,3.65,2,1,132,"No smoking, drugs, alcohol or pets allowed in the property, including the balcony. No overnight guests or parties.",
24976679,Hustler's Paradise 2 (Semi Private),7222326147,unconfirmed,Amardeep,Staten Island,Concord,40.597,-74.08778000000001,United States,US,True,moderate,Shared room,2006,$718 ,$144 ,1,0,,,4,7,2,,
24977231,★ CLEAN/ELEGANT TWO BEDROOM APARTMENT ★,22586431451,verified,Nour,Manhattan,Upper East Side,40.78134,-73.95212,United States,US,True,strict,Entire home/apt,2020,$554 ,$111 ,5,15,6/22/2019,4.89,2,1,146,"No smoking, no pets. Rest of the house is a mix of classical and jazz musicians, so bring your instrument if you want to jam.",
24977784,,27917288904,verified,Andres,Brooklyn,Bedford-Stuyvesant,40.688309999999994,-73.9393,United States,US,False,strict,Entire home/apt,2005,"$1,176 ",$235 ,1,10,6/24/2019,3.57,3,1,206,"Please remember that this is a residential building. The building rules, apartment occupancy restrictions and the year-round tenants must be respected.",
24978336,"Large furnished studio, East 56 St., NYC",29161482474,unconfirmed,Margaret,Manhattan,Midtown,40.75967,-73.96786,United States,US,True,moderate,Entire home/apt,2010,$232 ,$46 ,30,0,,,3,1,159,,
24978888,A Comfortable Room,27988213359,verified,Syeda,Queens,Jamaica,40.70532,-73.80965,United States,US,False,strict,Private room,2022,$266 ,$53 ,1,6,6/25/2019,2.12,4,9,360,"Please keep kitchen clean. Make sure porch door is always locked when not in use. Central AC temperature must stay above 70 degrees When checking out, please leave keys on the desk provided in the room. Do not have to worry about locking the door on the way out.",
