id,NAME,host id,host_identity_verified,host name,neighbourhood group,neighbourhood,lat,long,country,country code,instant_bookable,cancellation_policy,room type,Construction year,price,service fee,minimum nights,number of reviews,last review,reviews per month,review rate number,calculated host listings count,availability 365,house_rules,license
19392926,Entire 2 Bedroom Elegant Suite w Modern Amenities,80656676960,verified,Akem & Terry,Brooklyn,Cypress Hills,40.67877,-73.89228,United States,US,False,strict,Entire home/apt,2005,"$1,060 ",$212 ,2,22,7/6/2019,1.88,5,1,282,,
19393478,Cozy sanctuary/Big master bedroom/NYC/The Heights,82416025869,verified,Jess,Manhattan,Washington Heights,40.849109999999996,-73.93097,United States,US,False,flexible,Private room,2021,$852 ,$170 ,2,5,4/8/2019,0.44,3,1,216,,
19394031,luxurious & light-filled apartment in williamsburg,86602531828,verified,Lucia,Brooklyn,Williamsburg,40.71563,-73.95666999999999,United States,US,False,strict,Entire home/apt,2015,$468 ,$94 ,4,3,8/7/2018,0.24,2,2,0,#NAME?,
19394583,Bright & Sunny Brooklyn 1BDR with Amazing Views,11614134890,verified,Alexandra,Brooklyn,Greenpoint,40.72724,-73.95401,United States,US,False,strict,Entire home/apt,2021,$426 ,$85 ,3,11,6/9/2019,0.95,3,1,0,Smoking is forbidden in the apartment and on the rooftop.,
19395135,Sound Bath Sanctuary I Manhattan,98551471785,verified,Joule,Manhattan,Inwood,40.86764,-73.9259,United States,US,False,moderate,Private room,2014,$752 ,$150 ,2,17,6/18/2019,1.54,3,2,243,"House Rules The house rules are an important part of staying in this condo.  You will be sharing a living space with other guests and a high level of consideration, respect, communication and tolerance is expected from you.  They are meant to make your stay more pleasant, to prevent conflicts and to protect the property of any damage.  If you feel there is something that needs to be addressed and that is not covered in these rules, please make sure you communicate that to the host. 1.  Toilet · The toilettes can only be used with the toilet paper provided.  Any other material disposed of will cause the plumbing system to back up and create drainage problems.  No tissues, cotton balls, tampons, Q-tips cotton swabs or any kind of sanitary products are allowed down the toilets.  · Any plumbing work due to clogged toilets will be charged to the guests. 2. Noise and Quiet Hours · Quiet hours are from 10pm until 7am.  During quiet hours radios and stereos may be played at a level not to be h",
19395688,New York City (Downtown) accessibly sleeps 6,35582653874,unconfirmed,Zoraida,Bronx,Bronxdale,40.85456,-73.86921,United States,US,True,moderate,Entire home/apt,2005,$748 ,$150 ,2,36,6/24/2019,3.33,3,1,10,,
19396240,art-filled williamsburg room w/ ensuite bathroom,5129727144,verified,Lucia,Brooklyn,Williamsburg,40.713390000000004,-73.95566,United States,US,False,strict,Private room,2016,$841 ,$168 ,2,2,9/10/2018,0.17,3,2,0,"No smoking allowed in property or on roof deck. No pets allowed.  Please be respectful of other neighbors who live in close proximity, especially when enjoying the roof deck.",
19396792,!!Cozy 3-person shared room near  L train!!,97046808528,unconfirmed,Sergii,Brooklyn,Greenpoint,40.72166,-73.9399,United States,US,False,moderate,Shared room,2007,$580 ,$116 ,30,0,,,4,10,311,No Smoking No Pets,
19397344,Amazing & Quite shared room near L train,35641455576,verified,Sergii,Brooklyn,Greenpoint,40.72177,-73.94166,United States,US,True,flexible,Shared room,2003,"$1,179 ",$236 ,30,3,2/4/2019,0.26,3,10,312,,
19397897,Newly Renovated 2B/2B Skyline & River views BBQ,98483262504,verified,Juan,Manhattan,Upper West Side,40.77511,-73.99005,United States,US,False,moderate,Entire home/apt,2018,"$1,196 ",$239 ,2,26,6/9/2019,2.17,2,1,2,"We require a signed lease as soon as we accept your request. No smoking, no pets, no parties. We strive to maintain a quiet, professional community. Two week minimum stay. Two occupants maximum per apartment. No Sunday checkins and no check in after 6:30 pm",
19398449,Room in Spacious Modern Apartment,61744775266,unconfirmed,Gabriella,Brooklyn,Bushwick,40.70009,-73.94015,United States,US,True,moderate,Private room,2011,"$1,107 ",$221 ,6,2,10/10/2018,0.22,4,1,36,"House Rules The house rules are an important part of staying in this condo.  You will be sharing a living space with other guests and a high level of consideration, respect, communication and tolerance is expected from you.  They are meant to make your stay more pleasant, to prevent conflicts and to protect the property of any damage.  If you feel there is something that needs to be addressed and that is not covered in these rules, please make sure you communicate that to the host. 1.  Toilet · The toilettes can only be used with toilet paper provided.  Any other material disposed of will cause the plumbing system to back up and create drainage problems.  No tissues, cotton balls, tampons, Q-tips cotton swabs or any kind of sanitary products are allowed down the toilets.  · Any plumbing work due to clogged toilets will be charged to the guests. 2. Noise and Quiet Hours · Quiet hours are from 10pm until 7am.  During quiet hours radios and stereos may be played at a level not to be heard",
19399001,Beautiful 1BDR UWS Apartment Close to Central Park,63867976106,unconfirmed,Sara,Manhattan,Upper West Side,40.783429999999996,-73.9823,United States,US,False,flexible,Entire home/apt,2006,$126 ,$25 ,2,5,5/22/2019,0.49,2,1,5,"For Your CarYup! IT'S JUST THE PARKING SPACE.  And it's reasonable but not FREE, and not even a bed is included.  No Queen No Real Bed, No Beds at all, but I don't care how few or how many people use the car you park in the space.   I'm writing to AIRBNB's Help Desk, to get them to add OTHER to their ""Room Type"" menu, and to add a choice of 0 beds to the pull down menus.     Parking in Boston's South End is more scarce than Penthouses or Hen's Teeth.  And parking per square foot rents for more than a square foot of air-mattress-for-a-night!  Go To https://www.airbnb.com/rooms/",
19399554,Beautiful Private Room in Brooklyn,77718764373,verified,Jacob,Brooklyn,Bensonhurst,40.615590000000005,-73.99027,United States,US,False,strict,Private room,2008,$272 ,$54 ,2,0,,,5,4,89,NO SMOKING IN OR OUT THE APARTMENT. please be aware of the Neighbors and respect their space and privacy as well. No free parking,
19400106,3BR/2Bath Duplex Parkslope (15 min to Manhattan),7978951516,unconfirmed,Laurence,Brooklyn,Prospect Heights,40.67953,-73.97303000000001,United States,US,False,strict,Entire home/apt,2020,$795 ,$159 ,3,33,6/30/2019,2.82,5,1,329,#NAME?,
19400658,Beautiful Apartment across from Carnegie Hall,8584048780,verified,David,Manhattan,Midtown,40.7657,-73.98075,United States,US,False,strict,Entire home/apt,2019,$800 ,$160 ,2,5,12/30/2018,0.43,5,1,0,Please no smoking and no parties! Hope you don't mind if we let you know if you are too loud.,
19401211,"Cobble Hill Retreat, 1-Bedroom Garden Apartment",24861297422,verified,Anne,Brooklyn,Cobble Hill,40.68537,-73.99861,United States,US,False,moderate,Entire home/apt,2017,"$1,056 ",$211 ,2,55,7/3/2019,5.32,2,1,30,We just ask that you respect the other guests and residents in the building.,
19401763,C C's Honeyroom 30 minutes to Manhattan.,95108471874,unconfirmed,Christiana,Brooklyn,East Flatbush,40.65035,-73.94895,United States,US,False,moderate,Private room,2018,"$1,190 ",$238 ,2,22,7/7/2019,3.59,5,1,107,"House handbook sent prior to arrival but please be considerate with noise, smoking on roofdeck only and parties are not allowed...thank you!",
19402315,Best place at queens,67729859707,verified,Konrad,Queens,Middle Village,40.710640000000005,-73.87463000000001,United States,US,True,flexible,Entire home/apt,2005,$172 ,$34 ,1,4,9/9/2018,0.34,3,1,0,,
19402867,Comfortable one bedroom apartment,30752879916,unconfirmed,Shalisa,Brooklyn,Bedford-Stuyvesant,40.6915,-73.94327,United States,US,False,strict,Entire home/apt,2017,$655 ,$131 ,1,30,6/30/2019,2.5,4,1,176,**Complimentary breakfast is available only by request.,
19403420,East Harlem room,69943612525,verified,Veronica,Manhattan,East Harlem,40.79486,-73.94038,United States,US,True,moderate,Private room,2012,$785 ,$157 ,5,15,6/27/2019,1.23,2,1,0,No Smoking No Pets,
19403972,Comfy Private LivingRoom steps from Times Square!,38142374503,unconfirmed,Rex,Manhattan,Hell's Kitchen,40.759159999999994,-73.99148000000001,United States,US,True,flexible,Shared room,2010,$68 ,$14 ,10,1,10/8/2018,0.11,5,1,179,,
19404524,Queens home in quiet neighborhood,42656213338,verified,Maria,Queens,St. Albans,40.70479,-73.76357,United States,US,False,moderate,Private room,2011,$129 ,$26 ,2,31,6/30/2019,2.8,5,2,266,No Smoking No Pets,
19405077,Island with City Benefits,24512962319,unconfirmed,Noemi,Bronx,City Island,40.84879,-73.78987,United States,US,True,moderate,Entire home/apt,2004,"$1,129 ",$226 ,2,23,7/7/2019,1.89,3,1,155,No Smoking. No Pets.,
19405629,Spacious Private Bedroom in Financial District,5841258947,verified,Emil,Manhattan,Financial District,40.70989,-74.00813000000001,United States,US,True,flexible,Private room,2008,"$1,082 ",$216 ,3,4,6/21/2019,0.33,2,1,72,"Common sense rules. No smoking indoors. Be courteous to the neighbors.  Please respect the property, this is our home. If you intend to entertain more than 5 people at any point during your stay, please seek approval from me in advance of booking your stay. Please make sure the door is locked each time you leave the apartment. ",
19406181,"Sugar Hill  House w/ 2 bdrms,  den rm & 2 bathrms",40173563183,verified,Mich,Manhattan,Harlem,40.82235,-73.94846,United States,US,True,flexible,Entire home/apt,2019,$443 ,$89 ,2,27,6/21/2019,2.26,2,2,180,"Iconic Boston Brownstone with amazing views, but no elevator. 3 flights of stairs up to the apartment, another set once in the unit up to the private roof deck. No smoking, no pets. My apartment is in a building with 2 other units, people who live there full time. Please be respectful of my neighbors and their privacy, no late night parties.  This is a quiet building.",
19406734,room b,23238067465,verified,Elvis,Staten Island,West Brighton,40.63402,-74.11375,United States,US,False,flexible,Private room,2004,$903 ,$181 ,33,1,7/4/2019,1.0,2,2,337,"Please smoke outside in the front of the building, no additional guests.",
19407286,Bedstuy Comfy Private Room,29378686914,unconfirmed,Lucy,Brooklyn,Bedford-Stuyvesant,40.6858,-73.94654,United States,US,False,moderate,Private room,2017,$574 ,$115 ,30,0,,,4,3,312,"House Rules The house rules are an important part of staying in this condo.  You will be sharing a living space with other guests and a high level of consideration, respect, communication and tolerance is expected from you.  They are meant to make your stay more pleasant, to prevent conflicts and to protect the property of any damage.  If you feel there is something that needs to be addressed and that is not covered in these rules, please make sure you communicate that to the host. 1.  Toilet · The toilettes can only be used with toilet paper provided.  Any other material disposed of will cause the plumbing system to back up and create drainage problems.  No tissues, cotton balls, tampons, Q-tips cotton swabs or any kind of sanitary products are allowed down the toilets.  · Any plumbing work due to clogged toilets will be charged to the guests. 2. Noise and Quiet Hours · Quiet hours are from 10pm until 7am.  During quiet hours radios and stereos may be played at a level not to be heard",
19407838,"Bayridge Clean, Beautiful, Spacious Room",11191486856,verified,Rita,Brooklyn,Bay Ridge,40.63562,-74.0318,United States,US,True,strict,Private room,2008,$813 ,$163 ,1,4,12/30/2018,0.35,2,1,156,,
19408390,Luxurious Brownstone near Pratt with Breakfast!,26964381789,verified,Errol,Brooklyn,Clinton Hill,40.6902,-73.9669,United States,US,True,strict,Private room,2011,"$1,074 ",$215 ,2,5,6/28/2019,1.4,4,1,174,We expect our guests to treat this condo as their home and to be respectful of our wonderful neighbors.   This property is entirely non-smoking (including outside on the patio or front stoop).  Pets are not allowed.  No guests or parties.,
19408943,"3BR renovated private apartment, prime Park Slope!",43699259213,unconfirmed,Anh & David,Brooklyn,Park Slope,40.674690000000005,-73.98368,United States,US,False,flexible,Entire home/apt,2017,"$1,077 ",$215 ,2,55,7/5/2019,4.41,2,1,215,"*Please share with other guests in your reservation. Thanks!* [Security]  Unless otherwise specified, building and apartment access is for reserved guests only. Lock doors when coming and going; keep keys and windows secure.  [Courtesy]  Be mindful of neighbors. No smoking in/around the property. No shoes in the apartment. Pick up after yourself. [Be Green]  Turn off lights, electronics and faucets when not in use. Recycling bin (paper, plastic, glass, aluminum) and reusable shopping bags are in the pantry.  [Communicate]  Please tell me right away if you feel you're having less than a 5-star experience. So many of my trips were made better by caring, thoughtful hosts; it would make me happy to do the same for you.",
19409495,Cute Room. Manhattan. 20 min train to Time Square!,34003482267,verified,Angelica,Manhattan,Harlem,40.8131,-73.94459,United States,US,False,moderate,Private room,2019,"$1,166 ",$233 ,1,73,6/30/2019,5.82,5,2,193,,
19410047,Master bedroom. 20 min. train to Time Square!,49063101109,unconfirmed,Angelica,Manhattan,Harlem,40.81493,-73.94403,United States,US,False,flexible,Private room,2006,"$1,198 ",$240 ,1,67,6/15/2019,5.39,2,2,170,"A residential, quiet, small building. Non- smoking. No heavy drinking. No pets",
19410600,"1BR in Newly Renovated Apartment - Rm A, Bushwick!",93503590328,verified,Ada,Brooklyn,Williamsburg,40.70456,-73.9314,United States,US,True,flexible,Private room,2012,$548 ,$110 ,1,12,6/17/2019,1.14,5,7,352,New luxury furnishings provided.  Please be respectful.  If an accident happens please report and it will be resolved.  ,
19411152,Park Slope Secret Garden,75379730032,unconfirmed,Patty,Brooklyn,Sunset Park,40.66264,-73.99174000000001,United States,US,True,flexible,Entire home/apt,2003,$819 ,$164 ,4,5,1/1/2019,0.46,5,1,12,NO Smoking,
19411704,Spacious Williamsburg Nook w/ Balcony,8392413838,verified,Trisha,Brooklyn,Williamsburg,40.71682,-73.95107,United States,US,True,strict,Private room,2021,$311 ,$62 ,1,0,,,4,1,0,"No kids, no pets, no smoking.",
19412257,Natural Light - Airy and Large Apartment,75751539002,verified,Jack,Manhattan,Midtown,40.75786,-73.96679,United States,US,True,moderate,Entire home/apt,2014,$143 ,$29 ,7,8,12/4/2018,0.76,3,1,0,,
19412809,NYC cozy room in Upper East Side,75046913806,unconfirmed,Tom,Manhattan,Upper East Side,40.78351,-73.94709,United States,US,True,moderate,Private room,2022,$800 ,$160 ,1,6,6/23/2019,0.66,5,1,0,,
19413361,Flatbush Fabulous,95656216256,unconfirmed,Christopher,Brooklyn,East Flatbush,40.633140000000004,-73.94537,United States,US,False,flexible,Entire home/apt,2016,$868 ,$174 ,2,22,3/24/2019,1.77,2,1,0,This is a residential property and quiet is maintained.   Absolutely zero smoking on or near the property.  Be respectful and kind.,
19413913,3 Bed / 1.5 Bath Huge Midtown Apt!,29283961058,verified,Alex,Manhattan,Midtown,40.74431,-73.98196,United States,US,False,flexible,Entire home/apt,2015,$527 ,$105 ,5,36,6/9/2019,2.87,2,1,124,"House Rules 1. Check-in is 4 pm local time. If the unit is ready earlier, we’ll let you know. Check-out is normally 11 am local time, but we’d be happy to extend it as long as we don’t have a cleaning scheduled. Just let us know.  2. All bookings require a security deposit of at least $300, which will be refunded within 7 days of your check-out. 3. For security measures we require all guests to provide proof of identification through ID verification on our own website. In order to check in we'll need a photo of your ID.  4. Our cancellation policy is as shown on our ad and defined by the site you are booking through.  5. Don’t let $300 go up in smoke. There's no smoking allowed in any Flatbook and a $300 fine for breaking this rule.  6. Unfortunately we don’t allow pets in any of our apartments. 7. Unless you’re staying in one of our specialty apartments, we don’t allow parties or excessive noise. 8. If we find the place very messy, we have to charge an extra $40 for every extra hour o",
19414466,Express to NYC - beautiful 1 bedroom apartment,29709640254,unconfirmed,Bernarda,Brooklyn,Bergen Beach,40.62402,-73.91681,United States,US,True,moderate,Entire home/apt,2003,$473 ,$95 ,3,31,7/8/2019,2.95,2,1,122,Enjoy the space responsibly. It's a quiet family-owned building on a very busy street. Only Airbnb-vetted individuals allowed in the house - for our security as well as our neighbors - we want to keep our space safe! No smoking or pets (sorry!) Please return space as you found it.,
19415018,Room in Modern Bushwick Townhouse,85839208238,unconfirmed,Amber,Brooklyn,Bushwick,40.69825,-73.93725,United States,US,True,strict,Private room,2012,$964 ,$193 ,7,3,7/15/2018,0.25,3,1,0,"House Rules 1. Check-in is 4 pm local time. If the unit is ready earlier, we’ll let you know. Check-out is normally 11 am local time, but we’d be happy to extend it as long as we don’t have a cleaning scheduled. Just let us know.  2. All bookings require a security deposit of at least $300, which will be refunded within 7 days of your check-out. 3. For security measures we require all guests to provide proof of identification through ID verification on our own website. In order to check in we'll need a photo of your ID.  4. Our cancellation policy is as shown on our ad and defined by the site you are booking through.  5. Don’t let $300 go up in smoke. There's no smoking allowed in any Flatbook and a $300 fine for breaking this rule.  6. Unfortunately we don’t allow pets in any of our apartments. 7. Unless you’re staying in one of our specialty apartments, we don’t allow parties or excessive noise. 8. If we find the place very messy, we have to charge an extra $40 for every extra hour o",
19415570,"The Grange Place- private apartmt 
w/1 bedrm/1bath",98366836723,verified,Mich,Manhattan,Harlem,40.82154,-73.94925,United States,US,False,flexible,Entire home/apt,2012,$705 ,$141 ,2,23,6/13/2019,1.92,4,2,328,Enjoy!,
19416123,Contemporary Brooklyn living 20 min from Manhattan,89179870898,verified,Rachael,Brooklyn,Fort Greene,40.686640000000004,-73.97683,United States,US,True,moderate,Entire home/apt,2013,$974 ,$195 ,5,2,10/28/2018,0.19,5,2,0,#NAME?,
19416675,Tempting Loft in Lovely Neighborhood,46129082650,verified,Kim,Brooklyn,Bedford-Stuyvesant,40.69474,-73.95498,United States,US,True,moderate,Entire home/apt,2017,"$1,199 ",$240 ,10,2,11/24/2018,0.18,4,1,24,sorry: no smoking no pets no kids no parties ...,
19417227,A Gem In Downtown Flushing - Elegance and Class #1,12082146042,unconfirmed,Alan,Queens,Flushing,40.75548,-73.83041999999999,United States,US,False,flexible,Private room,2017,"$1,088 ",$218 ,2,0,,,3,2,362,#NAME?,
19417780,Private room in Apartment,97021276724,verified,Likowsky,Manhattan,Harlem,40.820809999999994,-73.95474,United States,US,True,moderate,Private room,2018,$314 ,$63 ,1,5,8/19/2018,0.4,4,1,0,,
19418332,"Gorgeous One-Bed in Williamsburg, BK",10293562829,verified,Janie,Brooklyn,Williamsburg,40.71239,-73.96775,United States,US,True,flexible,Entire home/apt,2003,$851 ,$170 ,10,1,8/8/2018,0.09,5,1,0,"Keep the place in the same condition as upon arrival. Be yourself, but please no wild parties, thanks :)",
19418884,Modern Home on the Park,82663332440,unconfirmed,Owen,Brooklyn,Fort Greene,40.68803,-73.9733,United States,US,True,moderate,Entire home/apt,2013,$648 ,$130 ,3,9,6/14/2019,0.75,3,1,0,No smoking and no pets.  No parties without prior approval.  Names and ages of all guests is required for booking.,
19419436,DaDukes Milky way,76553115546,unconfirmed,Alberto,Queens,Long Island City,40.76648,-73.94098000000001,United States,US,False,strict,Private room,2018,"$1,077 ",$215 ,1,30,6/10/2019,2.58,4,6,365,,
19419989,温馨方便COZY ROOM.1 min to subway& close to everything,36850415901,verified,Taylor,Queens,Elmhurst,40.73885,-73.87676,United States,US,False,flexible,Private room,2021,$627 ,$125 ,1,11,9/20/2018,0.93,2,1,0,"Enjoy your stay in our home, simply be respectful of our neighbors, no smoking and no pet allowed.",
19420541,Quiet place w/ private bathroom,47328021488,unconfirmed,Marine,Brooklyn,Crown Heights,40.67508,-73.91788000000001,United States,US,False,moderate,Private room,2014,$906 ,$181 ,1,19,6/24/2019,1.61,4,1,153,#NAME?,
19421093,"SPACIOUS, HIGH CELING, MODERN ROOM IN BROOKLYN",88293828259,unconfirmed,Rauf,Brooklyn,Flatbush,40.64613,-73.95354,United States,US,True,strict,Private room,2022,$277 ,$55 ,2,45,7/5/2019,3.69,4,2,294,,
19421646,Private bedroom w/pvt entrance near Times sq. 42D,92322961613,unconfirmed,John,Manhattan,Hell's Kitchen,40.75505,-73.99531,United States,US,True,flexible,Private room,2017,$214 ,$43 ,7,6,6/14/2019,0.5,2,47,332,Yes please:  •  make yourself at home; •  ask questions. Please no: •  shoes inside; •  smoking; •  food in the bedroom; •  parties; •  pets.,
19422198,Charming Brooklyn oasis,16722714745,verified,Roger,Brooklyn,Greenpoint,40.724779999999996,-73.9383,United States,US,True,strict,Entire home/apt,2007,"$1,195 ",$239 ,2,6,5/19/2019,0.53,3,1,49,,
19422750,Place for solo traveler (girls only) in LIC,3317587049,unconfirmed,Lucy,Queens,Long Island City,40.74753,-73.93918000000001,United States,US,True,flexible,Shared room,2006,$718 ,$144 ,1,15,7/1/2019,4.74,5,2,5,"Please just don't be loud at night or in the morning, we are just one wall/ceiling away from neighbors.  Also, just respect our things, wash dishes, keep it clean - the usual! - and everything will be peachy keen.",
19423303,Stunning Apartment in Heart of Williamsburg,21579123558,verified,Joey,Brooklyn,Williamsburg,40.7197,-73.95745,United States,US,False,strict,Entire home/apt,2015,$835 ,$167 ,3,3,10/3/2018,0.24,5,1,0,No Smoking ,
19423855,Entire Greenpoint / North Williamsburg Gem,77641050545,verified,Lola,Brooklyn,Greenpoint,40.72756,-73.95628,United States,US,False,flexible,Entire home/apt,2012,$141 ,$28 ,3,1,5/25/2019,0.67,2,1,36,"This is a quiet building and expect not to be disturbed, or to create disturbances.  There is a shared washer and dryer and it is not used after 11pm.  There is absolutely no smoking allowed in the building, on the fire escape or on the front steps.  We prefer that guests be non-smokers.  Guests are not permitted to bring pets, or have visitors with pets.  Bicycles can not be brought into the building.  The City of Boston collects trash two times per week and Guests are expected to observe local trash and re-cycling schedules.  There is a more detailed description available once reservation is completed.",
19424407,Cozy private room in the center of NYC 23B2,4002373826,verified,John,Manhattan,Hell's Kitchen,40.7551,-73.99556,United States,US,False,strict,Private room,2017,$335 ,$67 ,7,8,4/26/2019,0.73,4,47,362,,
19424959,Bright room near Prospect Park!,71718037892,verified,Joseph,Brooklyn,Prospect-Lefferts Gardens,40.662420000000004,-73.95607,United States,US,True,strict,Private room,2010,$203 ,$41 ,1,0,,,5,1,0,EACH ROOM HAS A FULL SIZED BED AND NORMALLY ROOMS ARE RENTED TO SINGLE GUESTS ONLY. OCCASIONALLY A COUPLE OF ADULTS WILL BE CONSIDERED BUT THERE IS AN ADDITIONAL CHARGE FOR MORE THAN ONE PERSON,
19425512,Nice one bedroom near United Nations,96631844227,unconfirmed,Stanley,Manhattan,Murray Hill,40.7503,-73.97605,United States,US,False,flexible,Entire home/apt,2022,$627 ,$125 ,30,0,,,4,50,365,"No smoking , The key located in front of the main door next to the railing   Inside of the locker , I will send the passcode to the guest prior check in , please remember to put the key back in the locker when check out .      With the key , please open with the passcode, take the key out , then close the locker , when you check out , please open the locker , place the key , then close the locker . Thank you  The Internet username : kenwang549 Password: columbus12345 The assigned parking in the behind of the building , you can follow the direction with the picture shown , and there is a sign for the parking space . Any questions or problems please contact me at (PHONE NUMBER HIDDEN) , or e mail me . Thank you",
19426064,Private cozy Room near Central Park & Museum Mile,17288597724,unconfirmed,Tarry,Manhattan,Upper East Side,40.7861,-73.95434,United States,US,True,flexible,Private room,2004,"$1,025 ",$205 ,1,57,5/4/2019,4.63,3,1,0,"Be respectful of our neighbors - No loud music or parties, please.",
19426616,Spacious Midtown one bedroom,21602527486,unconfirmed,Stanley,Manhattan,Murray Hill,40.748909999999995,-73.97719000000001,United States,US,False,moderate,Entire home/apt,2018,"$1,111 ",$222 ,30,1,5/23/2019,0.64,2,50,352,No smoking please. No pets.,
19427169,Soho Loft,56457847719,unconfirmed,Robert,Manhattan,SoHo,40.72292,-74.00456,United States,US,True,moderate,Entire home/apt,2006,$660 ,$132 ,1,0,,,3,1,0,"Please no parties,  and no loud noise past 11p, out of respect for the neighbors.  Please no smoking inside the building.  If you cook or otherwise eat in the apartment, please reasonably clean up after yourself.",
19427721,Beautiful & Quiet Room in Astoria Ditmars New York,68047113832,unconfirmed,Sabine,Queens,Ditmars Steinway,40.77685,-73.90824,United States,US,True,flexible,Private room,2004,$299 ,$60 ,2,58,5/29/2019,4.69,3,1,13,No Pet. No Smoking. ,
19428273,Cozy Private Room near Central Park,33160908826,verified,Taina,Manhattan,East Harlem,40.78875,-73.9476,United States,US,True,flexible,Private room,2009,$188 ,$38 ,1,39,6/23/2019,3.28,2,1,78,smoke-free campus.,
19428826,Bushwick Den,36373404608,verified,Ernesto,Brooklyn,Bushwick,40.69934,-73.92265,United States,US,True,strict,Private room,2004,"$1,173 ",$235 ,3,20,1/1/2019,1.63,2,2,0,Please respect our privacy on 1st and 2nd floors.  We do appreciate you being quiet when coming in very late at night.  If you need anything we are happy to help in any way.,
19429378,Charming Brooklyn 1 bedroom,26115893736,unconfirmed,Daphna,Brooklyn,Crown Heights,40.67499,-73.95729,United States,US,False,moderate,Entire home/apt,2008,$624 ,$125 ,2,16,11/19/2018,1.33,5,1,0,,
19429930,"Luxury Private Room 
15 mins From Manhattan",48621490033,unconfirmed,Brock,Queens,Ditmars Steinway,40.771879999999996,-73.91157,United States,US,True,flexible,Private room,2011,"$1,110 ",$222 ,6,6,4/26/2019,0.65,5,1,365,No Smoking No Pets,
19430482,"Studio in East Village  Manhattan, NYC",38510528332,verified,Phil,Manhattan,Lower East Side,40.72119,-73.98339,United States,US,False,moderate,Entire home/apt,2005,$198 ,$40 ,2,32,6/26/2019,2.67,2,1,3,,
19431035,Peaceful Parkside Place,9561596096,unconfirmed,Jackson,Brooklyn,Prospect-Lefferts Gardens,40.65529,-73.95971,United States,US,True,strict,Entire home/apt,2018,$590 ,$118 ,1,16,6/17/2019,1.32,3,1,0,"Be yourself, but please no wild parties, thanks :)",
19431587,Charming Apartment near Central Park with Balcony,98387046158,verified,Ariane,Manhattan,Upper West Side,40.7786,-73.97578,United States,US,True,strict,Entire home/apt,2019,$134 ,$27 ,7,1,8/20/2018,0.09,2,1,292,,
19432139,Pent House Studio Minutes From Manhattan,75913506328,unconfirmed,Sean,Brooklyn,Flatbush,40.65401,-73.96212,United States,US,False,strict,Entire home/apt,2021,$979 ,$196 ,1,22,3/24/2019,1.8,3,1,93,please be quiet and respectful of the other renters,
19432692,HIDDEN GEM near JFK w. PRIVATE ENTRANCE x PARKING.,21881170541,unconfirmed,Deborah,Queens,Rosedale,40.65695,-73.73617,United States,US,False,flexible,Entire home/apt,2014,$560 ,$112 ,1,106,6/29/2019,8.69,4,2,300,,
19433244,"Central Harlem, New York City",22050437933,verified,Lamar,Manhattan,Harlem,40.81857,-73.9402,United States,US,True,strict,Entire home/apt,2022,$773 ,$155 ,2,18,6/1/2019,1.45,5,1,0,,
19433796,Large Bedroom w/ PRIVATE BATHROOM,79158159112,verified,Jake,Brooklyn,Williamsburg,40.71111,-73.94736,United States,US,False,strict,Private room,2009,$71 ,$14 ,3,11,6/1/2019,0.88,5,1,9,"No smoking or additional guests, please.",
19434349,subletting for one week while traveling,55392015408,unconfirmed,Natia,Brooklyn,Bushwick,40.69952,-73.92623,United States,US,False,flexible,Private room,2022,$878 ,$176 ,7,0,,,3,1,0,THE HOUSE HAS 4 FLOORS AND IS SHARED WITH THE OWNER AND ONE OR TWO OTHER OCCUPANTS.   QUIET IS ASSURED (ESPECIALLY LATE EVENINGS) SMOKING IS NOT PERMITTED INSIDE THE HOUSE. THERE ARE NO LOCKS ON ROOM DOORS AS THESE ARE BEDROOMS IN A PRIVATE HOME.  PRIVACY IS ASSURED AND RESPECT OTHERS' BELONGINGS ,
19434901,SuperHost 1 block to  Times Square NYC City Center,7942143954,verified,Julian,Manhattan,Hell's Kitchen,40.75825,-73.98982,United States,US,False,moderate,Private room,2020,"$1,061 ",$212 ,1,54,6/19/2019,4.34,3,1,341,It's a quiet building on a quiet street with many working professionals. Please be respectful of our neighbors and no additional guests or parties. No Smoking. No Pets.,
19435453,LIVING ROOM COUCH amazing Williamsburg location,301942365,unconfirmed,Jonny,Brooklyn,Williamsburg,40.7155,-73.95724,United States,US,False,flexible,Shared room,2017,$361 ,$72 ,1,31,6/30/2019,2.81,4,1,82,"Just be respectful, that's really all I ask.  I love my home and hope you do too. No smoking inside, please smoke on the stoop.  No pets please.",
19436005,Luxury Bright Soho Loft,31363028460,verified,Courtney,Manhattan,SoHo,40.72182,-74.00255,United States,US,True,strict,Entire home/apt,2013,$545 ,$109 ,2,1,6/4/2019,0.86,5,1,360,Party hard just don't break things.,
19436558,Amazing 1b1b in Luxury Building near Empire State,41838942457,unconfirmed,Zhaoyun,Manhattan,Midtown,40.74843,-73.98259,United States,US,False,flexible,Entire home/apt,2022,$572 ,$114 ,2,2,8/11/2018,0.17,5,1,0,This is a quiet building with absolutely no smoking inside the property or on the steps.  ,
19437110,Cozy room in townhouse on tree-lined street,95635122847,verified,Jason,Brooklyn,Brooklyn Heights,40.69177,-73.99388,United States,US,False,strict,Private room,2009,$193 ,$39 ,1,44,7/6/2019,5.28,4,1,73,Please no smoking in the apartment.  There is a door to a balcony/fire escape for smoking.,
19437662,East Harlem Entire 1BR apt,86771357130,verified,Miho,Manhattan,East Harlem,40.78978,-73.94138000000001,United States,US,False,moderate,Entire home/apt,2005,"$1,009 ",$202 ,5,0,,,5,1,0,Have fun and please be respectful of the place. No parties Please do not smoke inside,
19438215,420 E 61 st Street SOLOW building 1BR furnished,85572903154,unconfirmed,Raymond,Manhattan,Upper East Side,40.75954,-73.96021999999999,United States,US,False,moderate,Entire home/apt,2003,$321 ,$64 ,30,0,,,2,10,89,,
19438767,Cozy and Clean Park Slope 2 bed Apt. Hidden Gem!,30299619664,verified,Dana,Brooklyn,Sunset Park,40.66073,-73.98983,United States,US,True,moderate,Entire home/apt,2014,$971 ,$194 ,3,23,7/1/2019,1.95,5,1,365,"No guests can be allowed access to the building/grounds that have not been mentioned at the time the reservation was made.   This is to keep everyone, including my neighbors, safe. No smoking. No pets. Campsite rules - leave it as you found it please! (trash cans are right out the back door on the other side of the patio fence). Being low key/quiet after 10pm when on the patio is much appreciated by our neighbors.",
19439319,Bright Artist's Loft on the Lower East Side,2045925035,verified,Liza,Manhattan,Lower East Side,40.71452,-73.98201,United States,US,True,strict,Entire home/apt,2020,$470 ,$94 ,4,2,1/2/2019,0.29,2,1,0,"No pets or smoking allowed any where on the premises.  Check-in is at 4:00 pm or later and check out is at 11 am.  After hours self check-in is available but MUST be PER-ARRANGED with host in advance. Bag storage is extra as are early check-in and late check out when possible. Guest are expected to be respectful of others in the building, neighbors, and the property.",
19439872,Harlem Historian/Musician near Columbia Room 2,48994356233,unconfirmed,Karen,Manhattan,Harlem,40.819320000000005,-73.95765,United States,US,False,strict,Private room,2008,$810 ,$162 ,3,4,1/1/2019,0.36,3,1,21,"Quiet hours 10pm -7AM. No additional people besides the reservation listing allowed in the apartment. Alcohol in moderation is allowed. No smoking, no drugs. Please, leave the apartment the way in which you found it! Females only.",
19440424,Private bedroom w/ pvt entrance near Times Sq. 52E,87751520929,verified,John,Manhattan,Hell's Kitchen,40.75577,-73.99687,United States,US,True,moderate,Private room,2012,$238 ,$48 ,30,3,6/2/2019,0.26,4,47,288,Feel free to use any dishware in the house but please load and run the dishwasher when you leave.,
19440976,Park Slope Brooklyn Penthouse Apartment,27074040188,verified,Michael,Brooklyn,South Slope,40.66154,-73.98283,United States,US,True,strict,Entire home/apt,2011,"$1,117 ",$223 ,2,35,6/29/2019,3.11,4,1,190,#NAME?,
19441528,NY HILTON CLUB 2 BR SUITE Luxury Holidays 2019,68028068033,unconfirmed,Mary,Manhattan,Midtown,40.761509999999994,-73.97894000000001,United States,US,True,strict,Entire home/apt,2010,$795 ,$159 ,2,3,1/3/2019,0.24,4,1,0,- I've got a parking space that I can rent to you separately for $20 a night,
19442081,Cozy private room in sunny Brooklyn apartment,48510304789,verified,Jennifer,Brooklyn,Flatbush,40.65195,-73.95645,United States,US,False,moderate,Private room,2020,$744 ,$149 ,1,7,4/24/2019,0.59,3,1,0,"Smoking is not permitted inside the condo.  We do not have any pets and we also ask that you don't bring yours. Please remove shoes and place in the basket upon entering the door. Although we understand the wear and tear that little ones make, we expect that all messes will be cleaned up as they happen and you will be respectful of the neighbors. Persons booking must be 18 years or older in order to rent.",
19442633,Cozy Modern Room in Greenpoint - GREAT LOCATION!,14883606475,unconfirmed,Tk,Brooklyn,Greenpoint,40.72225,-73.94328,United States,US,False,strict,Private room,2008,$824 ,$165 ,1,6,9/27/2018,0.49,2,1,0,Please respect the residents of the building by keeping noise down.,
19443185,Cozy and extremely well located Bushwick room,45880274576,unconfirmed,Michael,Brooklyn,Bushwick,40.701029999999996,-73.91901,United States,US,False,moderate,Private room,2011,"$1,055 ",$211 ,2,5,7/29/2018,0.41,4,2,0,This is a quiet building and we would only like guests that want quiet and privacy.  Absolutely no smoking on the premises.,
19443738,Spacious New York bedroom!,39051205708,verified,Kathryn,Manhattan,Washington Heights,40.84918,-73.93775,United States,US,False,strict,Private room,2008,$414 ,$83 ,1,31,5/5/2019,2.53,4,2,4,,
19444290,Cozy apartment in the heart of South Harlem,43872625940,verified,Jen,Manhattan,Harlem,40.807179999999995,-73.94906999999999,United States,US,False,strict,Entire home/apt,2011,$718 ,$144 ,2,3,1/7/2019,0.38,4,1,1,"There are two other units in this building, quiet, clean and respectful of neighbors is all we request. Regrets, no pets and no smoking.",
19444842,Cozy Entire Floor Private 2 Bedroom & Bath,69135882710,verified,Nuno,Brooklyn,Bedford-Stuyvesant,40.68497,-73.9543,United States,US,False,flexible,Private room,2004,$277 ,$55 ,3,38,6/23/2019,3.25,4,1,101,"House Rules The house rules are an important part of staying in this condo.  You will be sharing a living space with other guests and a high level of consideration, respect, communication and tolerance is expected from you.  They are meant to make your stay more pleasant, to prevent conflicts and to protect the property of any damage.  If you feel there is something that needs to be addressed and that is not covered in these rules, please make sure you communicate that to the host. 1.  Toilet · The toilettes can only be used with toilet paper provided.  Any other material disposed of will cause the plumbing system to back up and create drainage problems.  No tissues, cotton balls, tampons, Q-tips cotton swabs or any kind of sanitary products are allowed down the toilets.  · Any plumbing work due to clogged toilets will be charged to the guests. 2. Noise and Quiet Hours · Quiet hours are from 10pm until 7am.  During quiet hours radios and stereos may be played at a level not to be heard",
19445395,Perfect apartment for your NYC stay,38072168669,unconfirmed,Brett-Michael,Brooklyn,Bedford-Stuyvesant,40.68812,-73.92353,United States,US,True,moderate,Private room,2006,"$1,121 ",$224 ,3,2,8/3/2018,0.17,5,1,0,"Respect the apartment and neighbors.   Just three house rules:  I ask folks to keep noise down after 11 pm, take out the trash on trash day; and don't leave out any open food containers or dirty dishes.",
19445947,Brooklyn home with a View,10833736443,unconfirmed,Jasmine,Brooklyn,Williamsburg,40.7164,-73.95438,United States,US,True,moderate,Entire home/apt,2014,$913 ,$183 ,7,0,,,5,1,0,Treat it as your own and have a blast!,
19446499,Brooklyn Hostel bedroom 2. Bed 1,83062450535,unconfirmed,Melissa,Brooklyn,Bedford-Stuyvesant,40.69405,-73.95591999999999,United States,US,False,strict,Shared room,2021,$716 ,$143 ,1,12,6/8/2019,1.0,4,34,360,No Pets. No Smoking.,
19447051,Large private bedroom w/private bath in shared apt,42829599442,verified,Niccolo,Brooklyn,DUMBO,40.70328,-73.9899,United States,US,False,moderate,Private room,2011,$131 ,$26 ,1,1,6/30/2018,0.08,2,1,0,,
19447604,Cosy and Spacious New York Apartment,40618051454,unconfirmed,Maria Ivy,Queens,Long Island City,40.75192,-73.94074,United States,US,False,moderate,Entire home/apt,2017,$800 ,$160 ,2,6,1/3/2019,0.7,3,1,0,,
19448156,Privet room and bathroom in luxurious apartment.,6563665462,unconfirmed,Emma,Manhattan,Harlem,40.811859999999996,-73.93921999999999,United States,US,True,strict,Private room,2005,$622 ,$124 ,3,6,6/23/2019,0.52,3,1,0,#NAME?,
19448708,Quaint One-Bedroom close to the UN !,75988048146,unconfirmed,Jenya,Manhattan,Midtown,40.75468,-73.96563,United States,US,True,moderate,Entire home/apt,2010,$859 ,$172 ,4,11,6/23/2019,0.93,4,1,1,,
19449261,Cute and Convenient Park Slope Room,10512014083,unconfirmed,Jana,Brooklyn,South Slope,40.6652,-73.98191,United States,US,False,strict,Private room,2008,$965 ,$193 ,5,4,10/2/2018,0.35,4,2,0,,
19449813,Ma-Don Hideaway,69819248094,verified,Lillie & Donald,Brooklyn,Bedford-Stuyvesant,40.690690000000004,-73.92651,United States,US,True,flexible,Entire home/apt,2017,"$1,092 ",$218 ,2,13,1/2/2019,1.26,2,1,1,,
19450365,Gorgeous room in luxury apartment (2),67056748959,verified,Jelani,Brooklyn,Clinton Hill,40.68697,-73.96063000000001,United States,US,False,strict,Private room,2005,$536 ,$107 ,3,10,6/5/2019,0.87,3,2,150,please be quiet and respectful of the other renters,
19450918,The Yorkville Gem,96634527635,unconfirmed,Janine,Manhattan,Upper East Side,40.780229999999996,-73.95069000000001,United States,US,False,strict,Shared room,2003,$320 ,$64 ,7,15,7/1/2019,3.46,2,1,4,"Enjoy your stay in our home, simply be respectful of our neighbors, no smoking and no pet allowed.",
19451470,1940's Historic Brooklyn Townhome,73802352019,verified,Mark,Brooklyn,East Flatbush,40.63863,-73.93826,United States,US,True,flexible,Entire home/apt,2012,$597 ,$119 ,5,2,6/19/2019,0.81,4,1,174,No Smoking No Pets,
19452022,"Sunny, CENTRAL Williamsburg Room with Rooftop",89064475221,verified,Samantha,Brooklyn,Williamsburg,40.714459999999995,-73.95992,United States,US,True,strict,Private room,2015,$297 ,$59 ,1,4,8/13/2018,0.33,2,1,0,Please leave the home as it was when you entered :),
19452574,Cozy room w/ private balcony and incredible views!,59769247665,unconfirmed,Lucia,Manhattan,East Village,40.72777,-73.98568,United States,US,True,moderate,Private room,2017,$732 ,$146 ,6,5,5/20/2019,0.43,3,1,11,,
19453127,Incredible Private Room in prime Bushwick,49268723066,verified,Rebecca,Brooklyn,Bushwick,40.69585,-73.93094,United States,US,False,moderate,Private room,2012,$243 ,$49 ,7,0,,,4,2,0,,
19453679,NYC HOME BASE: Train @ 900ft; midtown 30min!,64552980785,unconfirmed,Jeff,Queens,Hollis,40.711040000000004,-73.78175,United States,US,True,moderate,Entire home/apt,2010,$121 ,$24 ,2,17,6/22/2019,1.5,3,7,10,"Quiet. Residential. No smoking, no pets",
19454231,Amazing Brooklyn,92537381883,unconfirmed,Myrna,Brooklyn,Sheepshead Bay,40.60369,-73.94511,United States,US,True,strict,Private room,2012,$905 ,$181 ,7,8,5/17/2019,0.71,3,2,81,Smoking is not permitted inside the house.,
19454784,Spacious Room and PRIVATE bath in Harlem Townhouse,50187428877,unconfirmed,Byron,Manhattan,Harlem,40.8072,-73.94313000000001,United States,US,True,flexible,Private room,2022,$805 ,$161 ,2,13,5/8/2019,1.42,2,1,185,No smoking or pets.,
19455336,"1BR in Newly Renovated Apartment - Rm B, Bushwick!",81863590348,unconfirmed,Ada,Brooklyn,Williamsburg,40.705220000000004,-73.93075,United States,US,False,flexible,Private room,2012,$390 ,$78 ,1,10,5/23/2019,0.84,4,7,310,"Please be quiet, kind and respectful. This building has both renters and many home occupants, it's a great place to make it your home for a stay! Please be mindful of other people on the building, and keep all questions to me, your host!",
19455888,Welcoming Brooklyn Artist's Room in Williamsburg,60083588206,unconfirmed,Floriana,Brooklyn,Williamsburg,40.70831,-73.96191999999999,United States,US,True,moderate,Private room,2011,"$1,015 ",$203 ,1,11,3/11/2019,0.89,4,1,0,"This is a residential neighborhood, quiet is important.  No smoking. No pets.",
19456441,"1BR in Newly Renovated Apartment - Rm C, Bushwick!",68988615736,verified,Ada,Brooklyn,Williamsburg,40.7052,-73.93016999999999,United States,US,True,moderate,Private room,2012,$288 ,$58 ,1,6,6/9/2019,0.53,4,7,343,"Please be clean and respectful of the apartment, building and neighbors. No smoking indoors. Pets are allowed on a case by case basis.",
19456993,Zen Brooklyn,63242703803,unconfirmed,Gina,Brooklyn,Fort Greene,40.68731,-73.9751,United States,US,True,strict,Private room,2019,$956 ,$191 ,1,8,9/1/2018,0.66,2,2,0,,
19457545,Enjoy this cozy private room near Times Sq. 53E4,96444338778,unconfirmed,John,Manhattan,Hell's Kitchen,40.75561,-73.99543,United States,US,True,strict,Private room,2014,$570 ,$114 ,30,3,5/30/2019,0.92,3,47,345,,
19458097,Stay in this sunny private room near Times Sq 41D3,80027128875,unconfirmed,John,Manhattan,Hell's Kitchen,40.75564,-73.99564000000001,United States,US,True,moderate,Private room,2015,$311 ,$62 ,7,9,5/25/2019,1.15,5,47,326,This is not a party building. It is quiet and peaceful. Anyone who is looking to party/smoke should look elsewhere.,
19458650,Bushwick Duplex 3 min walk to subway,26244518405,verified,Alexandria,Brooklyn,Bushwick,40.6897,-73.921,United States,US,False,flexible,Private room,2006,$708 ,$142 ,1,4,7/13/2018,0.32,2,1,0,"No Smoking, No additional guests,",
19459202,Ladies Bedroom Bed 2,27510082682,verified,Melissa,Brooklyn,Bedford-Stuyvesant,40.69303,-73.95636,United States,US,False,moderate,Shared room,2016,"$1,159 ",$232 ,1,17,6/23/2019,1.39,3,34,365,No Smoking,
19459754,A get away home,59008998106,verified,Gardell,Brooklyn,Prospect-Lefferts Gardens,40.65912,-73.94735,United States,US,True,moderate,Entire home/apt,2009,$652 ,$130 ,1,9,6/15/2019,0.77,3,1,89,,
19460307,Magic Waters - Brooklyn Refuge,1144064579,verified,Paul,Brooklyn,Bedford-Stuyvesant,40.68202,-73.92295,United States,US,False,flexible,Entire home/apt,2017,$363 ,$73 ,2,25,6/22/2019,2.17,2,1,321,#NAME?,
19460859,Brooklyn Hostel Bedroom 2. Bed 3,77355270730,unconfirmed,Melissa,Brooklyn,Bedford-Stuyvesant,40.6944,-73.95674,United States,US,False,strict,Shared room,2019,$475 ,$95 ,3,14,6/28/2019,1.14,3,34,365,,
19461411,Charming 1 Bedroom in Ideal Location,63125076986,unconfirmed,Laural,Manhattan,Gramercy,40.73557,-73.98038000000001,United States,US,True,flexible,Entire home/apt,2007,$433 ,$87 ,3,1,7/15/2018,0.08,3,1,0,"Please no parties,  and no loud noise past 11p, out of respect for the neighbors.  Please no smoking in the building.  If you cook or otherwise eat in the apartment, please reasonably clean up after yourself.",
19461964,Ladies bedroom Bed 4,8374733574,verified,Melissa,Brooklyn,Bedford-Stuyvesant,40.69299,-73.95675,United States,US,True,flexible,Shared room,2014,$960 ,$192 ,1,21,7/4/2019,1.77,3,34,365,No Smoking No Pets,
19462516,Cute studio in the Upper West Side.,78248317927,unconfirmed,Ai,Manhattan,Upper West Side,40.79392,-73.97288,United States,US,True,strict,Entire home/apt,2005,$777 ,$155 ,2,12,5/27/2019,1.13,2,1,5,No pets allowed (sadly!) and no smoking allowed.,
19463068,Cozy Long Island City Studio close to Manhattan,92478459048,verified,Izi,Queens,Long Island City,40.75286,-73.93539,United States,US,False,flexible,Entire home/apt,2010,$541 ,$108 ,3,32,6/29/2019,2.73,3,1,77,"Enjoy your stay in our home, simply be respectful of our neighbors, no smoking and no pet allowed.",
19463620,Spacious one bedroom with gym and roof top,61299980792,unconfirmed,J,Manhattan,Upper West Side,40.7956,-73.96701999999999,United States,US,True,strict,Entire home/apt,2021,$805 ,$161 ,15,1,11/30/2018,0.14,2,1,365,"Just be cool, we love our home and love our neighborhood - we're thrilled to have the opportunity to share it with you.",
19464173,Sunny Room in Brooklyn 2,93336248517,verified,Karen,Brooklyn,East Flatbush,40.64617,-73.92397,United States,US,False,strict,Private room,2009,$91 ,$18 ,3,7,6/4/2019,0.57,4,3,319,"I am opening my home to responsible renter(s) who are  looking for hotel alternative. I have consideration for your privacy and comfort and expect the same from you. Interaction can be as little or as much as you desire.  Smoking is allowed on Patio.  Basically, there are few house rules. Dog limited to owners bedroom and downstairs common space and patio.  Oh, did i mention there is a hot tub on the  patio, clocking in at 101 degrees.  Feel free to ask Boston question as I have about 40 years experience here.   ",
19464725,Sonder | View 34 | Vibrant 1BR + Rooftop,76292209820,verified,Sonder,Manhattan,Murray Hill,40.744440000000004,-73.97355,United States,US,True,flexible,Entire home/apt,2003,$781 ,$156 ,29,0,,,2,96,332,,
19465277,Flatiron Oasis Off 5th Ave,67739639166,verified,Quincy,Manhattan,Flatiron District,40.740429999999996,-73.99277,United States,US,False,flexible,Entire home/apt,2010,$348 ,$70 ,3,5,5/20/2019,0.43,4,1,362,No Smoking,
19465830,Prime Location! The Mid/Upper East side Grey Room,11173181904,verified,Giovanna,Manhattan,Upper East Side,40.76258,-73.96252,United States,US,True,flexible,Private room,2013,$446 ,$89 ,1,82,6/16/2019,7.01,2,1,51,No Smoking No Pets,
19466382,Private Room in apartment (1),19495354586,unconfirmed,Jelani,Brooklyn,Clinton Hill,40.6867,-73.9612,United States,US,False,moderate,Private room,2009,$74 ,$15 ,4,6,6/20/2019,0.87,2,2,156,,
19466934,Private Room in Ridgewood with Rooftop access!,43045832987,verified,Catherine,Queens,Ridgewood,40.70254,-73.90679,United States,US,True,moderate,Private room,2006,"$1,004 ",$201 ,2,2,7/27/2018,0.17,2,1,0,"Thank you for your reservation. By placing your reservation online you indicated that you accepted the terms and conditions which have been printed below.  Please review your reservation summary as below - then print, sign and return the agreement to:  (EMAIL HIDDEN) or fax it to (PHONE NUMBER HIDDEN) or  mail it to: Spare Suite, Inc., 119 Braintree Street, Suite 510, Boston, MA 02134, USA Upon receipt, we will send you the welcome document with check in instructions and how to get your keys. ------------------------------------------------------------------------ ------------------------------------------------------------------------ Terms of the Agreement: BOOKING AND REFUND POLICY Once booked your reservation is guaranteed for the check in and check out times and dates specified. All reservations must be paid in advance, in full for the entire period of stay.  All reservations are final, and NON REFUNDABLE UNDER ANY CIRCUMSTANCES.  If you feel you may need to cancel once booked, yo",
19467487,Sunny Williamsburg 1 BR near Peter Luger's,21640045515,verified,Rikki,Brooklyn,Williamsburg,40.7108,-73.9618,United States,US,True,moderate,Entire home/apt,2021,$367 ,$73 ,1,3,11/4/2018,0.33,2,1,0,,
19468039,Leli’s Modern Pad - Queen Bedroom,81020004106,unconfirmed,Leli,Brooklyn,East New York,40.67502,-73.87276999999999,United States,US,True,strict,Private room,2022,$939 ,$188 ,2,8,6/16/2019,1.76,3,4,41,,
19468591,"Cozy, clean apartment in Harlem near the subway",21952218194,verified,Sarah,Manhattan,East Harlem,40.78866,-73.9507,United States,US,False,strict,Entire home/apt,2006,$628 ,$126 ,1,0,,,2,1,0,No Smoking No Pets,
19469143,Leli’s Modern Pad - Double Room,56328394104,verified,Leli,Brooklyn,East New York,40.67519,-73.87371999999999,United States,US,False,moderate,Private room,2007,$391 ,$78 ,2,6,6/12/2019,0.68,2,4,1,100% smoke free. Quiet hours in this building are from 10pm-6am.  Garbage is collected by the city of Boston on Tuesday and Friday mornings and must be placed outside in designated area for pick up.,
19469696,Hustler's Paradise 003 Private Room Lower Level,50878514551,verified,Amardeep,Staten Island,Concord,40.59691,-74.087,United States,US,False,strict,Private room,2021,$94 ,$19 ,4,26,6/25/2019,2.14,2,7,359,To treat the place with utmost respect.,
19470248,Captain's Cabin 001/Apmnt like,68866710953,unconfirmed,Simranjeet,Staten Island,Concord,40.605309999999996,-74.08893,United States,US,False,flexible,Private room,2010,$503 ,$101 ,4,16,7/1/2019,1.3,4,7,334,,
19470800,Country charm in the midst of hipster Brooklyn,43006163445,unconfirmed,Harold,Brooklyn,Windsor Terrace,40.64792,-73.97646999999999,United States,US,True,strict,Entire home/apt,2013,$122 ,$24 ,5,0,,,2,1,87,"- No smoking / pets / shoes (inside) - Please use coasters on any wooden or lacquer surfaces  - No groups of guests - Please pick up after yourself. Dishes in the dishwasher, etc. - Only registered guests may stay overnight. Also, I try to be as green as possible: - Heat and AC should be used sparingly, when needed - Recycling is co-mingled (makes it much easier) - Compost (of non-animal products) - Please turn lights off when you are not using them",
19471353,Captains Cabin 002/Apmnt like,55080550821,verified,Simranjeet,Staten Island,Concord,40.606970000000004,-74.08765,United States,US,False,strict,Private room,2016,$905 ,$181 ,4,11,7/6/2019,0.99,3,7,337,just respect people in the other 5 apartments.,
19471905,1 BED IN LIVING ROOM NEAR Q SUBWAY AVE U,62110614100,unconfirmed,Abby,Brooklyn,Sheepshead Bay,40.5972,-73.95777,United States,US,False,strict,Shared room,2007,$722 ,$144 ,5,12,7/1/2019,1.07,2,10,301,No smoking!  Please be respectful of our neighbors and keep noise to a minimum.  Voices and music outside carry far.,
19472457,Loft in Downtown Brooklyn - entire apartment,31624051538,unconfirmed,Robert,Brooklyn,Downtown Brooklyn,40.69206,-73.98445,United States,US,False,moderate,Entire home/apt,2016,"$1,186 ",$237 ,4,5,1/1/2019,0.44,2,1,0,"The art is for your enjoyment.  Please do not touch or move anything. Please make up beds with fresh linens and wash towels and linens before you leave.  Leave house broom clean.  Dishes should be washed and put away. Sorry, no pets and no smoking.  There are age restrictions for guests.",
19473010,Comfortable Brooklyn Apartment with Personality,84611271233,unconfirmed,Dana,Brooklyn,Bedford-Stuyvesant,40.695570000000004,-73.94033,United States,US,True,strict,Entire home/apt,2010,$146 ,$29 ,3,5,12/31/2018,0.42,4,1,3,,
19473562,Large beautiful home in the center of Manhattan!,46902399217,verified,Joey,Manhattan,Hell's Kitchen,40.763220000000004,-73.99253,United States,US,True,moderate,Entire home/apt,2008,$481 ,$96 ,3,6,12/10/2018,0.51,5,2,76,No Smoking  No Parties No Excess Noise - We have neighbors in the building.,
19474114,Sunny & colorful room in Bushwick w/ yard access,16412457260,unconfirmed,Elene,Brooklyn,Bushwick,40.705529999999996,-73.91938,United States,US,True,strict,Private room,2022,$548 ,$110 ,2,29,6/20/2019,2.46,2,2,143,"Guests are required to take their shoes off in the house (we have slippers for all), and to be respectful of the home.",
19474666,Conveniently located sunny room near Times Sq 63F4,4255594957,verified,John,Manhattan,Hell's Kitchen,40.753859999999996,-73.99562,United States,US,False,flexible,Private room,2017,$781 ,$156 ,7,6,5/18/2019,0.73,2,47,357,"We do not permit smoking, pets or parties. Thank you!",
19475219,"trip NYC - your Couch - clean, cheap, close to all",8879181864,verified,Kevin4,Queens,Elmhurst,40.73753,-73.87054,United States,US,False,moderate,Shared room,2018,$74 ,$15 ,1,19,6/20/2019,1.71,4,2,271,This is a quiet building with great neighbors so please treat it with respect when late at night.  This is our 2nd home so please treat it like your own and leave it like you found it.  No Smoking (other than on the deck) and no pets please. Thanks!,
19475771,"*NEW* Bright, Spacious & Quiet Bedroom by Times SQ",38768882223,verified,Leivan,Manhattan,Hell's Kitchen,40.76129,-73.98859,United States,US,True,moderate,Private room,2004,$346 ,$69 ,2,55,6/23/2019,4.61,2,1,49,,
19476323,Big 1BR in PRIME Bushwick! 2 blocks to L Train!,52773248113,unconfirmed,Nish,Brooklyn,Bushwick,40.70148,-73.91834,United States,US,True,moderate,Entire home/apt,2007,"$1,004 ",$201 ,3,9,6/1/2019,0.74,4,1,0,Please respect the residents by keeping noise down and absolutely no smoking.  There is no bag storage at the building.  Please do not ask the concierges.  Thank you.,
19476876,"Estudio 1 Brooklyn, NY.",98290325543,verified,Brigit,Brooklyn,Cypress Hills,40.688159999999996,-73.87193,United States,US,False,flexible,Entire home/apt,2005,"$1,106 ",$221 ,2,34,6/24/2019,2.8,3,2,120,"No smokers, please.  ",
19477428,Northern Manhattan Getaway,6815176612,verified,Melinda,Manhattan,Inwood,40.86755,-73.9287,United States,US,False,strict,Private room,2004,$663 ,$133 ,2,21,6/23/2019,1.82,3,1,141,Please be respectful of our belongings and leave things as your found them.,
19477980,Beautiful Designer DUMBO Loft,91810736035,verified,Michael,Brooklyn,Vinegar Hill,40.7023,-73.98394,United States,US,False,flexible,Entire home/apt,2005,$994 ,$199 ,14,0,,,4,1,0,,
19478533,5min to Manhattan apartment in new luxury building,88566175924,verified,Summer,Queens,Long Island City,40.7456,-73.94366,United States,US,False,strict,Entire home/apt,2022,$872 ,$174 ,1,7,5/27/2019,0.61,4,2,0,No Smoking No Pets,
19479085,Cute NYC studio in the heart of East Village,54367799153,unconfirmed,Nat,Manhattan,East Village,40.72521,-73.98316,United States,US,True,strict,Entire home/apt,2011,"$1,004 ",$201 ,5,2,1/2/2019,0.22,3,1,0,No smoking in condo or hallways of building.  No parties.  Well-behaved pets OK.  Quiet and respectful of our neighbors.,
19479637,Dekalb Stop Flat,40378143577,verified,Tyler,Queens,Ridgewood,40.70772,-73.9118,United States,US,True,strict,Private room,2007,$260 ,$52 ,2,0,,,4,1,88,No Smoking No Pets,
19480189,Crash Pad,3115230397,unconfirmed,Rev. Simone,Queens,Jamaica,40.6837,-73.79343,United States,US,True,moderate,Private room,2017,$572 ,$114 ,2,1,5/19/2019,0.58,4,1,180,"Please be respectful of our neighbors and keep voices, music, etc at a reasonable volume.  Please be tidy and take good care of our home. No shoes on the area rug, be neat with food and drink.",
19480742,Brooklyn Spot,8037390569,verified,Virginie,Brooklyn,Crown Heights,40.67664,-73.95172,United States,US,False,strict,Entire home/apt,2009,$112 ,$22 ,1,0,,,4,1,0,We want you to treat our home as your own.  We have a few house rules- -Extra visitors and overnight guests are not allowed. - No pets -No smoking -Cooking facilities are not available -Minimum 2 night stay,
19481294,3 Bedroom Apartment • 20 Minutes from Time Square,84791170771,unconfirmed,Mehedhi,Queens,Woodside,40.74225,-73.90553,United States,US,True,moderate,Entire home/apt,2019,"$1,141 ",$228 ,3,55,6/19/2019,4.5,3,1,133,,
19481846,Stunning 1BR in Midtown East by Sonder,47965962167,unconfirmed,Sonder,Manhattan,Murray Hill,40.744170000000004,-73.97206,United States,US,True,flexible,Entire home/apt,2005,$69 ,$14 ,29,0,,,4,96,316,You can use our home as you would like us to use yours. We invite you to use our kitchen as you please. We would love to come home to our apartment in the manner we will leave it for you: clean and ready to use.,
19482399,Sonder | Hanover Square | Elegant 1BR + Rooftop,68714471075,unconfirmed,Sonder,Manhattan,Financial District,40.70362,-74.00804000000001,United States,US,False,flexible,Entire home/apt,2018,$157 ,$31 ,29,0,,,5,96,333,#NAME?,
19482951,Sonder | Hanover Square | Classic 1BR + Rooftop,96352672688,unconfirmed,Sonder,Manhattan,Financial District,40.705690000000004,-74.00929000000001,United States,US,True,strict,Entire home/apt,2021,$958 ,$192 ,29,0,,,4,96,284,We live in a quiet neighborhood with respectful neighbors and we ask that you show them the same respect.  No unreasonable noise after 11pm - no smoking - no parties.,
19483503,Sonder | Hanover Square | Sunny 1BR + Rooftop,80650704444,verified,Sonder,Manhattan,Financial District,40.703759999999996,-74.00833,United States,US,True,strict,Entire home/apt,2011,$982 ,$196 ,29,2,12/4/2018,0.24,5,96,323,No smoking or parties. Please be courteous of my cordial neighbors.,
19484056,Sonder | Hanover Square | Airy 1BR + Rooftop,85938808186,unconfirmed,Sonder,Manhattan,Financial District,40.705059999999996,-74.0079,United States,US,True,flexible,Entire home/apt,2022,$552 ,$110 ,29,1,10/1/2018,0.11,3,96,220,No Smoking No Pets,
19484608,Sonder | 21 Chelsea | Grand 1BR + Rooftop,91739935260,verified,Sonder,Manhattan,Chelsea,40.74154,-73.99526999999999,United States,US,False,strict,Entire home/apt,2013,$436 ,$87 ,29,0,,,3,96,311,,
19485160,Colorful 1BR in Midtown East by Sonder,37260230172,unconfirmed,Sonder,Manhattan,Murray Hill,40.7445,-73.97222,United States,US,True,flexible,Entire home/apt,2020,$744 ,$149 ,29,0,,,2,96,324,"House Rules 1. Check-in is 4 pm local time. If the unit is ready earlier, we’ll let you know. Check-out is normally 11 am local time, but we’d be happy to extend it as long as we don’t have a cleaning scheduled. Just let us know.  2. All bookings require a security deposit of at least $300, which will be refunded within 7 days of your check-out. 3. For security measures we require all guests to provide proof of identification through ID verification on our own website. In order to check in we'll need a photo of your ID.  4. Our cancellation policy is as shown on our ad and defined by the site you are booking through.  5. Don’t let $300 go up in smoke. There's no smoking allowed in any Flatbook and a $300 fine for breaking this rule.  6. Unfortunately we don’t allow pets in any of our apartments. 7. Unless you’re staying in one of our specialty apartments, we don’t allow parties or excessive noise. 8. If we find the place very messy, we have to charge an extra $40 for every extra hour o",
19485712,Cozy Apartment 15 Minutes from Grand Central,24061931084,unconfirmed,Amanda,Queens,Sunnyside,40.746109999999994,-73.91548,United States,US,True,strict,Entire home/apt,2007,$159 ,$32 ,2,14,9/29/2018,1.12,3,1,0,#NAME?,
19486265,Room to rest near LaGuardia. Steps to subway!,73101932831,verified,Kazuya,Queens,Jackson Heights,40.7488,-73.88045,United States,US,True,flexible,Private room,2004,"$1,133 ",$227 ,30,1,4/1/2019,0.3,2,103,186,"Be kind, courteous, just as how you would want to be treated. No overnight guests or loud noises at night as it is a building full of young professionals.",
19486817,Presidential Comfort,69374244847,unconfirmed,Cathy,Queens,Far Rockaway,40.60395,-73.74904000000001,United States,US,True,strict,Private room,2009,$182 ,$36 ,1,27,7/7/2019,2.21,3,1,177,"For instant book, only 4 or less guests. Otherwise send me a message, and we can chat about it. Smoking allowed on balcony or roof deck.",
19487369,CLOSE TO EVERYWHERE IN NYC 1,10350999098,unconfirmed,Ana,Queens,Astoria,40.75523,-73.91297,United States,US,True,strict,Private room,2019,$275 ,$55 ,2,30,6/26/2019,2.54,5,3,132,,
19487922,Nice Room Near Roosevelt Jackson Heights Station,62942743325,verified,Kazuya,Queens,Woodside,40.74033,-73.89341999999999,United States,US,False,moderate,Private room,2013,$58 ,$12 ,30,1,1/25/2019,0.18,3,103,269,"No pets, no smoking, no more than 6 guests. We welcome families traveling for pleasure.  No corporate customers. 2 nights minimum.",
19488474,cozy one bed room only girls,37269152238,verified,Dian,Manhattan,Stuyvesant Town,40.733909999999995,-73.97856999999999,United States,US,False,flexible,Private room,2010,$797 ,$159 ,4,1,7/6/2018,0.08,4,1,0,"No smoking in apartment, in building or within 50 feet of entrance.  No pets.  Quiet and respectful of our neighbors.",
19489026,New york Multi-unit building,87165311735,verified,Clarise,Brooklyn,Flatbush,40.64258,-73.95952,United States,US,True,moderate,Private room,2011,"$1,003 ",$201 ,30,0,,,3,2,365,"Ideally a person that is respectful of my home , non smokers and no parties",
19489579,Spacious & charming apartment in the heart of NYC,60626332131,verified,Elizabeth,Manhattan,Midtown,40.75486,-73.97251999999999,United States,US,True,moderate,Private room,2015,$513 ,$103 ,3,8,9/16/2018,0.65,4,1,0,,
19490131,Designer Waterfront Brooklyn Home with a View,87937321234,verified,Naheel,Brooklyn,Williamsburg,40.715740000000004,-73.9665,United States,US,True,strict,Entire home/apt,2018,$64 ,$13 ,3,11,4/9/2019,0.94,3,1,0,"No smoking. Please do not use the fireplace. The porch is a lot fo fun, but make sure to keep Volume down after 11pm as neighbors can hear everything.",
19490683,Huge Moroccan Loft in Little Italy,32709421647,unconfirmed,Jonathan,Manhattan,Little Italy,40.71737,-73.99861,United States,US,False,moderate,Entire home/apt,2003,$696 ,$139 ,2,2,8/14/2018,0.18,3,1,0,No Smoking.,
19491235,"Lovely apt heart of manhattan, location location",42269673174,verified,César Julio,Manhattan,Hell's Kitchen,40.76117,-73.99169,United States,US,True,moderate,Private room,2012,$209 ,$42 ,22,1,8/1/2018,0.09,4,1,187,,
19491788,Luxury Greenwich Village Studio,51400026910,verified,Jonathan,Manhattan,Greenwich Village,40.73036,-73.99358000000001,United States,US,True,flexible,Entire home/apt,2011,$986 ,$197 ,4,1,7/11/2018,0.08,4,1,16,NO Smoking. Pets allow -- Breed Restrictions Apply.,
19492340,"Light-Filled 2 BR in Brooklyn, A Perfect Hideaway",10273186046,unconfirmed,Nïco,Brooklyn,Clinton Hill,40.6955,-73.96446,United States,US,False,strict,Entire home/apt,2020,$890 ,$178 ,1,35,6/30/2019,2.87,5,1,0,No Smoking,
19492892,Cozy studio at UWS near Columbia university,83888831788,unconfirmed,Yooin,Manhattan,Morningside Heights,40.809979999999996,-73.95756,United States,US,False,strict,Entire home/apt,2019,$348 ,$70 ,1,25,6/25/2019,2.07,4,1,0,,
19493445,the family room,5924240953,unconfirmed,Hiram,Brooklyn,Bushwick,40.69164,-73.91513,United States,US,True,strict,Shared room,2005,$991 ,$198 ,1,9,7/1/2019,1.03,3,2,365,,
19493997,1 Bedroom 3R in Authentic Brooklyn Brownstone,27605464166,unconfirmed,Vincent,Brooklyn,Bedford-Stuyvesant,40.69101,-73.93773,United States,US,True,strict,Private room,2013,$423 ,$85 ,1,29,7/1/2019,2.46,5,6,288,"No smoking, pets or permitted",
19494549,Large 1 bedroom apartment near Prospect Park,71003385703,unconfirmed,Stacey,Brooklyn,South Slope,40.665009999999995,-73.98111999999999,United States,US,False,strict,Entire home/apt,2022,$372 ,$74 ,2,8,5/13/2019,0.66,2,1,0,,
19495102,New York Home at Times Square,26165889417,verified,Mayur,Manhattan,Theater District,40.75934,-73.98755,United States,US,False,flexible,Private room,2020,$409 ,$82 ,4,14,6/29/2019,1.98,4,1,33,,
19495654,Brooklyn Comfy Room--20 minutes to Manhattan,25125407509,unconfirmed,Marisha,Brooklyn,Bushwick,40.6914,-73.90675,United States,US,False,strict,Private room,2013,$839 ,$168 ,4,4,10/16/2018,0.36,4,2,364,,
19496206,FORDHAM DELIGHT,40346254763,verified,Oscar,Bronx,University Heights,40.86255,-73.90669,United States,US,False,strict,Private room,2021,$687 ,$137 ,3,52,6/24/2019,4.79,2,2,0,,
19496758,A spacious room for females in Clinton Hill aptmnt,47461780064,verified,Priyanka,Brooklyn,Bedford-Stuyvesant,40.68932,-73.95886999999999,United States,US,True,flexible,Private room,2018,$58 ,$12 ,2,2,1/13/2019,0.19,3,1,0,,
19497311,Perfect location for NYC getaway,92633544563,verified,Angela,Brooklyn,Williamsburg,40.71648,-73.94452,United States,US,True,moderate,Entire home/apt,2022,$772 ,$154 ,1,52,6/23/2019,4.36,5,1,44,No Smoking.  No Pets.,
19497863,Lovely Bushwick oasis,95230187033,verified,Alicia,Brooklyn,Bushwick,40.69972,-73.92362,United States,US,True,strict,Private room,2004,$88 ,$18 ,3,0,,,4,1,0,"1. Please keep a quiet environment 2. I want friendly guests. Please be friendly to each other or other tenants and help me to manage situations easily.  3. No smoking in the room; smoking should be outside of the building 4. No pets 5. Fire pre-cauction by using kitchen; If cooking food, leaving kitchen with interruption should be less than one minute. There was a tenant in 6 weeks, cooking food and leaving kitchen for more than 30 minutes and forgot to turn off switch 3 times. One year it will have 25 times forgoting to turn off fire switch. Two tenants will be 50 times in one year. It will cause fire. This behavior is not acceptable. To cook food without a person in the kitchen is not acceptable. 6. Becareful of clots in the pipe for bathroom and kitchen. Don't remove the bathroom filter when taking shower. Flush the toilet by holding the switch for 4-5 seconds for full flush. You may flush the toilet first; when there is no clots, you can use. Please don't dump food in the kitchen ",
19498415,"Comfort, clean and close to everything.",93467497553,unconfirmed,Al,Queens,Flushing,40.75819,-73.81976999999999,United States,US,True,moderate,Private room,2010,$702 ,$140 ,1,6,8/11/2018,0.5,2,1,0,No Smoking.  No Pets.,
19498968,Bedroom & Private Bathroom in Brooklyn!,54102406147,unconfirmed,Tami,Brooklyn,East Flatbush,40.648340000000005,-73.95161,United States,US,True,strict,Private room,2018,$409 ,$82 ,1,37,6/25/2019,3.68,3,1,84,NO Smoking.  Pets permitted with fee.,
19499520,Room available in Bushwick duplex,77065646109,verified,Lee,Brooklyn,Bushwick,40.69298,-73.90685,United States,US,False,strict,Private room,2013,$253 ,$51 ,5,1,8/18/2018,0.09,3,1,17,No smoking and no pets.,
19500072,Brooklyn Loft - close to Pratt!!! Great location!,2492182447,unconfirmed,Brittany,Brooklyn,Clinton Hill,40.68962,-73.96061999999999,United States,US,False,flexible,Entire home/apt,2019,"$1,066 ",$213 ,6,16,6/20/2019,1.58,5,1,168,NO Smoking. Pets allowed with non-refundable pet fee.,
19500625,Harlem Peace Quarters,1310936794,verified,Angel,Manhattan,Harlem,40.81488,-73.94415,United States,US,True,moderate,Private room,2008,$340 ,$68 ,1,12,7/28/2018,0.97,3,1,0,No Smoking,
19501177,A Great Room in Heart of NYC,53238816772,verified,Umut&Deniz,Manhattan,Lower East Side,40.72051,-73.98777,United States,US,False,flexible,Private room,2022,$680 ,$136 ,3,1,5/20/2019,0.6,3,5,270,No Smoking,
19501729,Private Room-Chinatown/Soho/LittleItaly.HeartofNYC,52590440544,unconfirmed,Ben,Manhattan,Chinatown,40.71515,-73.99826999999999,United States,US,True,strict,Private room,2020,$466 ,$93 ,3,30,6/1/2019,2.51,4,2,147,,
19502281,Twin suites of Prospect Lefferts Garden- Brooklyn,61744647532,verified,Gary,Brooklyn,Prospect-Lefferts Gardens,40.66113,-73.95231,United States,US,True,moderate,Entire home/apt,2011,$768 ,$154 ,2,6,6/30/2019,2.28,5,2,267,,
19502834,LG Private Room for (3). Metro less than 5 mins.,30688381112,verified,Mike,Manhattan,East Harlem,40.798,-73.93944,United States,US,True,moderate,Private room,2022,$307 ,$61 ,7,0,,,4,3,358,,
19503386,Sunny One Bedroom Heart of Lower East Side,55251128225,unconfirmed,Barak,Manhattan,Lower East Side,40.72135,-73.98391,United States,US,False,strict,Entire home/apt,2009,$618 ,$124 ,4,3,1/1/2019,0.25,4,1,0,,
19503938,Sunny & Spacious 2 bdrm apt,16904364369,verified,Regina,Brooklyn,Williamsburg,40.71906,-73.94039000000001,United States,US,True,strict,Entire home/apt,2005,$914 ,$183 ,4,2,7/2/2018,0.16,3,1,0,"Thank you for your reservation. By placing your reservation online you indicated that you accepted the terms and conditions which have been printed below.  Please review your reservation summary as below - then print, sign and return the agreement to:  (EMAIL HIDDEN) or fax it to (PHONE NUMBER HIDDEN) or  mail it to: Spare Suite, Inc., 119 Braintree Street, Suite 510, Boston, MA 02134, USA Upon receipt, we will send you the welcome document with check in instructions and how to get your keys. ------------------------------------------------------------------------ ------------------------------------------------------------------------ Terms of the Agreement: BOOKING AND REFUND POLICY Once booked your reservation is guaranteed for the check in and check out times and dates specified. All reservations must be paid in advance, in full for the entire period of stay.  All reservations are final, and NON REFUNDABLE UNDER ANY CIRCUMSTANCES.  If you feel you may need to cancel once booked, yo",
19504491,Beautiful Room In Spacious House w/ Full Kitchen,32426072786,verified,Lionel,Brooklyn,Kensington,40.62896,-73.97494,United States,US,True,moderate,Private room,2022,$668 ,$134 ,1,34,7/1/2019,2.74,2,2,1,"Sorry, no smoking and no pets.",
19505043,Sunny Room in Newly Renovated Crown Heights Apt!,5171236843,verified,Rebecca,Brooklyn,Crown Heights,40.67478,-73.94418,United States,US,False,flexible,Private room,2007,$216 ,$43 ,2,25,11/30/2018,2.05,3,1,0,"No smoking, pets, overnight guests or loud noise.",
19505595,COZY BROOKLYN BEDROOM,9102005419,unconfirmed,Mercedes,Brooklyn,Crown Heights,40.67863,-73.95859,United States,US,False,strict,Private room,2003,"$1,139 ",$228 ,1,2,9/30/2018,0.17,3,1,0,• Check-in time is 3PM.,
19506148,Beautiful Queens Home close to JFK and LGA,38379306800,verified,Hamad,Queens,Queens Village,40.70789,-73.74073,United States,US,False,moderate,Entire home/apt,2010,$151 ,$30 ,3,134,7/7/2019,10.86,2,1,63,,
19506700,Room with a view,51195063642,verified,Martin,Brooklyn,Williamsburg,40.709590000000006,-73.95693,United States,US,False,strict,Private room,2019,"$1,004 ",$201 ,1,0,,,4,1,83,"Please be respectful of everything in our apartment. This is our primary residence, so please treat our home like it were your own! Thank you!",
19507252,Sun Drenched One Bedroom in the East Village,38265489689,unconfirmed,Christina,Manhattan,East Village,40.722559999999994,-73.9848,United States,US,False,moderate,Entire home/apt,2004,$917 ,$183 ,3,6,11/25/2018,0.48,2,1,4,,
19507804,Sunny Room in a Cozy & Spacious Apartment,28608290539,verified,Victoria,Brooklyn,Sunset Park,40.66236,-73.99037,United States,US,False,strict,Private room,2015,"$1,028 ",$206 ,2,41,6/30/2019,3.35,5,1,340,,
19508357,Private Room and most of apt in Upper West Side,59889549261,unconfirmed,Santiago,Manhattan,Morningside Heights,40.80624,-73.9634,United States,US,False,flexible,Private room,2017,$752 ,$150 ,1,7,7/31/2018,0.57,3,1,0,"-No smoking -No local guests -If you use the kitchen, please clean up after yourself. -I will leave maps/guides for your reference, but please do not remove anything from my home. -If you have any questions, please call or text me (phone number hidden). -Most importantly, enjoy yourself!",
19508909,"Beautiful, Modern & Bright Apt in the East Village",12423434736,verified,Daniel,Manhattan,East Village,40.72634,-73.97625,United States,US,False,moderate,Private room,2011,$104 ,$21 ,2,31,6/26/2019,2.88,2,1,81,"House Rules 1. Check-in is 4 pm local time. If the unit is ready earlier, we’ll let you know. Check-out is normally 11 am local time, but we’d be happy to extend it as long as we don’t have a cleaning scheduled. Just let us know.  2. All bookings require a security deposit of at least $300, which will be refunded within 7 days of your check-out. 3. For security measures we require all guests to provide proof of identification through ID verification on our own website. In order to check in we'll need a photo of your ID.  4. Our cancellation policy is as shown on our ad and defined by the site you are booking through.  5. Don’t let $300 go up in smoke. There's no smoking allowed in any Flatbook and a $300 fine for breaking this rule.  6. Unfortunately we don’t allow pets in any of our apartments. 7. Unless you’re staying in one of our specialty apartments, we don’t allow parties or excessive noise. 8. If we find the place very messy, we have to charge an extra $40 for every extra hour o",
19509461,"Clean, quiet studio apartment - Gramercy/Kips Bay!",28133181072,verified,Despina,Manhattan,Kips Bay,40.74174,-73.98161999999999,United States,US,True,strict,Entire home/apt,2016,"$1,155 ",$231 ,25,7,10/31/2018,0.58,4,1,0,"Please Note: This unit was just renovated last year and it comfortably accommodates 4 guests, but up to 5 guests are permitted if you so desire (two guests in each bedroom and 1 guest on the available twin size air mattress). Please request an air mattress (if needed) when making a reservation. No smoking, no pets, no parties, and must be 25 years old to book.   For check-out, please ensure: -  All plates and cups are left in the sink or dishwasher -  All trash is left in the kitchen trash can or bagged and left next to the trash can (additional bags are under the sink) -  All windows are closed and locked -  If used, the air mattresses are deflated and put away (please leave used linens for the air mattresses on the floor) -  If furniture was moved during your stay, please return to its original location Please be mindful to our neighbors in the building; quiet hours after 10pm. Please be considerate of our next guests who will be staying after you, if something is broken or needs fix",
19510014,**Private Entrance Apartment W/ Bedroom & Bath**,3002831128,unconfirmed,Jacqueline,Queens,Glendale,40.702709999999996,-73.87716999999999,United States,US,True,moderate,Entire home/apt,2017,$525 ,$105 ,3,49,7/2/2019,4.06,4,1,293,No smoking. No parties. Respectful of property :),
19510566,Brigham Place,91890624193,unconfirmed,Eeman,Brooklyn,Sheepshead Bay,40.59689,-73.93353,United States,US,True,moderate,Entire home/apt,2019,$545 ,$109 ,1,35,6/18/2019,2.91,4,2,97,No Smoking  No Pets,
19511118,COZY ROCKAWAY BEACH BUNGALOW 1 BEDROOM,70538291840,verified,Jeremy,Queens,Rockaway Beach,40.587559999999996,-73.81371,United States,US,True,flexible,Entire home/apt,2019,$845 ,$169 ,1,41,7/2/2019,3.34,5,2,140,"House Rules 1. Check-in is 4 pm local time. If the unit is ready earlier, we’ll let you know. Check-out is normally 11 am local time, but we’d be happy to extend it as long as we don’t have a cleaning scheduled. Just let us know.  2. All bookings require a security deposit of at least $300, which will be refunded within 7 days of your check-out. 3. For security measures we require all guests to provide proof of identification through ID verification on our own website. In order to check in we'll need a photo of your ID.  4. Our cancellation policy is as shown on our ad and defined by the site you are booking through.  5. Don’t let $300 go up in smoke. There's no smoking allowed in any Flatbook and a $300 fine for breaking this rule.  6. Unfortunately we don’t allow pets in any of our apartments. 7. Unless you’re staying in one of our specialty apartments, we don’t allow parties or excessive noise. 8. If we find the place very messy, we have to charge an extra $40 for every extra hour o",
19511671,Private Room_Brooklyn Townhouse,76677737259,verified,Brian,Brooklyn,Navy Yard,40.69793,-73.96989,United States,US,True,strict,Private room,2005,$430 ,$86 ,1,11,6/6/2019,1.1,2,2,90,No Smoking  No Pets,
19512223,M2 A cozy well lit room sleeps 2 on  2 single beds,65147439787,verified,Carol Gloria,Bronx,Clason Point,40.81309,-73.85367,United States,US,False,strict,Private room,2012,$779 ,$156 ,1,3,4/28/2019,0.47,2,7,360,No Smoking  No Pets,
19512775,Private Room in Rockaway House-Nearby JFK & Subway,28119248134,verified,Paul,Queens,Rockaway Beach,40.58743,-73.81411,United States,US,False,moderate,Private room,2019,$641 ,$128 ,1,10,6/11/2019,0.87,5,1,356,No Smoking  No Pets,
19513327,Brooklyn: Spacious apartment in calm neighborhood,49631439885,verified,Talia,Brooklyn,Gowanus,40.68234,-73.98223,United States,US,True,strict,Entire home/apt,2011,$904 ,$181 ,4,2,4/30/2019,0.17,4,1,55,"Please Note: This unit was just renovated last year and it comfortably accommodates 6 guests, but up to 7 guests are permitted if you so desire (two guests in each bedroom and 1 or 2 guests on the available queen size air mattress). Please request an air mattress (if needed) when making a reservation. No smoking, no pets, no parties, and must be 25 years old to book.   For check-out, please ensure: -  All plates and cups are left in the sink or dishwasher -  All trash is left in the kitchen trash can or bagged and left next to the trash can (additional bags are under the sink) -  All windows are closed and locked -  If used, the air mattresses are deflated and put away (please leave used linens for the air mattresses on the floor) -  If furniture was moved during your stay, please return to its original location Please be mindful to our neighbors in the building; quiet hours after 10pm. Please be considerate of our next guests who will be staying after you, if something is broken or ne",
19513880,Cozy 1 Bedroom Apartment In Great LES Location,16202803311,unconfirmed,Andrea,Manhattan,Lower East Side,40.72003,-73.98928000000001,United States,US,False,moderate,Entire home/apt,2008,$106 ,$21 ,4,23,7/1/2019,1.99,2,2,233,"House Rules 1. All bookings made at least a week before check in are fully refundable if cancelled within 24 hours of booking. After this, you will receive a 50% refund if you cancel at least 7 days before the start of your trip. 2. Check-in time is any time after 4 pm local time. If the unit is ready earlier, we’ll let you know. Check-out is normally 11 am local time, but we’d be happy to extend it as long as we don’t have a cleaning scheduled. Just let us know.  3. All bookings require a security deposit of at least $300. 4. For security measures we require all guests to provide proof of identification through ID verification on our own website. In order to check in, we'll need a photo of your ID.  5. Don’t let $300 go up in smoke. There's no smoking allowed in any Flatbook and a $300 fine for breaking this rule.  6. Unfortunately we don’t allow pets in most of our apartments. 7. Unless you’re staying in one of our specialty apartments, we don’t allow parties or excessive noise. 8. I",
19514432,U2 comfortable double bed sleeps 2 guests,38589959052,verified,Carol Gloria,Bronx,Clason Point,40.81225,-73.85502,United States,US,True,strict,Private room,2004,$457 ,$91 ,1,4,7/1/2019,1.48,4,7,365,No Smoking  No Pets,
19514984,Tranquil East Village apartment,47074772187,unconfirmed,Lotte,Manhattan,East Village,40.72607,-73.97851,United States,US,False,moderate,Entire home/apt,2009,$399 ,$80 ,3,3,6/27/2019,0.28,2,1,25,,
19515537,Spacious Bushwick Bedroom!,11761082642,verified,Alex,Brooklyn,Bushwick,40.69505,-73.92968,United States,US,True,flexible,Private room,2020,$753 ,$151 ,10,4,5/11/2019,0.35,5,1,13,,
19516089,Luxurious Harlem 1 Bdrm Steps from Subway,11650209896,unconfirmed,Andrea,Manhattan,Harlem,40.81581,-73.94142,United States,US,False,strict,Entire home/apt,2005,$945 ,$189 ,3,22,6/3/2019,1.9,5,1,261,"The building has a very strict no smoking policy, please do not smoke in the apartment.  Our neighbors are very conservative, please be respectful, and discreet. No grilling is allowed on the roof.",
19516641,*AMAZING* Large Studio in Prime Union Square area!,23545408858,unconfirmed,Michelle,Manhattan,Greenwich Village,40.735240000000005,-73.99259,United States,US,True,moderate,Entire home/apt,2015,$648 ,$130 ,3,2,6/30/2019,1.3,3,1,1,,
19517194,Beautiful 1 bedroom in South Midtown Manhattan,82154025545,unconfirmed,William,Manhattan,Midtown,40.7523,-73.99024,United States,US,False,moderate,Entire home/apt,2015,$342 ,$68 ,5,7,1/3/2019,0.63,2,1,0,,
19517746,Family suites in UpperEastSide Townhouse,3697111909,unconfirmed,Sydney,Manhattan,Upper East Side,40.77669,-73.95283,United States,US,False,strict,Private room,2020,$150 ,$30 ,1,4,6/23/2019,0.35,2,3,365,,
19518298,Brooklyn Oasis,84733339552,unconfirmed,Alwyn,Brooklyn,Flatbush,40.633379999999995,-73.95074,United States,US,False,flexible,Entire home/apt,2012,$762 ,$152 ,4,18,6/30/2019,1.6,3,1,46,,
19518850,"Magical  Brownstone in Fort Greene, Artist Room",4827069614,unconfirmed,Maria,Brooklyn,Fort Greene,40.68992,-73.97528,United States,US,False,moderate,Private room,2022,$104 ,$21 ,4,4,5/16/2019,0.45,5,3,291,,
19519403,Private room in Williamsburg Brooklyn,40967886931,verified,David,Brooklyn,Williamsburg,40.711420000000004,-73.96141,United States,US,False,flexible,Private room,2021,$600 ,$120 ,5,1,8/14/2018,0.09,2,1,0,,
19519955,Cozy apartment 9mts to Barclays Center/ProspecPark,37610321469,unconfirmed,Lou,Brooklyn,Sunset Park,40.66291,-73.995,United States,US,True,flexible,Entire home/apt,2009,$262 ,$52 ,1,34,6/11/2019,2.83,2,5,147,I expect you to keep the apartment picked up and left how it was when you arrived.,
19520507,Cozy Apt in Centrally Located Brooklyn Heights,51717758047,verified,Walter,Brooklyn,Brooklyn Heights,40.69174,-73.99283,United States,US,False,strict,Entire home/apt,2010,"$1,040 ",$208 ,2,4,8/27/2018,0.36,5,2,11,1. No house parties 2. Do not damage any of the furniture or appliances.  3. Do not take anything that has been provided for your comfort and enjoyment.  4. Enjoy yourself! And please reach out if you have any questions or concerns.,
19521060,Hip Master Bedroom with A Private Bathroom in NYC,59140908862,verified,Brian,Manhattan,Roosevelt Island,40.764,-73.94740999999999,United States,US,False,strict,Private room,2010,$841 ,$168 ,3,2,8/7/2018,0.17,2,1,0,"Please remember that this is a residential building. The building rules, apartment occupancy restrictions and the year-round tenants must be respected.  Parties, pets and smoking are not allowed under any circumstances and incur significant fees.",
19521612,BEST LOCATION Times Square Central Prk Hudson Yrds,65080633786,verified,Laura-Lee,Manhattan,Hell's Kitchen,40.75524,-73.99361999999999,United States,US,False,moderate,Entire home/apt,2011,$723 ,$145 ,1,34,6/28/2019,2.9,4,1,1,,
19522164,Roosevelt Island - Hidden Gem of New York,88026470339,unconfirmed,Justin,Manhattan,Roosevelt Island,40.76506,-73.94662,United States,US,False,flexible,Private room,2006,"$1,129 ",$226 ,1,2,7/21/2018,0.16,3,1,0,No smoking. Please be respectful of our neighbors.,
19522717,AMAZING AAA Specious  Studio South Expo  Skylight!,42994953252,unconfirmed,Ofir,Manhattan,Upper West Side,40.78246,-73.98314,United States,US,True,strict,Entire home/apt,2009,$71 ,$14 ,30,0,,,5,8,89,"11 nights minimum stay No pets at any time No smoking Please be mindful of the furniture and personal belongings, it was all furnished with designer pieces and hard to replace things.",
19523269,Former Mattress Factory Loft,31049001701,verified,Holly,Brooklyn,Williamsburg,40.70277,-73.93568,United States,US,False,moderate,Entire home/apt,2004,$491 ,$98 ,1,1,7/8/2018,0.08,3,1,76,No smoking or pets allowed,
19523821,Beautiful studio with loft bed north expo!,96558199285,verified,Ofir,Manhattan,Upper West Side,40.7828,-73.98348,United States,US,True,moderate,Entire home/apt,2019,$718 ,$144 ,30,0,,,4,8,157,,
19524373,"✨Cozy clean room, 5 min walk to subway(Line R/M)",46843417572,unconfirmed,Bei,Queens,Rego Park,40.726079999999996,-73.86233,United States,US,False,strict,Private room,2012,$729 ,$146 ,2,28,5/28/2019,2.36,4,3,38,,
19524926,"Cosy room in Queens, 5 min walk to subway(R/M)",33438423345,verified,Bei,Queens,Rego Park,40.72738,-73.86273,United States,US,False,moderate,Private room,2022,$87 ,$17 ,2,21,5/28/2019,1.76,4,3,0,,
19525478,New Luxury Building,5113831014,unconfirmed,Anna,Manhattan,Hell's Kitchen,40.76213,-73.99938,United States,US,False,moderate,Entire home/apt,2017,$495 ,$99 ,5,1,9/25/2018,0.1,3,1,11,,
19526030,"Private Bedroom, Easy travel in brooklyn",76336225911,unconfirmed,Waen,Brooklyn,Fort Greene,40.693090000000005,-73.97238,United States,US,False,flexible,Private room,2007,"$1,117 ",$223 ,2,47,7/1/2019,4.15,4,1,0,No smoking or pets,
19526583,Gorgeous private room in a luxury condo by Time Sq,37467938732,verified,Evgeny,Manhattan,Hell's Kitchen,40.75945,-73.99344,United States,US,False,strict,Private room,2003,$855 ,$171 ,4,0,,,3,1,0,,
19527135,Peace and love,29512896104,verified,Yasser,Queens,Maspeth,40.72959,-73.89381,United States,US,True,flexible,Private room,2013,$600 ,$120 ,30,0,,,5,1,179,#NAME?,
19527687,"Stylish, art-filled apartment near Hudson River",9068627521,unconfirmed,Eileen,Manhattan,Washington Heights,40.8436,-73.9412,United States,US,True,moderate,Entire home/apt,2004,$307 ,$61 ,11,1,7/30/2018,0.09,2,1,342,"House rules: Guests agree to the following terms and conditions 1.Guest(s) agree to NO PARTIES anywhere on the property. Legal action will be taken for parties that cause damages to the unit, property, reputation, or relationship with building staff or other residents.  2.Smoking of any kind is not permitted in the unit or on the premises.  3.Guests agree to abide by maximum occupancy of unit, and observe quiet hours between 9pm and 9am 4.Guests are responsible for action of ALL GUESTS occupying their unit at all times.  5.Guests agree to return all keys, remotes, and parking passes. Replacement fees may apply for unreturned items 6.Guests understand that onsite building staff (maintenance and concierge) are not affiliated with Jordan or AIRBNB. Please contact me directly for any needed items. 7.Guests understand that no pets are to be in the unit.  8.Guests agree to pay replacement cost for any unreturned items, and $125 per hour fee for unauthorized early checkin or late checkout.  18",
19528240,Large Studio in the heart of West Village,54360037901,verified,Kai,Manhattan,West Village,40.73429,-74.00487,United States,US,True,strict,Entire home/apt,2004,$788 ,$158 ,3,6,3/25/2019,0.52,4,1,0,No smoking and no parties.,
19528792,179st Hub Master Bedroom w/ balcony,20079585050,unconfirmed,Jeff,Queens,Jamaica,40.70985,-73.78429,United States,US,False,strict,Private room,2008,$233 ,$47 ,2,4,6/12/2019,0.34,2,7,0,"No smoking, no pets. Please keep the noise at a respectful level at all times - *particularly after 10pm (as other units in the building are owner-occupied). Please treat it as though it were your own home.",
19529344,Studio in UES (7mins from Central Park/The MET),9259658421,unconfirmed,Gursharan,Manhattan,Upper East Side,40.77537,-73.95555999999999,United States,US,False,strict,Entire home/apt,2006,$202 ,$40 ,5,1,7/3/2018,0.08,4,1,0,No smoking. Not pets/animals. No parties or events. No entertaining beyond confirmed booked guests.,
19529896,Charming Sunny Studio Lower East Side.,92793818470,unconfirmed,Cecilia,Manhattan,Lower East Side,40.72235,-73.98765999999999,United States,US,False,moderate,Entire home/apt,2004,$311 ,$62 ,3,1,7/27/2018,0.09,2,1,0,,
19530449,Sleek and Modern Studio Apartment,8539812979,verified,Brandon,Brooklyn,Williamsburg,40.716570000000004,-73.96512,United States,US,False,flexible,Entire home/apt,2020,$602 ,$120 ,15,0,,,4,1,0,"Absolutely no smoking, no pets, parties or excessive noise in the apartment.  This is a quiet residential building, perfect for travelers wanting a quiet refuge at the end of a fun filled day in Greater Boston.",
19531001,Modern duplex 30 minutes to Times Square,88995675068,unconfirmed,Marvin,Manhattan,Washington Heights,40.85515,-73.93297,United States,US,True,strict,Entire home/apt,2012,$334 ,$67 ,4,20,6/22/2019,1.94,4,1,228,"House rules: Guests agree to the following terms and conditions 1.Guest(s) agree to NO PARTIES anywhere on the property. Legal action will be taken for parties that cause damages to the unit, property, reputation, or relationship with building staff or other residents.  2.Smoking of any kind is not permitted in the unit or on the premises.  3.Guests agree to abide by maximum occupancy of unit, and observe quiet hours between 9pm and 9am 4.Guests are responsible for action of ALL GUESTS occupying their unit at all times.  5.Guests agree to return all keys, remotes, and parking passes. Replacement fees may apply for unreturned items 6.Guests understand that onsite building staff (maintenance and concierge) are not affiliated with Jordan or AIRBNB. Please contact me directly for any needed items. 7.Guests understand that no pets are to be in the unit.  8.Guests agree to pay replacement cost for any unreturned items, and $125 per hour fee for unauthorized early checkin or late checkout.  18",
19531553,*NYC Flat Cold Cozy Private Room w/ Blazin' WiFi*,21302946447,verified,William,Bronx,Allerton,40.85978,-73.8619,United States,US,False,strict,Private room,2013,"$1,151 ",$230 ,1,29,6/25/2019,2.47,5,5,48,"Please remember that this is a residential building. The building rules, apartment occupancy restrictions and the year-round tenants must be respected.",
19532106,Sonder | 21 Chelsea | Serene 1BR + Rooftop,94488171860,verified,Sonder,Manhattan,Chelsea,40.74259,-73.99589,United States,US,True,moderate,Entire home/apt,2014,$882 ,$176 ,29,0,,,3,96,230,"No smoking, no parties, no pets.",
19532658,PRIME BEDSTUY LOCATION WITH A VIEW! BOOK WITH US!,7371154541,unconfirmed,Taylor,Brooklyn,Bedford-Stuyvesant,40.678540000000005,-73.94883,United States,US,True,strict,Shared room,2022,$109 ,$22 ,1,2,7/15/2018,0.17,3,1,342,"Please remember that this is a residential building. The building rules, apartment occupancy restrictions and the year-round tenants must be respected.  Parties, pets and smoking are not allowed under any circumstances and incur significant fees.",
19533210,"Beautiful NYC Private Room/Bath, Late Check-In OK",22540055008,unconfirmed,William,Bronx,Allerton,40.860170000000004,-73.86198,United States,US,False,flexible,Private room,2007,$335 ,$67 ,1,36,7/2/2019,3.5,2,5,57,No Smoking,
19533763,East Village/Union Square Flat,24085364948,verified,Bob,Manhattan,East Village,40.731770000000004,-73.98691,United States,US,True,moderate,Entire home/apt,2016,$914 ,$183 ,5,32,6/26/2019,2.92,4,1,12,"House rules: Guests agree to the following terms and conditions 1.Guest(s) agree to NO PARTIES anywhere on the property. Legal action will be taken for parties that cause damages to the unit, property, reputation, or relationship with building staff or other residents.  2.Smoking of any kind is not permitted in the unit or on the premises.  3.Guests agree to abide by maximum occupancy of unit, and observe quiet hours between 9pm and 9am 4.Guests are responsible for action of ALL GUESTS occupying their unit at all times.  5.Guests agree to return all keys, remotes, and parking passes. Replacement fees may apply for unreturned items 6.Guests understand that onsite building staff (maintenance and concierge) are not affiliated with Jordan or AIRBNB. Please contact me directly for any needed items. 7.Guests understand that no pets are to be in the unit.  8.Guests agree to pay replacement cost for any unreturned items, and $125 per hour fee for unauthorized early checkin or late checkout.  18",
19534315,"Beach Street Loft -  Surf Rockaway Beach, NYC, JFK",95163187788,unconfirmed,Andre,Queens,Arverne,40.59427,-73.79729,United States,US,False,moderate,Entire home/apt,2004,$728 ,$146 ,1,36,6/23/2019,2.96,2,1,70,No Smoking,
19534867,Immaculate and Spacious,88098325642,verified,Debbie,Manhattan,Midtown,40.74624,-73.98255,United States,US,True,strict,Entire home/apt,2012,$804 ,$161 ,2,31,6/23/2019,2.66,5,1,142,,
19535419,Big Bright Studio in the Heart of Brooklyn,60263028446,unconfirmed,Julia,Brooklyn,Midwood,40.61716,-73.96271,United States,US,True,flexible,Entire home/apt,2009,$336 ,$67 ,5,24,6/8/2019,2.02,3,1,0,ABSOLUTELY NO SMOKING.,
19535972,NEW - Big Brooklyn apt in Bushwick,24471873675,unconfirmed,Charles,Brooklyn,Bushwick,40.699490000000004,-73.92383000000001,United States,US,True,flexible,Entire home/apt,2012,"$1,119 ",$224 ,2,6,6/26/2019,0.54,4,1,0,"House Rules 1. Check-in is 4 pm local time. If the unit is ready earlier, we’ll let you know. Check-out is normally 11 am local time, but we’d be happy to extend it as long as we don’t have a cleaning scheduled. Just let us know.  2. All bookings require a security deposit of at least $300, which will be refunded within 7 days of your check-out. 3. For security measures we require all guests to provide proof of identification through ID verification on our own website. In order to check in we'll need a photo of your ID.  4. Our cancellation policy is as shown on our ad and defined by the site you are booking through.  5. Don’t let $300 go up in smoke. There's no smoking allowed in any Flatbook and a $300 fine for breaking this rule.  6. Unfortunately we don’t allow pets in any of our apartments. 7. Unless you’re staying in one of our specialty apartments, we don’t allow parties or excessive noise. 8. If we find the place very messy, we have to charge an extra $40 for every extra hour o",
19536524,Midtown NYC: High End Resort Sleeps 2,97469189098,verified,Millie,Manhattan,Midtown,40.7521,-73.97334000000001,United States,US,True,moderate,Private room,2004,"$1,062 ",$212 ,2,2,1/1/2019,0.25,3,1,0,,
19537076,Cozy private Room in 2 bedrooms appt,27910634293,verified,Rudi,Brooklyn,Williamsburg,40.71415,-73.96225,United States,US,True,strict,Private room,2012,$653 ,$131 ,1,0,,,3,1,0,No party No alcohol,
19537629,Quiet and Cozy Brooklyn Home in Perfect Location,12432997756,unconfirmed,Jared,Brooklyn,Greenpoint,40.72446,-73.9516,United States,US,False,flexible,Entire home/apt,2007,"$1,003 ",$201 ,3,13,6/17/2019,1.13,5,1,0,"Please remember that this is a residential building. The building rules, apartment occupancy restrictions and the year-round tenants must be respected.",
19538181,"Park Slope, Brooklyn",16869660521,verified,Anuar,Brooklyn,South Slope,40.66625,-73.9826,United States,US,True,moderate,Private room,2009,$936 ,$187 ,2,15,6/5/2019,2.33,2,1,57,No smoking or partying.,
19538733,"Fifth Element: 7bd, private home.FREE CANCELLATION",3059062237,verified,Edwin,Bronx,Pelham Gardens,40.862390000000005,-73.84362,United States,US,True,flexible,Entire home/apt,2018,"$1,118 ",$224 ,1,67,7/6/2019,6.07,4,1,337,,
19539286,"Charming Williamsburg Apartment,  next to trainJZM",27728130467,verified,Leanne,Brooklyn,Williamsburg,40.711059999999996,-73.95945,United States,US,False,strict,Private room,2016,$966 ,$193 ,4,1,7/31/2018,0.09,3,1,220,,
19539838,2 Stops from Manhattan in Trendy LIC,30805152826,verified,Christina,Queens,Long Island City,40.75311,-73.93628000000001,United States,US,False,moderate,Entire home/apt,2005,"$1,117 ",$223 ,2,30,6/16/2019,2.54,4,1,172,We provide this in the apartment. Residential neighborhood.  Quiet is important.  No smoking. No pets,
19540390,Warm and Cozy Bedroom ~ 15 minutes to JFK,12178524081,unconfirmed,Jeffrey & Casandra,Queens,Bayswater,40.61036,-73.7687,United States,US,False,strict,Private room,2020,"$1,184 ",$237 ,1,8,7/7/2019,8.0,3,1,172,"Maximum of 2 people over 21 years of age may stay in this studio. There is a one week minimum stay and there is little if any parking available. Sorry, no children and no pets. This place is best for people visiting Boston for conferences, research, or being near family. It is not a resort and there are strict condominium rules about quiet and privacy.",
19540942,#ERROR!,47867936519,verified,William,Bronx,Allerton,40.86014,-73.86301,United States,US,False,strict,Private room,2020,$864 ,$173 ,1,30,7/2/2019,2.56,4,5,48,The apartment is non-smoking and pets are not allowed.,
19541495,A sweet cozy one bedroom in Crown Heights Brooklyn,9225769490,unconfirmed,Dena,Brooklyn,Prospect-Lefferts Gardens,40.66352,-73.94157,United States,US,True,moderate,Entire home/apt,2017,$907 ,$181 ,5,8,6/3/2019,0.69,2,1,57,,
19542047,"❤️ Beautiful, Bright Room - Late Self Check-In  ❤️",78351946336,verified,William,Bronx,Allerton,40.86013,-73.86339,United States,US,True,flexible,Private room,2019,$573 ,$115 ,1,30,7/2/2019,2.56,2,5,57,,
19542599,One bedroom apt with private yard in Williamsburg,17551206861,verified,Peggy,Brooklyn,Williamsburg,40.70807,-73.95565,United States,US,True,flexible,Entire home/apt,2021,$720 ,$144 ,3,6,10/1/2018,0.54,4,1,0,,
19543152,Lower East Side Loft (Event Space),94561953230,verified,Will,Manhattan,Lower East Side,40.71946,-73.98935,United States,US,False,flexible,Entire home/apt,2018,$114 ,$23 ,1,2,8/29/2018,0.18,5,1,0,"We need to know your arrival time ALMOST 2 days before your arrival, as we need to plan arrivals and cleaning, so it's to guarantee you that you will find the flat clean and ready at your arrival. - Check out is 10:00am and if you will be late, we can charge a late check out fee (min $25) and any damage that your delay can cause to the incoming guest or to the cleaning service. - Smoking is not allowed as are loud noises after 10pm or before 9am. - Guests are not allowed to have extra guests. - A regular check out cleaning is included in the price but it doesn't mean that we will wash your dishes or pick up the garbage all around the house, so please use the trash bin and clean after using the kitchen, if not we will take pictures and charge you the extra cleaning. - There is no daily cleaning service during your stay or any change of linen/towels if you're staying more than 3 nights we can agree a change of towels (only), just ask us in advance. We're here to do the best for our guest",
19543704,PrivateBed&BathLGAMetsTimeSqUSTAFlushingQueens,74214483413,verified,Nonie,Queens,Corona,40.75046,-73.85443000000001,United States,US,True,flexible,Private room,2019,$660 ,$132 ,2,19,6/24/2019,1.6,3,1,24,,
19544256,Modern NYC Apartment,53319720086,unconfirmed,George,Manhattan,Harlem,40.80455,-73.95429,United States,US,True,flexible,Entire home/apt,2012,$948 ,$190 ,2,16,11/24/2018,1.32,2,1,0,"Please remember that this is a residential building. The building rules, apartment occupancy restrictions and the year-round tenants must be respected.  Parties and smoking are not allowed under any circumstances and incur significant fees. Parties and smoking are not allowed under any circumstances and incur significant fees. Pets may be considered with pre-approval and an additional pet fee.",
19544809,Luxury East Village Penthouse With Private Deck,96330251682,unconfirmed,Leigh,Manhattan,East Village,40.72436,-73.98235,United States,US,False,strict,Entire home/apt,2006,$697 ,$139 ,2,9,6/28/2019,0.8,3,1,0,#NAME?,
19545361,Bedstuy Cove,38654899337,unconfirmed,Luqman,Brooklyn,Bedford-Stuyvesant,40.68125,-73.92326,United States,US,True,strict,Private room,2021,$560 ,$112 ,1,7,8/23/2018,0.59,5,1,129,Please no smoking in any of the inside premises or on the roof deck; no loud music; no moving or rearranging furniture; and no guests beyond those indicated at booking (without clearing with owner first).,
19545913,"Quiet, Private and Sunny in Greenwich Village",30873168727,verified,Rose,Manhattan,Greenwich Village,40.73093,-74.00125,United States,US,True,strict,Entire home/apt,2016,$492 ,$98 ,2,42,6/21/2019,3.62,2,1,129,"Please remember that this is a residential building. The building rules, apartment occupancy restrictions and the year-round tenants must be respected.",
