id,NAME,host id,host_identity_verified,host name,neighbourhood group,neighbourhood,lat,long,country,country code,instant_bookable,cancellation_policy,room type,Construction year,price,service fee,minimum nights,number of reviews,last review,reviews per month,review rate number,calculated host listings count,availability 365,house_rules,license
42755216,Spacious green#3,50605633861,unconfirmed,Andre,Brooklyn,East Flatbush,40.65587,-73.94187,United States,US,True,moderate,Private room,2011,$973 ,$195 ,3,0.0,,,4,4,332,,
42755768,BedStuy Private Room (D5),33675772284,unconfirmed,Linda,Brooklyn,Bedford-Stuyvesant,40.6914,-73.93046,United States,US,True,flexible,Private room,2018,"$1,199 ",$240 ,2,11.0,6/30/2019,4.23,4,8,254,,
42756321,Camping/Glamping in NYC!,49793935419,verified,Liz,Bronx,Pelham Gardens,40.863040000000005,-73.84559,United States,US,False,flexible,Entire home/apt,2012,$730 ,$146 ,1,4.0,6/14/2019,2.07,2,1,78,,
42756873,"Cozy Private Room, Walking Distance From LGA, Rm 4",16239995908,unconfirmed,Zahir,Queens,East Elmhurst,40.769459999999995,-73.87138,United States,US,True,flexible,Private room,2012,"$1,043 ",$209 ,1,24.0,6/20/2019,7.13,3,5,168,,
42757425,Two-Level Garden Apartment in the Heart of Harlem,25307671154,unconfirmed,Mike,Manhattan,East Harlem,40.80622,-73.94171,United States,US,True,flexible,Entire home/apt,2003,$112 ,$22 ,2,10.0,6/28/2019,3.75,5,1,0,,
42757978,U W S Sunny Queen size bedroom near Columbia UNI*,53671690223,verified,David,Manhattan,Upper West Side,40.79658,-73.96118,United States,US,True,strict,Private room,2020,$873 ,$175 ,1,8.0,6/14/2019,2.64,5,2,75,,
42758530,"Cozy Private Room, Walking Distance From LGA, Rm 5",31381414211,verified,Zahir,Queens,East Elmhurst,40.770509999999994,-73.87344,United States,US,False,moderate,Private room,2007,$77 ,$15 ,1,22.0,6/19/2019,6.47,3,5,162,,
42759082,In Times Square Cozy Shared Female Apt,97108022246,verified,Demir,Manhattan,Hell's Kitchen,40.764590000000005,-73.9888,United States,US,True,moderate,Shared room,2004,$509 ,$102 ,1,10.0,6/23/2019,2.91,2,3,358,,
42759634,"Cozy, Shared Apt in Manhattan only For Female",76179443272,verified,Demir,Manhattan,Hell's Kitchen,40.76251,-73.98871,United States,US,False,strict,Shared room,2008,"$1,105 ",$221 ,1,7.0,5/30/2019,2.04,4,3,362,,
42760187,"Cozy Private Room, Walking Distance From LGA, Rm 6",87355742509,verified,Zahir,Queens,East Elmhurst,40.77102,-73.87286999999999,United States,US,True,strict,Private room,2007,$902 ,$180 ,1,42.0,6/24/2019,12.12,3,5,153,,
42760739,Gorgeous Lower Manhattan studio for summer sublet,53224568556,unconfirmed,Royi,Manhattan,Financial District,40.70613,-74.01583000000001,United States,US,False,flexible,Entire home/apt,2014,$962 ,$192 ,35,0.0,,,4,1,105,,
42761291,West village quiet and stylish large 1 bedroom,13728127937,verified,Jessy,Manhattan,West Village,40.7366,-74.00619,United States,US,True,moderate,Entire home/apt,2014,$438 ,$88 ,7,0.0,,,5,1,0,,
42761844,Quiet Room in 3bed apt. Near Grand Central. NYC,98582078502,unconfirmed,Nico,Manhattan,Midtown,40.745259999999995,-73.98163000000001,United States,US,False,strict,Private room,2012,$941 ,$188 ,30,1.0,5/30/2019,0.75,4,1,0,,
42762396,Charming 2BR/2BA on Upper West Side,76228509093,unconfirmed,Erin,Manhattan,Upper West Side,40.80273,-73.96386,United States,US,True,flexible,Entire home/apt,2016,$175 ,$35 ,1,4.0,6/23/2019,1.4,3,1,4,,
42762948,Cozy kosher home for your stay in NYC,62689165481,verified,Ari,Brooklyn,Sheepshead Bay,40.60165,-73.96299,United States,US,True,moderate,Private room,2021,$428 ,$86 ,1,3.0,5/12/2019,1.15,3,1,0,,
42763501,Manhattan XTRA space & luxury for 12. Free Parking,2907759321,verified,Joe,Manhattan,Washington Heights,40.8357,-73.94234,United States,US,True,strict,Entire home/apt,2003,$865 ,$173 ,1,1.0,4/2/2019,0.31,5,5,335,,
42764053,BedStuy Private Room (D8),16872209381,verified,Linda,Brooklyn,Bedford-Stuyvesant,40.69182,-73.92859,United States,US,False,flexible,Private room,2019,$72 ,$14 ,2,9.0,6/30/2019,3.42,5,8,268,,
42764605,Midtown Manhattan great location (Gramacy park),9485986223,verified,Debra,Manhattan,Midtown,40.744820000000004,-73.98366999999999,United States,US,False,flexible,Entire home/apt,2010,$992 ,$198 ,30,1.0,6/22/2019,1.0,3,2,343,,
42765157,Large private bedroom New York,34620908160,verified,Arnaud,Manhattan,East Harlem,40.805640000000004,-73.94198,United States,US,True,moderate,Private room,2006,$435 ,$87 ,2,15.0,7/6/2019,5.29,3,2,292,,
42765710,Sunny apartment on L train in Bushwick/Ridgewood,57748553031,unconfirmed,Nick,Queens,Ridgewood,40.69945,-73.90771,United States,US,True,moderate,Private room,2010,$755 ,$151 ,3,4.0,6/2/2019,1.88,2,1,68,,
42766262,Residence Near JFK (T1F/ TB4),58452872344,verified,Janelle,Queens,Jamaica,40.683240000000005,-73.79169,United States,US,False,strict,Private room,2020,$223 ,$45 ,1,4.0,5/12/2019,1.45,5,3,157,,
42766814,Charming Upper West Side Apartment,70265641305,unconfirmed,Corporate Housing,Manhattan,Upper West Side,40.78536,-73.97543,United States,US,False,moderate,Entire home/apt,2017,$476 ,$95 ,30,0.0,,,2,91,312,,
42767367,Very comfortable  QNS bed judge yourselfg,91872561349,verified,Mohamad,Staten Island,Dongan Hills,40.57857,-74.09151999999999,United States,US,False,flexible,Private room,2015,$428 ,$86 ,1,9.0,5/31/2019,2.62,3,3,35,,
42767919,Large Sunny 3Bedroom Apartment with Office,26945277757,verified,Charn,Brooklyn,Crown Heights,40.66652,-73.93167,United States,US,True,flexible,Entire home/apt,2013,$65 ,$13 ,3,6.0,6/25/2019,2.17,3,1,313,,
42768471,AC Hotel New York Downtown-7 Nights Min,34422454839,verified,Yun,Manhattan,Financial District,40.705690000000004,-74.00403,United States,US,True,moderate,Private room,2010,$531 ,$106 ,7,1.0,5/14/2019,0.53,2,13,365,,
42769024,AC Hotel New York Downtown-7 Nights Min,56857383573,unconfirmed,Yun,Manhattan,Financial District,40.7065,-74.00503,United States,US,True,moderate,Private room,2015,$807 ,$161 ,7,1.0,5/25/2019,0.65,3,13,365,,
42769576,A Brooklyn Launch Pad,58705128509,unconfirmed,John,Brooklyn,Williamsburg,40.70426,-73.94542,United States,US,True,strict,Private room,2022,$531 ,$106 ,1,13.0,6/24/2019,5.13,3,2,76,,
42770128,Four Points by Sheraton New York Downtown-7 Nights,27928263045,unconfirmed,Yun,Manhattan,Financial District,40.70832,-74.00755,United States,US,False,moderate,Private room,2019,$362 ,$72 ,7,1.0,5/17/2019,0.57,3,13,358,,
42770680,feel home,52412964938,verified,Eden,Brooklyn,Brownsville,40.66815,-73.92169,United States,US,False,moderate,Private room,2010,$529 ,$106 ,1,9.0,6/16/2019,2.93,2,2,320,,
42771233,Aloft Manhattan Downtown - Financial District,35252907468,unconfirmed,Yun,Manhattan,Financial District,40.70969,-74.00575,United States,US,True,moderate,Private room,2022,$279 ,$56 ,7,0.0,,,3,13,365,,
42771785,Heart of NYC Full Home! 3Beds.2BR.2Bath. Kitchen.,50569040018,verified,Nicole,Manhattan,Upper West Side,40.79595,-73.97485,United States,US,True,flexible,Entire home/apt,2016,$156 ,$31 ,3,2.0,4/21/2019,0.74,5,1,0,,
42772337,2 Bdrm Apt in Heart of Greenwich Village,75745440160,verified,Jesse,Manhattan,Greenwich Village,40.72882,-74.00089,United States,US,True,flexible,Entire home/apt,2009,$863 ,$173 ,2,6.0,7/7/2019,3.16,5,1,16,,
42772890,"Park Slope,  Brooklyn",20013282802,verified,Randy,Brooklyn,Park Slope,40.67946,-73.97497,United States,US,False,moderate,Entire home/apt,2022,$575 ,$115 ,1,5.0,6/21/2019,2.42,5,1,8,,
42773442,LUXURY APARTMENT,13308783058,verified,Tomasz,Queens,Glendale,40.70467,-73.86108,United States,US,True,strict,Entire home/apt,2008,$792 ,$158 ,10,3.0,5/8/2019,0.93,2,1,178,,
42773994,New York City!! Times Square Home!!!,60089295144,verified,Lucy,Manhattan,Hell's Kitchen,40.76325,-73.98592,United States,US,False,strict,Entire home/apt,2014,$102 ,$20 ,3,3.0,6/11/2019,1.8,2,1,215,,
42774547,Newly renovated garden flat in historic Brooklyn,3014400053,verified,Amber,Brooklyn,Bedford-Stuyvesant,40.68114,-73.92065,United States,US,False,strict,Entire home/apt,2022,"$1,115 ",$223 ,3,4.0,6/18/2019,1.36,4,1,26,,
42775099,Moxy NYC Downtown-7 Nights Min,39011971503,unconfirmed,Yun,Manhattan,Financial District,40.711,-74.00883,United States,US,False,moderate,Private room,2008,$756 ,$151 ,7,4.0,6/15/2019,1.97,5,13,323,,
42775651,"干净卫生的环境房,欢迎订房",82659127334,verified,彼特,Queens,Forest Hills,40.72755,-73.85028,United States,US,False,flexible,Private room,2013,$151 ,$30 ,2,2.0,4/27/2019,0.77,3,1,0,,
42776203,Private 1st Floor with all amenities. Not shared,16128986803,verified,Yogi,Queens,Ozone Park,40.68042,-73.85515,United States,US,False,flexible,Entire home/apt,2003,$306 ,$61 ,3,1.0,4/1/2019,0.3,2,3,53,,
42776756,Aloft Manhattan Downtown-7 Nights Min,42659173629,unconfirmed,Yun,Manhattan,Financial District,40.71086,-74.00746,United States,US,True,moderate,Private room,2004,$286 ,$57 ,7,2.0,5/24/2019,0.95,4,13,358,,
42777308,Four Points by Sheraton New York Downtown-7 Nights,77012523502,verified,Yun,Manhattan,Financial District,40.70712,-74.00609,United States,US,False,flexible,Private room,2014,$671 ,$134 ,7,2.0,5/19/2019,0.81,2,13,344,,
42777860,Four Points by Sheraton New York Downtown-7 Nights,1285422186,verified,Yun,Manhattan,Financial District,40.708420000000004,-74.00519,United States,US,False,strict,Private room,2022,$851 ,$170 ,7,1.0,6/9/2019,1.0,3,13,358,,
42778413,Cozy Williamsburg Bedroom Available,18984638067,unconfirmed,Nathalie,Brooklyn,Williamsburg,40.71606,-73.94093000000001,United States,US,True,flexible,Private room,2008,$571 ,$114 ,7,0.0,,,4,1,13,,
42778965,Aloft Manhattan Downtown - Financial District,63817660580,unconfirmed,Yun,Manhattan,Financial District,40.70922,-74.00571,United States,US,True,moderate,Private room,2013,$775 ,$155 ,7,0.0,,,2,13,365,,
42779517,AC Hotel New York Downtown-7 Nights Minimum,32816401555,verified,Yun,Manhattan,Financial District,40.70599,-74.00503,United States,US,False,moderate,Private room,2014,$882 ,$176 ,7,1.0,6/12/2019,1.0,4,13,365,,
42780070,Manhattan Luxury Private Bedroom!!!,93741524372,verified,Luke,Manhattan,Inwood,40.862590000000004,-73.92728000000001,United States,US,True,strict,Private room,2018,$655 ,$131 ,3,2.0,6/15/2019,0.97,4,8,282,,
42780622,Manhattan Luxury Private Bedroom!!,23382888087,unconfirmed,Luke,Manhattan,Inwood,40.862140000000004,-73.92708,United States,US,True,flexible,Private room,2007,"$1,017 ",$203 ,3,1.0,6/4/2019,0.86,4,8,252,,
42781174,Manhattan Luxury Private Bedroom,32601808369,unconfirmed,Luke,Manhattan,Inwood,40.862559999999995,-73.92886999999999,United States,US,True,strict,Private room,2010,$963 ,$193 ,3,1.0,5/20/2019,0.6,4,8,258,,
42781726,Manhattan Luxury Private Bedroom!,60286026195,verified,Luke,Manhattan,Inwood,40.863640000000004,-73.92835,United States,US,False,flexible,Private room,2003,$94 ,$19 ,3,4.0,6/1/2019,1.85,4,8,237,,
42782279,Bronx Beauty,90030058136,verified,Hamza,Bronx,Port Morris,40.8027,-73.91563000000001,United States,US,True,strict,Entire home/apt,2019,$588 ,$118 ,2,9.0,7/2/2019,3.42,5,3,50,,
42782831,"Bright, cozy getaway in the center of all..",50055275194,unconfirmed,Chris,Manhattan,Hell's Kitchen,40.76088,-73.99081,United States,US,True,strict,Entire home/apt,2020,$151 ,$30 ,1,25.0,7/5/2019,7.98,4,1,12,,
42783383,Extra Large Midtown East 1 Bedroom Elevator,69761962739,unconfirmed,Corporate Housing,Manhattan,Midtown,40.75577,-73.96727,United States,US,False,flexible,Entire home/apt,2003,$957 ,$191 ,30,0.0,,,4,91,310,,
42783936,Private Room in the heart of financial district,47488092499,verified,Alba,Manhattan,Financial District,40.709559999999996,-74.00713,United States,US,False,strict,Private room,2008,"$1,145 ",$229 ,1,0.0,,,5,2,292,,
42784488,Lavish Private Room with own Bathroom/Williamsburg,52489302028,verified,Alex,Brooklyn,Bushwick,40.701029999999996,-73.93979,United States,US,True,moderate,Private room,2009,$295 ,$59 ,30,1.0,5/5/2019,0.46,2,4,364,,
42785040,BedStuy Private Room (D3),4809746872,unconfirmed,Linda,Brooklyn,Bedford-Stuyvesant,40.6918,-73.93028000000001,United States,US,True,moderate,Private room,2006,$429 ,$86 ,2,14.0,7/4/2019,5.19,4,8,261,,
42785593,Great Room In Bed-stuy! J TRAIN,41107925546,verified,James,Brooklyn,Bedford-Stuyvesant,40.69103,-73.92719,United States,US,True,moderate,Private room,2003,$960 ,$192 ,3,1.0,4/18/2019,0.36,4,2,127,,
42786145,Beautiful and Modern 2 Bed- 20 Min To Manhattan,32417987371,verified,Toni,Brooklyn,Bedford-Stuyvesant,40.68523,-73.9384,United States,US,False,strict,Entire home/apt,2012,$308 ,$62 ,1,2.0,6/24/2019,0.92,2,1,194,,
42786697,Modern Loft Like Spacious Studio - northern Harlem,17327581130,unconfirmed,James,Manhattan,Harlem,40.82868,-73.94678,United States,US,True,strict,Entire home/apt,2006,"$1,054 ",$211 ,1,5.0,5/9/2019,1.72,3,2,44,,
42787249,X-Large Private room in newly renovated apartment,41628678957,unconfirmed,Lana,Queens,Kew Gardens,40.71134,-73.8279,United States,US,False,moderate,Private room,2022,$848 ,$170 ,3,11.0,7/1/2019,4.34,3,5,318,,
42787802,Sunny/Bright apartment / top floor East Harlem,74857083057,verified,Jessica,Manhattan,East Harlem,40.79889,-73.9393,United States,US,False,flexible,Entire home/apt,2013,$755 ,$151 ,90,0.0,,,5,1,140,,
42788354,"Bright, Modern, Luxurious 2BDR in Williamsburg",24166856332,unconfirmed,David,Brooklyn,Williamsburg,40.71105,-73.96748000000001,United States,US,False,flexible,Entire home/apt,2007,$707 ,$141 ,4,0.0,,,3,1,0,,
42788906,Spacious Studio,41782349926,unconfirmed,Trinize,Bronx,Tremont,40.84581,-73.8889,United States,US,False,moderate,Shared room,2014,$202 ,$40 ,2,5.0,7/1/2019,1.6,5,1,146,,
42789459,Bedroom with Empire State view,54488658952,verified,Navin,Manhattan,Murray Hill,40.746359999999996,-73.97561,United States,US,True,flexible,Private room,2020,"$1,189 ",$238 ,1,5.0,6/5/2019,3.33,3,1,55,,
42790011,"Location, Location, Location Close to Central Park",13403109504,verified,Victor,Manhattan,East Harlem,40.80022,-73.94185,United States,US,False,moderate,Entire home/apt,2006,$354 ,$71 ,1,13.0,6/26/2019,5.06,5,1,86,,
42790563,Private Room with Private Bathroom Newly Renovated,38744274173,unconfirmed,Lana,Queens,Kew Gardens,40.71042,-73.82911999999999,United States,US,True,flexible,Private room,2004,$113 ,$23 ,5,6.0,6/18/2019,2.54,5,5,308,,
42791116,Comfortable and spacious bedroom suite in Brooklyn,67163607561,unconfirmed,Leandro And Julia,Brooklyn,Bedford-Stuyvesant,40.68763,-73.92898000000001,United States,US,False,flexible,Private room,2008,"$1,086 ",$217 ,4,0.0,,,5,3,12,,
42791668,Your own Loft like Studio Apartment sunny near all,94564510566,unconfirmed,James,Manhattan,Harlem,40.82775,-73.94667,United States,US,True,moderate,Entire home/apt,2021,$120 ,$24 ,1,8.0,6/22/2019,2.79,3,2,13,,
42792220,Industrial bedroom  1 minute to Subway,64572423828,unconfirmed,Kieu,Brooklyn,Bedford-Stuyvesant,40.689209999999996,-73.95424,United States,US,False,moderate,Private room,2021,$960 ,$192 ,2,6.0,7/2/2019,4.62,2,4,279,,
42792772,Cozy modern room in Bushwick,89875711056,unconfirmed,Tyler,Brooklyn,Bushwick,40.68355,-73.90701,United States,US,False,flexible,Private room,2011,"$1,081 ",$216 ,1,1.0,4/22/2019,0.38,3,1,88,,
42793325,Sun Lit Brooklyn 2 Bedroom Apt w Roof Views,89384821807,verified,Sebastian,Brooklyn,Williamsburg,40.720690000000005,-73.95829,United States,US,True,strict,Entire home/apt,2019,$201 ,$40 ,2,9.0,6/2/2019,2.9,2,1,3,,
42793877,Sustainable event space and rooftop for photoshoot,17014641665,verified,Fatima,Manhattan,Lower East Side,40.72121,-73.9909,United States,US,False,strict,Entire home/apt,2015,$805 ,$161 ,1,1.0,5/19/2019,0.59,3,2,364,,
42794429,"Cozy shared place in Midtown, close to everything",19524987192,unconfirmed,Lincoln,Manhattan,Hell's Kitchen,40.76632,-73.98597,United States,US,False,moderate,Shared room,2005,$739 ,$148 ,1,8.0,6/6/2019,2.38,2,5,23,,
42794982,Central Location: Excellent travelers bed,67287202613,unconfirmed,Helena,Brooklyn,Fort Greene,40.68528,-73.97285,United States,US,False,flexible,Shared room,2010,$382 ,$76 ,2,6.0,6/6/2019,1.78,2,5,31,,
42795534,Spacious bedroom in the heart of the West Village,51964104672,verified,Lorenzo,Manhattan,West Village,40.73587,-74.0043,United States,US,True,flexible,Private room,2003,$626 ,$125 ,2,3.0,4/28/2019,1.22,4,2,128,,
42796086,Suite Houston - Free Street Parking & WIFI,34383715644,verified,Joe,Manhattan,Lower East Side,40.7204,-73.98371,United States,US,True,moderate,Entire home/apt,2007,"$1,035 ",$207 ,30,5.0,5/8/2019,1.76,5,5,193,,
42796639,Beautiful sunny bedroom in central Williamsburg,94897751020,verified,Leah,Brooklyn,Williamsburg,40.71322,-73.94655,United States,US,False,flexible,Private room,2008,$468 ,$94 ,1,18.0,7/1/2019,5.4,4,1,49,,
42797191,Sunny Cozy Economic Garden Bedroom 4GR,39501702009,verified,Yan,Brooklyn,Crown Heights,40.668890000000005,-73.92376,United States,US,True,strict,Private room,2013,$708 ,$142 ,1,23.0,6/27/2019,7.04,3,12,48,,
42797743,Big Room space in Harlem,29817340477,verified,Simone,Manhattan,Harlem,40.81824,-73.93831999999999,United States,US,False,flexible,Private room,2021,"$1,043 ",$209 ,4,4.0,5/24/2019,1.3,3,2,291,,
42798295,"Luxury, Location, and Convenience - **RARE FIND**",91308701790,verified,Monica,Manhattan,Hell's Kitchen,40.76395,-73.99075,United States,US,True,flexible,Entire home/apt,2012,$349 ,$70 ,2,5.0,6/21/2019,3.13,2,1,294,,
42798848,FEMALE SHARED ROOM 3 Single Beds Near Subway-1,35014740289,verified,Abby,Brooklyn,Coney Island,40.57776,-73.98313,United States,US,False,strict,Shared room,2006,$723 ,$145 ,3,2.0,6/11/2019,1.05,5,10,0,,
42799400,Nice and comfortable place for short stay.,38226142632,unconfirmed,Dieudonne,Bronx,Longwood,40.8279,-73.90516,United States,US,True,strict,Private room,2012,$270 ,$54 ,2,2.0,6/30/2019,2.0,2,2,345,,
42799952,Beautiful 600 ft studio in Soho,91021207948,unconfirmed,Jonah,Manhattan,SoHo,40.72506,-74.00876,United States,US,True,strict,Entire home/apt,2010,"$1,166 ",$233 ,3,2.0,5/26/2019,0.82,3,1,0,,
42800505,"HOTEL ROOM LIKE “L”
AFFORDABLE PRICE",57355271483,verified,Viviana,Queens,Woodhaven,40.68727,-73.86413,United States,US,True,flexible,Private room,2016,$697 ,$139 ,3,4.0,5/31/2019,1.88,3,9,361,,
42801057,Cute room close to M train,4928544891,verified,Carmen,Queens,Ridgewood,40.70557,-73.90713000000001,United States,US,False,flexible,Private room,2010,$514 ,$103 ,7,0.0,,,3,2,290,,
42801609,Artists Corner,68033459883,verified,Tucker,Brooklyn,Bedford-Stuyvesant,40.685990000000004,-73.93005,United States,US,False,flexible,Entire home/apt,2012,$590 ,$118 ,1,5.0,7/5/2019,1.58,2,1,0,,
42802162,Beautiful Cozy Shared Apt in Manhattan,37412425561,verified,Owen,Manhattan,East Harlem,40.80093,-73.94322,United States,US,True,strict,Shared room,2010,$245 ,$49 ,1,19.0,6/29/2019,5.64,4,7,90,,
42802714,Warm&clean private room near Times Square,88896027879,verified,Tiba,Manhattan,Hell's Kitchen,40.76389,-73.98872,United States,US,True,moderate,Private room,2020,$297 ,$59 ,1,8.0,6/9/2019,2.79,3,5,95,,
42803266,Jungle room in hip Bushwick,28110878423,unconfirmed,Pablo,Brooklyn,Bushwick,40.70065,-73.92378000000001,United States,US,False,strict,Private room,2021,$525 ,$105 ,2,13.0,6/18/2019,3.94,2,2,48,,
42803818,Rochester's Place Comfy Cozy Crown Heights NYC,26191237252,verified,Errol,Brooklyn,Crown Heights,40.67588,-73.92405,United States,US,True,strict,Private room,2010,$615 ,$123 ,1,9.0,6/2/2019,3.1,4,3,125,,
42804371,Comfortable clean overnight bed by Central Park,70913529362,verified,Owen,Manhattan,East Harlem,40.79922,-73.94187,United States,US,True,moderate,Shared room,2007,$830 ,$166 ,1,22.0,6/30/2019,6.53,4,7,83,,
42804923,Charming Garden Apt Close to Central Park,54089822907,unconfirmed,Zac,Manhattan,Harlem,40.80653,-73.94941999999999,United States,US,False,moderate,Entire home/apt,2003,$130 ,$26 ,1,15.0,6/30/2019,5.23,5,1,9,,
42805475,Shared apartment by the Central Park,928404504,unconfirmed,Owen,Manhattan,East Harlem,40.80073,-73.94328,United States,US,False,flexible,Shared room,2021,"$1,112 ",$222 ,1,17.0,6/30/2019,5.1,2,7,72,,
42806028,a brand new cozy shared apartment by Central Park,176047243,unconfirmed,Owen,Manhattan,East Harlem,40.799490000000006,-73.94265,United States,US,False,strict,Shared room,2007,$260 ,$52 ,1,8.0,6/16/2019,2.4,4,7,90,,
42806580,Beautiful cozy shared apartment by Central Park,45554156802,verified,Owen,Manhattan,East Harlem,40.799659999999996,-73.94191,United States,US,False,moderate,Shared room,2015,$286 ,$57 ,1,13.0,6/30/2019,3.86,3,7,89,,
42807132,Overnight a brand new apartment in upper east side,38106669018,unconfirmed,Owen,Manhattan,East Harlem,40.79885,-73.94304,United States,US,True,flexible,Shared room,2017,"$1,164 ",$233 ,1,14.0,6/25/2019,4.16,4,7,83,,
42807685,Entire Cozy 3 Bedroom in private home,48330377454,verified,Mark,Queens,Woodhaven,40.694590000000005,-73.85081,United States,US,True,flexible,Entire home/apt,2010,$182 ,$36 ,5,0.0,,,2,6,121,,
42808237,Luxury 1 Bedroom Loft,87339215298,unconfirmed,Dakota,Brooklyn,Bedford-Stuyvesant,40.69911,-73.94162,United States,US,False,strict,Private room,2011,"$1,191 ",$238 ,10,1.0,3/30/2019,0.29,2,1,59,,
42808789,Bright nordic room in pastel colors,87359328385,unconfirmed,Miki,Manhattan,Washington Heights,40.860690000000005,-73.92513000000001,United States,US,True,flexible,Private room,2020,$477 ,$95 ,4,2.0,5/22/2019,0.67,2,2,103,,
42809341,Comfort room close to Columbia University,2926005287,unconfirmed,Warren,Manhattan,Morningside Heights,40.80485,-73.96319,United States,US,True,moderate,Private room,2019,$790 ,$158 ,1,8.0,5/19/2019,2.5,4,1,365,,
42809894,Sweet Single Room,96047472427,unconfirmed,Eden,Brooklyn,Crown Heights,40.66949,-73.92172,United States,US,True,moderate,Private room,2009,$653 ,$131 ,1,6.0,5/29/2019,1.91,3,2,323,,
42810446,BEST location in Williamsburg,3844491676,verified,Nicola,Brooklyn,Williamsburg,40.716229999999996,-73.9601,United States,US,True,flexible,Private room,2004,$837 ,$167 ,2,5.0,6/10/2019,2.38,5,1,86,,
42810998,1 BR Gem w/ Private Patio in East Village,11601499285,unconfirmed,Fikile,Manhattan,East Village,40.72656,-73.98758000000001,United States,US,False,flexible,Entire home/apt,2003,$78 ,$16 ,2,16.0,6/30/2019,5.78,2,1,52,,
42811551,★Single Room in Backpackers Accommodation★,72763863092,verified,International,Brooklyn,Williamsburg,40.70908,-73.95663,United States,US,True,strict,Private room,2012,"$1,001 ",$200 ,1,14.0,6/23/2019,4.47,2,1,295,,
42812103,Huge shared space East Village Female guests only,992844506,verified,J,Manhattan,Gramercy,40.73392,-73.98085,United States,US,True,moderate,Shared room,2008,$399 ,$80 ,3,3.0,6/23/2019,1.38,3,2,0,,
42812655,Cozy place located in the Heart of Manhattan,67788273559,verified,Lincoln,Manhattan,Hell's Kitchen,40.766909999999996,-73.98725999999999,United States,US,False,moderate,Shared room,2003,$749 ,$150 ,1,3.0,5/30/2019,1.96,4,5,23,,
42813208,Cozy&Charming NYC style apt in the heart of SoHo,96481516040,verified,Alex,Manhattan,Nolita,40.72394,-73.99583,United States,US,False,moderate,Entire home/apt,2022,$373 ,$75 ,1,19.0,7/4/2019,6.13,3,1,121,,
42813760,Furnished Bedroom in House w/ LAUNDRY & GARDEN,59411066308,verified,Ryan,Brooklyn,Bedford-Stuyvesant,40.68956,-73.9432,United States,US,True,strict,Private room,2008,$331 ,$66 ,3,6.0,6/29/2019,2.77,5,1,0,,
42814312,large room in a 4 bedroom (2bath) apartment,85666769426,verified,Diana,Brooklyn,Greenpoint,40.733540000000005,-73.95719,United States,US,False,moderate,Private room,2004,"$1,117 ",$223 ,1,1.0,4/14/2019,0.35,2,1,0,,
42814864,Sunny & Spacious 3BR Bklyn Duplex w Private Garden,9576236804,unconfirmed,Michelle,Brooklyn,Gowanus,40.6702,-73.9896,United States,US,False,strict,Entire home/apt,2010,"$1,136 ",$227 ,2,35.0,6/9/2019,1.02,5,1,261,,
42815417,Large bedroom in Harlem available,70449265556,verified,Eric,Manhattan,Harlem,40.82736,-73.95113,United States,US,False,strict,Private room,2003,$339 ,$68 ,1,1.0,10/7/2018,0.11,1,1,363,"Enjoy yourself. Soak in the neighborhood street life. Leave enriched and with some new experiences.  No smoking and no pets allowed. There is an outdoor courtyard area accessible from the door next to the stove. To respect the quiet enjoyment of our neighbors, please refrain from loud conversations or cell phone use in the courtyard area because other buildings abut the courtyard and voices carry. Before leaving, please remove all used linens and towels and leave in laundry bag in closet, wash, dry and put away dishes, pots/pans and utensils. Leave keys in unit and lock the door behind you.",
42815969,"Fullszbd, prvt room & bth, kitchen & living room",69805714689,unconfirmed,Gilbert,Manhattan,East Harlem,40.79505,-73.94204,United States,US,False,flexible,Private room,2014,$113 ,$23 ,1,14.0,6/17/2017,0.41,2,1,50,,
42816521,Room on 5th Ave between Washington Sq and Union Sq,32637696170,verified,Rafael,Manhattan,Greenwich Village,40.73383,-73.99509,United States,US,False,flexible,Private room,2015,"$1,075 ",$215 ,4,2.0,1/1/2017,0.06,2,1,0,"- Please Note: This unit was just renovated in 2016 and it comfortably accommodates four guests, but up to 6 guests are permitted if you so desire (two guests in each bedroom and 2 guests on the two available twin size air mattresses). Please request an air mattress(es) (if needed) when making a reservation.  No smoking, no pets, no parties, and must be 25 years old to book.  For check-out, please ensure: - All plates and cups are left in the sink or dishwasher - All trash is left in the kitchen trash can or bagged and left next to the trash can (additional bags are under the sink) - All windows are closed and locked - If used, the air mattresses are deflated and put away (please leave used linens for the air mattresses on the floor) - If furniture was moved during your stay, please return to its original location  Please be mindful to our neighbors in the building, quiet hours after 10pm is not a must, but a nice gesture.  Please be considerate of our next guests who will be staying a",
42817074,Elegant Studio in the Heart of Harlem,35575885347,unconfirmed,Brinton,Manhattan,Harlem,40.80622,-73.94622,United States,US,False,moderate,Entire home/apt,2022,$371 ,$74 ,30,86.0,6/3/2019,2.51,1,4,220,Please no dirty dishes behind. Thank you,
42817626,WINTER PROMO! BKLN - LG 2bd/ modern/comfy/CLEAN!,22286735046,verified,Chana & Chike,Brooklyn,Greenpoint,40.72976,-73.95189,United States,US,True,strict,Entire home/apt,2017,$394 ,$79 ,2,154.0,6/30/2019,4.5,4,1,271,,
42818178,1 Bedroom Apt All Yours In Astoria!,84234705391,unconfirmed,B,Queens,Long Island City,40.748290000000004,-73.93253,United States,US,False,strict,Entire home/apt,2020,$726 ,$145 ,2,1.0,10/10/2016,0.03,4,1,0,"We expect guests to relax and enjoy themselves, but to be respectful of the space and the community.  Please note: no extra guests allowed and please limit loud noises beyond 10pm (sensitive neighbors).",
42818731,Shared Penthouse,73342176486,verified,Jackie,Queens,Richmond Hill,40.69858,-73.82893,United States,US,False,flexible,Private room,2012,$150 ,$30 ,30,1.0,8/31/2016,0.03,2,2,363,Treat this quaint apartment like it's your own.,
42819283,California Vibes in NYC,88048462322,unconfirmed,Amy,Manhattan,Chinatown,40.7149,-73.99063000000001,United States,US,False,strict,Entire home/apt,2003,$206 ,$41 ,3,82.0,12/29/2018,2.42,3,1,0,No Smoking on the apartment.  No Ilegal Drugs  No Parties on property. No pets PLEASE TRY  TO BE AS QUIET AS POSSIBLE CONSIDER OTHER NEIGHBORS OR TENANTS. THANK YOU IN ADVANCE!.,
42819835,South Williamsburg,17997946764,verified,Mikey,Brooklyn,Williamsburg,40.71082,-73.95736,United States,US,True,moderate,Private room,2021,$809 ,$162 ,1,15.0,4/18/2019,0.44,4,1,0,"Smoking is allowed on the patio only. No pets unless discussed with owners Be mindful of the neighbors, this is a residential area.",
42820387,Modern Luxury Apartment in Heart of Williamsburg,54647409187,unconfirmed,Amir,Brooklyn,Williamsburg,40.713359999999994,-73.96172,United States,US,True,flexible,Entire home/apt,2007,$567 ,$113 ,2,20.0,6/27/2019,0.58,2,1,7,Respect the neighbors Absolutely no smoking in and around the property. Respect the neighbors Back door is for Emergency Exit only  (clearly marked) Respect the neighbors We love dogs but sorry no pets,
42820940,Designer Basement Apt by the Park 新精緻近公園舒適含窗半地下公寓,70878964768,verified,A,Queens,Flushing,40.75005,-73.81145,United States,US,False,moderate,Entire home/apt,2012,$152 ,$30 ,1,176.0,6/22/2019,5.07,1,2,316,,
42821492,Velvet Retreat in the West Village,66836881576,verified,Lea,Manhattan,West Village,40.73455,-74.006,United States,US,True,strict,Entire home/apt,2020,$928 ,$186 ,2,100.0,7/1/2019,2.9,1,2,344,"PLEASE NOTE THE FOLLOWING BEFORE REQUESTING A BOOKING:  * I will reply as soon as possible to let you know if my apartment will be available for ALL your needs.  - 1. We are happy to host Friendly, Neat, Low-Maintainence Adults & Well-Behaved Children.  ---- All cookware, dishes and utensils in the kitchen are at your disposal ---- There will be basic condiments provided for you, but please ask about food as this is our home. We ask that you rinse whatever dishes you use & place in dishwasher & leave the kitchen as you found it.  - 2. NO UNPAID ADULTS, CHILDREN, OR OVERNIGHT VISITORS PERMITTED  - 3. NO SMOKING  - 4. NO PARTIES  - 5. NO LOUD MUSIC - 6. PETS (decided on a case by case basis, please inquire for more information and additional fees) - 7. PLEASE MAKE REQUESTS EARLY (to ensure availability) FOR ANY EXTRA Special Requests or Needs.  - 8. RATES, AVAILABILITY & AMENITIES ARE SUBJECT TO CHANGE UNTIL A RESERVATION IS FINALIZED, AND WILL DEPEND ON TIME OF YEAR AND WHO REQUESTS A R",
42822044,"14 min to Columbus Circle, 20 min to Times Square",19717329422,verified,Johannes,Manhattan,Harlem,40.82663,-73.94624,United States,US,False,moderate,Private room,2011,$208 ,$42 ,1,55.0,6/22/2019,1.59,2,1,57,Check-in time is 1PM. Read the manual after you book - it covers everything INCLUDING check in. This manual should come in the check in,
42822597,Large 2 Story 2 Bedroom Corner Unit On Top Floor,95295804205,unconfirmed,Joshua,Brooklyn,Bushwick,40.699009999999994,-73.93649,United States,US,True,strict,Entire home/apt,2010,$55 ,$11 ,20,11.0,10/9/2018,0.32,1,3,0,Apartment is located in quiet neighborhood so noise is ok as long as it's not excessive. We have a strict no-pet and no-smoking policy. This is our building policy and also a strongly enforced household policy.,
42823149,Private room in Sunnyside Gardens,20231812312,unconfirmed,Josefina,Queens,Sunnyside,40.74615,-73.91704,United States,US,True,strict,Private room,2021,$408 ,$82 ,2,1.0,8/28/2016,0.03,1,1,88,No smoking No pets  No events or parties Check out by 11am  Check in after 3pm $50 fee for lost keys  Please stay out of the nursery unless you have a baby sleeping in there We can be flexible with check in and check out times depending on the next renter's right to a 3pm check in time.,
42823701,"Laid Back, Spacious 2BR All Yours!",92743906331,verified,Chris,Brooklyn,Crown Heights,40.67447,-73.94665,United States,US,False,strict,Entire home/apt,2006,"$1,019 ",$204 ,1,0.0,,,3,1,0,,
42824254,Central Park South 2 Bedroom 1 Bathroom,33252694291,verified,CRNY Monthly Rentals,Manhattan,Midtown,40.76552,-73.97661,United States,US,True,moderate,Entire home/apt,2012,$390 ,$78 ,29,2.0,10/5/2018,0.07,4,31,148,#NAME?,
42824806,Private room. Full size bed. 3rd floor. Cooper Sq,4084018919,unconfirmed,Labib,Manhattan,NoHo,40.726290000000006,-73.99237,United States,US,False,strict,Private room,2022,$654 ,$131 ,2,1.0,11/27/2016,0.03,2,1,0,,
42825358,Independent apt in 2 family pvt. home,51944244766,verified,Passang,Queens,Sunnyside,40.742020000000004,-73.92479,United States,US,False,strict,Entire home/apt,2009,$975 ,$195 ,2,122.0,6/20/2019,3.53,2,1,214,,
42825910,Double Twin Spacious Room In Small,96670111680,unconfirmed,Tyreq,Staten Island,Mariners Harbor,40.6363,-74.15911,United States,US,False,moderate,Private room,2011,$594 ,$119 ,1,0.0,,,4,1,365,#NAME?,
42826463,Inwood heights,93908182505,verified,Orquid,Manhattan,Inwood,40.86316,-73.92627,United States,US,True,flexible,Shared room,2016,$317 ,$63 ,1,0.0,,,1,2,363,,
42827015,"Historic Brownstone (3Flrs). Pvt Deck, Garden,Park",61197848113,verified,Richard,Manhattan,Harlem,40.81919,-73.9443,United States,US,False,moderate,Entire home/apt,2013,"$1,127 ",$225 ,3,0.0,,,3,1,87,"Check in/out: We can meet outside of my building at check-in between 4:00pm-6:00pm.  If you can give me an estimated ETA, that would be helpful!  Please leave your keys in the studio when you check-out Thursday afternoon.  I am very flexible with check-out between 12:00pm-3:00pm. Go up 1 flight of stairs, and it will be the first door to the right.   The door locks automatically, but there is a deadbolt and lock.  You do not have to deadbolt the door every time you leave.  TV – Press and hold the “All On” button to turn on TV Towels are on the top shelf in the bathroom, and the bed is all set!   I do have a portable A/C in the second window on the right.  Since I live on the second floor, it does not get too warm, but if you do need it, please remember to turn it off if you are leaving the building. Trash/recycling days are Sundays and Thursdays. There’s trash bags on the third shelf in the bathroom closet to the left.  When you are checking out on Thursday, please take the trash out r",
42827567,Bright and clean room in a quaint neighborhood,56530602541,verified,Mei,Brooklyn,Carroll Gardens,40.67954,-73.99935,United States,US,False,moderate,Private room,2017,$425 ,$85 ,2,93.0,6/23/2019,2.78,4,2,74,"- Please make sure to leave the place clean and organized so as to let other guests enjoy the space. - Cleaning fee covers washing of laundry, vacuuming of floors, changing sheets/bedding, etc. It also covers replacement of toiletry and essentials. - Absolutely NO smoking, NO parties, and please take shoes off upon entering the apt. Thank you and I look forward to providing you with an excellent stay! -James",
42828120,Museum Mile,4347066072,verified,Alice,Manhattan,Upper East Side,40.78517,-73.95678000000001,United States,US,False,strict,Entire home/apt,2012,$112 ,$22 ,5,16.0,6/14/2019,0.47,2,1,364,"You are our guests and we are so glad to have you here.  For your safety, and ours, we ask that you meet your guests off site.  There is no smoking in the building. There are no animals allowed.  If you arrive, and we are not available to greet you, there is a lock box on the outside of the building to the right of the double front doors. The keys to the building and your guest room are there.  Once you have booked, I will give you the code for it.  In consideration of the other guests that will be sharing the bathroom, please keep your use to 15-20 minutes. There is a clipboard to sign up for a specific time for use. (i.e. to keep flight schedule, meeting etc.) If you have children staying with you, have all food and drinks for them in the common area at a table, please no food or drinks for the kids in the guest rooms, ( and loft area) to avoid spills etc.  Please keep your children in the designated areas mentioned. ( your guest room, common area to the left of the partition, and th",
42828672,Large room at luxury apartment bldg  Times Square,98100288241,verified,Ozgur,Manhattan,Hell's Kitchen,40.76072,-73.98791999999999,United States,US,True,moderate,Private room,2021,$714 ,$143 ,1,3.0,1/1/2018,0.09,1,1,0,All Renters and Guests must be 25 years of age unless accompanied by a parent or guardian. Parties of any kind are not allowed. There is no smoking allowed in the boat. Use of illegal substances will be cause for immediate termination of the rental and reported to the police. All pets must be on a leash when outside the boat.  Quiet hours are between 9:30pm and 8am.  Noise must be kept to a minimum during this time period.,
42829224,Spacious light drenched 3 bedroom,27161102536,verified,Matias,Brooklyn,Williamsburg,40.71433,-73.95857,United States,US,False,strict,Entire home/apt,2004,$560 ,$112 ,2,78.0,6/27/2019,2.27,3,1,309,"We lived next door for over five years and recently sold our condo, so please don't be an idiot. We had tenants for three years and never heard them, and they never heard us (even when we had a newborn)... and we would expect the same to be true for you. No pets and no smoking.",
42829777,Stylish 1 BD in Garment District,12129297479,verified,Trevor,Manhattan,Hell's Kitchen,40.75483,-73.99468,United States,US,False,flexible,Entire home/apt,2014,$894 ,$179 ,3,21.0,6/24/2019,0.6,1,1,3,"Please be considerate of the space and the neighbors.  Sorry, no parties allowed, this is more of a quiet space. Looking for more towels or need an extra pillow? Don't hesitate to text me! Things happen. If something gets broken, please let me know so I can replace it.",
42830329,Modern Room in Great Location (Bushwick),89561479060,verified,Colin,Brooklyn,Bushwick,40.70061,-73.92721,United States,US,True,moderate,Private room,2010,"$1,139 ",$228 ,3,2.0,8/27/2016,0.06,4,1,0,,
42830881,Peaceful and Quiet in the heart of TriBeca,13677422708,unconfirmed,Daniel,Manhattan,Tribeca,40.71705,-74.00935,United States,US,True,strict,Entire home/apt,2018,$839 ,$168 ,1,0.0,,,4,1,327,,
42831433,Sunny Room in heart of Manhattan,1167957581,verified,Alyson,Manhattan,Hell's Kitchen,40.76388,-73.98874,United States,US,True,flexible,Private room,2019,$356 ,$71 ,1,40.0,5/17/2019,1.16,2,3,345,,
42831986,The Mahogany Suite-The Solo Adventurer-ll,93868428057,unconfirmed,The Mahogany Suite(Studio Apartment,Brooklyn,East Flatbush,40.66271,-73.93498000000001,United States,US,True,moderate,Private room,2020,$751 ,$150 ,32,32.0,5/13/2019,0.93,5,3,345,,
42832538,1 br available in a Lovely 2br Apt,35306587252,unconfirmed,Lalla,Brooklyn,Bedford-Stuyvesant,40.68568,-73.95166,United States,US,True,strict,Private room,2013,$492 ,$98 ,3,59.0,9/21/2018,1.71,4,1,0,"You are our guests, we are so glad to have you here. For your safety and ours, we ask that you meet your guests off site.  Thus is a non-smoking building. No pets allowed.  Thank you",
42833090,Cozy spacious Brooklyn apartment!,24610288171,verified,Safiyah,Brooklyn,East Flatbush,40.6453,-73.94669,United States,US,True,flexible,Entire home/apt,2007,$509 ,$102 ,93,19.0,5/21/2017,0.54,5,1,89,"No Smoking on the apartment.  No Ilegal Drugs  No Parties on property. No pets PLEASE TRY  TO BE AS QUIET AS POSSIBLE CONSIDER OTHER NEIGHBORS OR TENANTS. THANK YOU IN ADVANCE!. Hull st. court apartment rules: 0.  Absolutely NO smoking in the apartment or  building.  Anyhow if you need to, please do go out to Hull street and people watch while smoking. The North end has multiple cigar bars, too! 1.  Most important, please, No Parties = be quiet, use ""indoor voices"" like they taught us in grade school!  Also, keep the stereo at a reasonable level, etc.   If YOU experience trouble with noise try to contact me immediately and I'll do what I can to stop it. 2.  Please be kind to sheets and towels, leave wet ones in the tub, and generally pick up stuff when leaving.  3. Anything at all recyclable put in the blue wheeled bin on the way out of the building on Hull st court.  Put trash in the blue trash can in the kitchen.  If you are staying for more than a few days and have trash in excess o",
42833643,Awesome Private Room in Historic Village of Harlem,17365530768,unconfirmed,Rocky,Manhattan,Harlem,40.80048,-73.94864,United States,US,False,strict,Private room,2005,$724 ,$145 ,2,79.0,6/13/2019,2.38,3,1,56,No smoking and no parties.,
42834195,Lovely stay next to Prospect Park,31613725386,unconfirmed,Alex,Brooklyn,Prospect-Lefferts Gardens,40.65563,-73.96051999999999,United States,US,True,strict,Private room,2008,"$1,166 ",$233 ,2,137.0,5/23/2019,3.94,2,1,0,,
42834747,Harlem Oasis,50425485994,unconfirmed,Ryan,Manhattan,Harlem,40.82626,-73.93831,United States,US,False,strict,Private room,2021,$624 ,$125 ,3,37.0,6/19/2019,1.06,5,1,19,,
42835300,Queen Bed/Awesome Space/Sauna & Spa Amenities,22869875387,verified,Annette C,Brooklyn,Flatlands,40.62379,-73.92995,United States,US,False,strict,Private room,2017,$866 ,$173 ,2,71.0,7/5/2019,3.1,3,3,308,"House Rules Welcome to Boston-Furnished-Rentals. We respectfully request that you take care of all furniture, appliances, and all other belongings in our apartments. Pets are allowed only with prior approval. Please turn off all lights and appliances including the A/C and heat when you leave. We also ask that you follow our trash rules while staying with us. The efforts of all our guests allow us to pass on savings for everyone. We look forward to your visit and thanks for choosing Boston-Furnished-Rentals while enjoying Boston.",
42835852,PERFECT LONG TERM RENTAL~1 BR- EAST 60TH STREET!,85058872005,verified,Ruchi,Manhattan,Upper East Side,40.7608,-73.96136,United States,US,False,moderate,Entire home/apt,2003,$123 ,$25 ,30,0.0,,,2,49,365,"Check Out is at Noon (12:00pm) unless otherwise specified. Cleanliness is next to godliness!  No smoking, no pets, no parties! Please take your shoes off upon entering the apt. Thank you!",
42836404,RATED ★★★★★ IN THIS 2 BEDROOM PRESIDENTIAL SUITE,16695452567,unconfirmed,ResortShare5,Manhattan,Midtown,40.75294,-73.9733,United States,US,False,strict,Entire home/apt,2009,$262 ,$52 ,2,23.0,5/15/2019,0.87,2,13,268,"PLEASE  NOTE: • 6.25% MA State Sales Tax is already incorporated into the room rate and extra guest fees. • The total listed as the cleaning fee is comprised of a $119 cleaning fee and a $39 damage protection plan which provides $3,000 worth of coverage for accidental damage to the property during the stay. There is no smoking allowed in the boat. Use of illegal substances will be cause for immediate termination of the rental and reported to the police. All pets must be on a leash when outside the boat.  Quiet hours are between 9:30pm and 8am.  Noise must be kept to a minimum during this time period.",
42836956,LG. RED AND WHITE COOL OASIS ROOM.,95197135755,verified,Paulette,Queens,Springfield Gardens,40.66383,-73.764,United States,US,True,strict,Private room,2006,$154 ,$31 ,2,36.0,6/19/2019,1.03,3,3,357,Residential building so no loud gatherings  No noise after 11  Basically treat it like its your place  No cleaning fee charged so please leave kitchen like you found it,
42837509,Quaint garden apartment in Clinton Hill,86540887820,verified,Ashley,Brooklyn,Clinton Hill,40.684,-73.96368000000001,United States,US,True,strict,Private room,2007,$144 ,$29 ,1,3.0,6/8/2019,0.45,1,1,299,"House Rules Welcome to Boston-Furnished-Rentals. We respectfully request that you take care of all furniture, appliances, and all other belongings in our apartments. Pets are allowed only with prior approval. Please turn off all lights and appliances including the A/C and heat when you leave. We also ask that you follow our trash rules while staying with us. The efforts of all our guests allow us to pass on savings for everyone. We look forward to your visit and thanks for choosing Boston-Furnished-Rentals while enjoying Boston.",
42838061,Gorgeous Loft,21634062204,unconfirmed,Jorge,Brooklyn,Bedford-Stuyvesant,40.6907,-73.96019,United States,US,True,moderate,Entire home/apt,2007,"$1,117 ",$223 ,4,92.0,6/16/2019,2.69,3,1,260,"House Rules Welcome to Boston-Furnished-Rentals. We respectfully request that you take care of all furniture, appliances, and all other belongings in our apartments. Pets are allowed only with prior approval. Please turn off all lights and appliances including the A/C and heat when you leave. We also ask that you follow our trash rules while staying with us. The efforts of all our guests allow us to pass on savings for everyone. We look forward to your visit and thanks for choosing Boston-Furnished-Rentals while enjoying Boston.",
42838613,"Cozy master room,17mins to midtown by EFMR7 trains",75093986466,unconfirmed,Jessica,Queens,Elmhurst,40.73958,-73.88784,United States,US,False,moderate,Private room,2021,$77 ,$15 ,1,54.0,5/22/2019,2.14,3,4,0,"Expect to have our place treated with respect, but don't want guests to feel uncomfortable so if there's a beer(s) in the fridge, feel free, snacks in the drawers, usually fresh fruit in the bowl, up for grabs etc...",
42839166,Sunny 1Bedroom in the ❤ of the city,84702218757,verified,Josh,Manhattan,Kips Bay,40.74207,-73.9824,United States,US,True,strict,Entire home/apt,2010,$195 ,$39 ,1,13.0,5/3/2017,0.37,2,1,0,"House Rules Welcome to Boston-Furnished-Rentals. We respectfully request that you take care of all furniture, appliances, and all other belongings in our apartments. Pets are allowed only with prior approval. Please turn off all lights and appliances including the A/C and heat when you leave. We also ask that you follow our trash rules while staying with us. The efforts of all our guests allow us to pass on savings for everyone. We look forward to your visit and thanks for choosing Boston-Furnished-Rentals while enjoying Boston.",
42839718,Unique Designer 1BR in Best NYC Neighborhood,78731637632,verified,Patrick,Manhattan,West Village,40.73316,-74.00782,United States,US,False,moderate,Entire home/apt,2010,"$1,048 ",$210 ,4,24.0,6/20/2019,0.7,5,1,61,"No Smoking on the apartment.  No Ilegal Drugs  No Parties on property. No pets PLEASE TRY  TO BE AS QUIET AS POSSIBLE CONSIDER OTHER NEIGHBORS OR TENANTS. THANK YOU IN ADVANCE!. Reiterating what's below>>> No parties!  No loud noises, please! - realize that there are other guests (and especially residents) like you in the building that may in fact want to get sleep on a regular basis (sometime between the hours of 10pm and 7am, probably!)  During the day, jumping jacks are probably ok. If you have any problems or if neighbors complain call me at (phone number hidden) and mediate over the phone or in person.   Hull st. court apartment rules: 0.  Absolutely NO smoking in the apartment or  building.  Anyhow if you need to, please do go out to Hull street and people watch while smoking. The North end has multiple cigar bars, too! 1.  Most important, please, No Parties = be quiet, use ""indoor voices"" like they taught us in grade school!  Also, keep the stereo at a reasonable level, etc.   I",
42840270,Madison home-,73841886486,unconfirmed,Kent,Brooklyn,Bedford-Stuyvesant,40.68895,-73.92146,United States,US,False,moderate,Private room,2015,$420 ,$84 ,1,35.0,5/1/2019,1.0,2,1,0,"No Smoking on the apartment.  No Ilegal Drugs  No Parties on property. No pets** (ask) PLEASE TRY  TO BE AS QUIET AS POSSIBLE CONSIDER OTHER NEIGHBORS OR TENANTS. THANK YOU IN ADVANCE!. Reiterating what's below>>> No parties!  No loud noises, please! - realize that there are other guests (and especially residents) like you in the building that may in fact want to get sleep on a regular basis (sometime between the hours of 10pm and 7am, probably!)  During the day, jumping jacks are probably ok. If you have any problems or if neighbors complain call me at (phone number hidden) and mediate over the phone or in person.   Hull st. court apartment rules: 0.  Absolutely NO smoking in the apartment or  building.  Anyhow if you need to, please do go out to Hull street and people watch while smoking. The North end has multiple cigar bars, too! 1.  Most important, please, No Parties = be quiet, use ""indoor voices"" like they taught us in grade school!  Also, keep the stereo at a reasonable level, ",
42840823,Big & Bright Hamilton Heights Manhattan Bedroom,4008214706,unconfirmed,Richard,Manhattan,Harlem,40.827220000000004,-73.9431,United States,US,True,flexible,Private room,2022,$118 ,$24 ,4,42.0,6/29/2019,1.37,1,1,62,"PLEASE  NOTE: • 6.25% MA State Sales Tax is already incorporated into the room rate and extra guest fees. • The total listed as the cleaning fee is comprised of a $119 cleaning fee and a $39 damage protection plan which provides $3,000 worth of coverage for accidental damage to the property during the stay. There is no smoking allowed in the boat. Use of illegal substances will be cause for immediate termination of the rental and reported to the police. All pets must be on a leash when outside the boat.  Quiet hours are between 9:30pm and 8am.  Noise must be kept to a minimum during this time period.",
42841375,2BR fully furnished in the UES - minimum 30 days,50357583057,verified,Elem,Manhattan,Upper East Side,40.783159999999995,-73.94662,United States,US,False,flexible,Entire home/apt,2007,$804 ,$161 ,30,4.0,8/4/2018,0.14,2,15,343,,
42841927,Private Small Room 4,31020828564,unconfirmed,Han,Manhattan,Hell's Kitchen,40.7619,-73.995,United States,US,True,moderate,Private room,2008,$841 ,$168 ,1,205.0,7/7/2019,5.89,2,6,179,"Quiet, residential. No smoking. No pets",
42842479,near metro,96401011359,verified,Pengfei,Queens,Elmhurst,40.73259,-73.88083,United States,US,False,flexible,Private room,2019,$221 ,$44 ,1,0.0,,,5,1,15,"Please feel to use the kitchen, laundry, etc. I take great pride in keeping my things nice, so please be respectful and we will be all set :)",
42843032,"Spacious Studio Room in Flushing, Queens",16038308127,verified,Pearl,Queens,Flushing,40.75577,-73.83263000000001,United States,US,True,moderate,Private room,2016,"$1,173 ",$235 ,2,,5/19/2019,1.23,4,1,355,House rules  1- Since this is a apartment that is lived in at times there are some closets and draws with personal items and I would ask not to use those spaces but there is plenty of space for your stuff. 2- Residential Building so no loud noises or parties especially after 10:30. 3- No overnight company unless approved. 4- Common Courtesy  5-No  or smoking.,
42843584,Private Suite · Sparkling Clean · Memory Foam,23583613675,verified,Sarah,Brooklyn,Sunset Park,40.64737,-74.01357,United States,US,True,moderate,Private room,2010,$104 ,$21 ,2,60.0,6/24/2019,1.71,2,1,4,,
42844136,Entire 1 Bedroom in Gramercy,50335460396,verified,William,Manhattan,Kips Bay,40.73903,-73.98267,United States,US,True,flexible,Entire home/apt,2014,$474 ,$95 ,2,3.0,9/24/2018,0.29,4,1,0,,
42844689,"Bright, Modern, Cozy Room in Brooklyn Artist's Apt",72206339396,verified,Kaitlyn,Brooklyn,Bedford-Stuyvesant,40.69918,-73.94513,United States,US,False,flexible,Private room,2022,$350 ,$70 ,2,159.0,7/6/2019,4.56,4,1,153,No smoking.   We do allow pets.,
42845241,纽约之家(SunnyHome5),64930319723,verified,Amy,Queens,Flushing,40.7445,-73.83171999999999,United States,US,True,moderate,Private room,2006,$461 ,$92 ,1,31.0,6/16/2019,0.91,3,3,79,,
42845793,Spacious 1 bedroom with Private Deck with Grill,97503566249,unconfirmed,Marcus,Brooklyn,Kensington,40.64535,-73.9738,United States,US,False,strict,Entire home/apt,2004,$924 ,$185 ,3,2.0,11/15/2016,0.06,5,1,0,No smoking. No pets allowed in the building. Quiet hours apply.,
42846346,Gorgeous Brooklyn Studio Apartment,42982004384,verified,Abe,Brooklyn,Prospect-Lefferts Gardens,40.66349,-73.94221999999999,United States,US,True,flexible,Entire home/apt,2019,$295 ,$59 ,28,9.0,4/28/2019,0.26,1,1,219,"This is my apartment that I rent out when I'm away; I ask that you treat my things as you would yours and leave it as you found it.  There is no smoking in the apartment as well as no pets. - Please be quiet in the hallway/stairs - I live in a small apartment building (5 apartments) and all of my neighbors are very quiet and polite so please reciprocate. - No overnight guests that are not on the reservation/have not been agreed upon in advance. - No smoking in the apartment, out the window, etc.   -Please be mindful of shutting off lights when not in use/when leaving the apartment. -If you cook please take care of your dishes (you can use the dishwasher). ",
42846898,Amazing Luxury located in the Middle of Manhattan!,36207922537,verified,Gene,Manhattan,Theater District,40.76112,-73.98473,United States,US,False,moderate,Private room,2014,$288 ,$58 ,5,91.0,7/2/2019,2.63,5,1,143,"Since I actually live here for part of the time, the closet space is off limits. Please no shoes in the house!",
42847450,Cozy Studio in Midtown,81890205069,verified,Shruti,Manhattan,Murray Hill,40.74993,-73.977,United States,US,False,flexible,Entire home/apt,2008,$654 ,$131 ,2,32.0,6/19/2019,0.91,3,1,0,Please be respectful of the space and building!  No loud noises or extra guests beyond 10pm.,
42848002,Friendly and well-located place to get away,36763095977,unconfirmed,Tristan,Brooklyn,Park Slope,40.6681,-73.97726,United States,US,False,strict,Shared room,2007,$476 ,$95 ,1,46.0,2/3/2018,1.38,2,2,0,,
42848555,Lovely Bijou!! 5MIN.to MANHATTAN,25814834827,unconfirmed,Nika,Queens,Long Island City,40.74493,-73.94679000000001,United States,US,True,moderate,Private room,2011,"$1,075 ",$215 ,1,86.0,6/19/2019,2.63,1,2,337,,
42849107,Surfside Studio,30419026310,unconfirmed,Melissa,Queens,Rockaway Beach,40.58634,-73.81867,United States,US,False,flexible,Entire home/apt,2003,$226 ,$45 ,1,144.0,7/7/2019,4.13,1,2,134,Absolutely no parties are permitted. The apartment is in a multi-unit building so guests must be respectful of other tenants in the building.,
42849659,1 Person Only 1 Bdrm LES/East Village HugeDeck,15332274772,unconfirmed,Raymond,Manhattan,Lower East Side,40.72163,-73.98715,United States,US,True,strict,Private room,2006,"$1,069 ",$214 ,2,165.0,6/17/2019,4.77,2,2,2,"No Smoking on the apartment.  No Ilegal Drugs  No Parties on property. No pets PLEASE TRY  TO BE AS QUIET AS POSSIBLE CONSIDER OTHER NEIGHBORS OR TENANTS. THANK YOU IN ADVANCE!. Reiterating what's below>>> No parties!  No loud noises, please! - realize that there are other guests (and especially residents) like you in the building that may in fact want to get sleep on a regular basis (sometime between the hours of 10pm and 7am, probably!)  During the day, jumping jacks are probably ok. If you have any problems or if neighbors complain call me at (phone number hidden) and mediate over the phone or in person.   Hull st. court apartment rules: 0.  Absolutely NO smoking in the apartment or  building.  Anyhow if you need to, please do go out to Hull street and people watch while smoking. The North end has multiple cigar bars, too! 1.  Most important, please, No Parties = be quiet, use ""indoor voices"" like they taught us in grade school!  Also, keep the stereo at a reasonable level, etc.   I",
42850212,"Bright, Modern, Safe, Clean Apartment in Astoria",1653006465,verified,Savannah,Queens,Astoria,40.76137,-73.91109,United States,US,False,strict,Entire home/apt,2009,$516 ,$103 ,2,0.0,,,4,2,363,We expect from you just to respect the basic rules: no smoking and being careful with the house furniture and things.,
42850764,A Warm Friendly Host for Everlast,54477896414,unconfirmed,Rahim,Manhattan,Inwood,40.86238,-73.92806,United States,US,True,strict,Entire home/apt,2021,$672 ,$134 ,3,0.0,,,5,1,0,"Respect my home, space and belongings.  Absolutely no smoking allowed in the unit.   Please respect my neighbors by keeping the noise levels to a minimum, particularly between the hours of 10pm-7am.  Enjoy your stay in Boston, fall in love with my city and make yourself at home!!",
42851316,"Home Base, Minutes to Manhattan!!!",71130894197,unconfirmed,Angelika,Brooklyn,Bedford-Stuyvesant,40.69532,-73.94407,United States,US,True,strict,Entire home/apt,2018,$632 ,$126 ,2,133.0,6/24/2019,3.83,4,1,178,"No smoking, no loud music after 11pm.",
42851869,Sunny huge FiDi loft w water views,4934111567,verified,Julia,Manhattan,Financial District,40.70483,-74.01545,United States,US,False,strict,Entire home/apt,2005,$389 ,$78 ,4,17.0,6/8/2019,0.67,2,1,203,"WHEN BOOKING, PLEASE PROVIDE THE FOLLOWING IN YOUR MESSAGE to me:  - 1. Total number of guests (adults, children, babies)? Are there any elderly or children under 18? If so, what are their ages?  - 2. Arrival Date AND Time of Check In? (Check In between 2 pm and 9 pm with some leniency)  - 3. Departure Date (Check out before 12 pm/noon ideally)  - 4. Please tell me a little about yourselves and the purpose of your trip. - 5. What Other Needs or Special Requests or Extra Options (please read below for additional options and possible related additional fees).  ------  PLEASE NOTE THE FOLLOWING BEFORE REQUESTING A BOOKING:  * I will reply as soon as possible to let you know if my apartment will be available for ALL your needs.  - 1. We are happy to host Friendly, Neat, Low-Maintainence Adults & Well-Behaved Children.  ---- All cookware and utensils in the kitchen are at your disposal, but please ask about food before eating as this is my home and I may be saving something. There will be w",
42852421,Comfortable place for short term stay.,70940535780,verified,Samuel,Brooklyn,East Flatbush,40.65446,-73.92613,United States,US,False,flexible,Shared room,2005,"$1,122 ",$224 ,100,1.0,10/10/2016,0.03,5,1,0,,
42852973,Williamsburg Dream Loft,50282454381,verified,Itay,Brooklyn,Williamsburg,40.70774,-73.94819,United States,US,False,flexible,Private room,2005,$235 ,$47 ,2,157.0,7/1/2019,4.54,1,1,68,"Please remember that this is a residential building. The building rules, apartment occupancy restrictions, and the year-round tenants must be respected. There is no smoking allowed in the apartments and significant fees will take place if occurs.",
42853525,Upper Manhattan,45021481867,verified,Orquid,Manhattan,Inwood,40.86438,-73.92787,United States,US,False,flexible,Private room,2013,$178 ,$36 ,1,0.0,,,1,2,365,No Smoking on the apartment.  No illegal  Drugs  No Parties on property. No pets PLEASE TRY  TO BE AS QUIET AS POSSIBLE CONSIDER OTHER NEIGHBORS OR TENANTS. THANK YOU IN ADVANCE!.,
42854078,Beautiful Apartment in the Heart of Harlem,2190009046,verified,Wendell,Manhattan,Harlem,40.82315,-73.93726,United States,US,False,strict,Private room,2020,$746 ,$149 ,3,86.0,6/18/2018,2.47,5,2,38,"Please, no smoking, and treat our home like your home.",
42854630,Perfect master bedroom in Brooklyn garden duplex,42523342139,unconfirmed,Laurel,Brooklyn,Bushwick,40.69174,-73.91141,United States,US,False,flexible,Private room,2009,$98 ,$20 ,3,3.0,7/25/2018,0.16,2,2,332,"No smoking or loud parties inside the apartment. As long as you are respectful, and do not cause any damage to the property or make too much noise to disturb me or the neighbors, you will be fine!",
42855182,"Spacious bedroom in Greenpoint, Brooklyn",8741255547,verified,Ashli,Brooklyn,Greenpoint,40.733740000000004,-73.95617,United States,US,True,strict,Private room,2014,$832 ,$166 ,20,3.0,8/29/2016,0.09,2,1,0,"I only accept clean people , reliable, no smokers. no alchool or drug tollerated.",
42855735,20-25 minutes to downtown NYC/30-40 to midtown,43604059590,verified,Alan,Brooklyn,Bedford-Stuyvesant,40.69625,-73.93696,United States,US,True,moderate,Private room,2012,"$1,078 ",$216 ,30,85.0,5/5/2019,2.45,2,4,232,"-  1.Guest(s) agree to NO PARTIES anywhere on the property. Legal action will be taken for parties that cause damages to the unit, property, reputation, or relationship with building staff or other residents.  2.Smoking of any kind is not permitted in the unit or on the premises. Fee for smoking will be 10 times your total reservation cost. For example, your total reservation cost is $350. Fee for smoking on premises will be $3,500. 3.Guests agree to abide by maximum occupancy of unit, and observe quiet hours between 9pm and 9am  4.Guests are responsible for action of ALL GUESTS occupying their unit at all times.  5.Guests agree to return all keys, remotes. Replacement fees may apply for unreturned items  6.Guests understand that onsite building staff (maintenance and concierge) are not affiliated with AIRBNB. Please contact me directly for any needed items.  7.Guests understand that no pets are to be in the unit.  8.Guests agree to pay replacement cost for any unreturned items, and $6",
42856287,Large room in Bushwick Loft!,61775761642,unconfirmed,Anna,Brooklyn,Williamsburg,40.70525,-73.93281,United States,US,True,moderate,Private room,2017,$918 ,$184 ,1,16.0,3/25/2018,0.51,1,1,0,Guests only have access to the first floor bedroom and bathroom.  The rest of the house is off limits.  Guests who stay a week or more may use the laundry in the basement for free.  Please do not apply hair or beard dye in the bathroom as it was recently renovated.  Please feel free to send me any special requests and I will try to honor them.,
42856839,20-25 minutes to downtown NYC/30-40 to midtown,54521921402,unconfirmed,Alan,Brooklyn,Bedford-Stuyvesant,40.69784,-73.93694,United States,US,True,moderate,Private room,2012,$364 ,$73 ,30,84.0,4/20/2019,2.53,4,4,284,"This apartment is in a 3 families residential building, there is a no smoking and no drug policy, and the occupants should be concerned with common courtesy and no noises after 9.30-10 pm. No parties are allowed.  We will meet you when you arrive at the building with the keys and will explain anything else you might like to know.  We look forward to meeting you.   ",
42857392,Stellar Midtown Apt Extended Stay,94025553415,verified,Corporate Housing,Manhattan,Hell's Kitchen,40.76142,-73.99248,United States,US,True,flexible,Entire home/apt,2004,$893 ,$179 ,30,2.0,10/31/2018,0.15,3,91,4,,
42857944,Midtown 3 BR Elevator - Best Location,26952386169,unconfirmed,Corporate Housing,Manhattan,Hell's Kitchen,40.760709999999996,-73.99032,United States,US,True,moderate,Entire home/apt,2020,$457 ,$91 ,30,4.0,3/31/2019,0.21,5,91,138,"The usual: no smoking, no parties, no pets (sadly)! Please remove shoes upon entering the apartment, and be mindful of neighbors. It's a quiet building at any hour of the day, so do try to preserve the status quo. Thank you!",
42858496,Brooklyn Duplex in a beautiful brownstone,69146344911,unconfirmed,Shay & Anat,Brooklyn,Bedford-Stuyvesant,40.69173,-73.95885,United States,US,False,flexible,Entire home/apt,2007,$243 ,$49 ,2,33.0,6/9/2019,1.08,5,1,255,,
42859048,Spacious studio in amazing location,5892598875,unconfirmed,Sara,Manhattan,Gramercy,40.737109999999994,-73.98573,United States,US,True,flexible,Entire home/apt,2006,$537 ,$107 ,5,7.0,7/5/2018,0.2,5,1,0,As if it were your own home!,
42859601,"3-Bedroom Apartment, 10 Minutes from Manhattan",80836786903,unconfirmed,Jason,Queens,Astoria,40.755390000000006,-73.91709,United States,US,True,moderate,Entire home/apt,2022,$479 ,$96 ,30,7.0,4/4/2019,0.23,5,8,241,,
42860153,Swimming Pool! 2 Bed 2 bath Amazing Layout!5143,24059660233,unconfirmed,Jeremy & Laura,Manhattan,Upper West Side,40.79371,-73.96708000000001,United States,US,True,moderate,Entire home/apt,2009,$462 ,$92 ,30,2.0,4/1/2018,0.06,1,96,250,#NAME?,
42860705,Massive Brownstone Close to Express Trains,41752605568,verified,Milton,Manhattan,Harlem,40.8305,-73.9437,United States,US,True,moderate,Private room,2013,"$1,120 ",$224 ,2,38.0,1/1/2019,1.09,4,1,0,#NAME?,
42861258,Clean & Amazing Semi Private NYC Room by #1 Train,10274531694,unconfirmed,Jovanni & Natasha,Bronx,Fieldston,40.89581,-73.89778000000001,United States,US,False,strict,Private room,2022,"$1,153 ",$231 ,2,7.0,4/17/2017,0.21,1,2,0,No smoking and no parties,
42861810,Inwood Manhattan everything close!!,14155517500,verified,Waldy,Manhattan,Inwood,40.86763,-73.91792,United States,US,True,flexible,Private room,2021,$284 ,$57 ,3,83.0,5/31/2019,2.39,2,1,300,"There are still some older people in this neighborhood and it should go without saying it is important to have respect for the locals.  No smoking, & no parties!",
42862362,Private Ground Floor Studio Apartment Near JFK/LGA,63824953750,verified,Shanie,Queens,Jamaica,40.69961,-73.81264,United States,US,True,strict,Entire home/apt,2018,"$1,076 ",$215 ,1,79.0,7/1/2019,3.01,5,2,63,"Absolutely, No Smoking, No parties.",
42862915,Central Park Slope Garden Apartment,92617480699,verified,Declan,Brooklyn,Park Slope,40.66894,-73.98516,United States,US,False,strict,Entire home/apt,2017,$352 ,$70 ,4,33.0,11/19/2018,0.96,5,1,159,No pets and no smoking. Please place all of your dishes in the dishwasher.,
42863467,Cozy & Affordable Room for 2,59006542580,unconfirmed,Via,Brooklyn,Sheepshead Bay,40.58615,-73.94784,United States,US,False,strict,Private room,2013,$926 ,$185 ,1,13.0,7/30/2018,0.38,1,1,332,,
42864019,Breathtaking City Views 3 Bed Apt. in Lincoln Sq!,72443383849,verified,Henry,Manhattan,Upper West Side,40.7791,-73.98182,United States,US,False,strict,Entire home/apt,2010,"$1,033 ",$207 ,30,8.0,12/10/2016,0.24,2,11,365,No pets  No smoking  No loud partying in the space,
42864571,20-25 minutes to downtown NYC/30-40 to midtown,1549283875,unconfirmed,Alan,Brooklyn,Bedford-Stuyvesant,40.695679999999996,-73.93384,United States,US,False,strict,Private room,2020,$122 ,$24 ,30,97.0,5/4/2019,2.79,5,4,312,"PLEASE  NOTE: • 6.25% MA State Sales Tax is already incorporated into the room rate and extra guest fees. • The total listed as the cleaning fee is comprised of a $119 cleaning fee and a $39 damage protection plan which provides $3,000 worth of coverage for accidental damage to the property during the stay. There is no smoking allowed in the boat. Use of illegal substances will be cause for immediate termination of the rental and reported to the police. All pets must be on a leash when outside the boat.  Quiet hours are between 9:30pm and 8am.  Noise must be kept to a minimum during this time period.",
42865124,Large bedroom in Luxury bldg West Harlem,93292369592,unconfirmed,Laura,Manhattan,Harlem,40.82483,-73.95394,United States,US,True,moderate,Private room,2011,$880 ,$176 ,14,25.0,6/5/2019,0.75,4,1,6,,
42865676,Modern furnished 2-Bedroom NYC Apartment!,87332089612,verified,Kara,Manhattan,Hell's Kitchen,40.76025,-73.99811,United States,US,True,flexible,Entire home/apt,2020,$647 ,$129 ,30,3.0,11/15/2018,0.1,1,121,185,"Please Note: This unit was just renovated in August 2015 and it comfortably accommodates one to three guests, but up to 4 guests are permitted if you so desire (two guests in the bedroom, 1 guest on the available twin air mattress and 1 guest on the couch). Please request an air mattress (if needed) when making a reservation. No smoking, no pets, no parties, and must be 25 years old to book.   For check-out, please ensure: -  All plates and cups are left in the sink or dishwasher -  All trash is left in the kitchen trash can or bagged and left next to the trash can (additional bags are under the sink) -  All windows are closed and locked -  If used, the air mattresses are deflated and put away (please leave used linens for the air mattresses on the floor) -  If furniture was moved during your stay, please return to its original location Please be mindful to our neighbors in the building; quiet hours after 10pm. Please be considerate of our next guests who will be staying after you, if ",
42866228,Modern Studio Apartment in perfect location!,79985786391,unconfirmed,Haley,Brooklyn,Prospect-Lefferts Gardens,40.65549,-73.96183,United States,US,False,moderate,Entire home/apt,2015,$510 ,$102 ,3,1.0,10/7/2016,0.03,2,1,83,"Although we understand the wear and tear that little ones make, we expect that all messes will be cleaned up as they happen and you will be respectful of the neighbors.",
42866781,Cozy Private Bedroom and Bathroom in Brooklyn,73860717991,unconfirmed,Sarah,Brooklyn,Bedford-Stuyvesant,40.68179,-73.95251999999999,United States,US,True,flexible,Private room,2016,"$1,001 ",$200 ,3,67.0,6/22/2019,1.95,2,1,70,"I own a dog, but she will not be present for your stay.",
42867333,Bensonhurst Gem,15930418144,unconfirmed,Tuan-Phi,Brooklyn,Bensonhurst,40.607490000000006,-73.99225,United States,US,False,strict,Entire home/apt,2020,$977 ,$195 ,1,1.0,8/28/2016,0.03,5,1,0,"This is our home, so please treat it kindly and respect our personal property.",
42867885,An Apartment for Families near by Tom's Restaurant,4319768244,unconfirmed,Mustafa,Manhattan,Morningside Heights,40.80429,-73.96499,United States,US,True,strict,Entire home/apt,2017,$305 ,$61 ,2,2.0,9/10/2016,0.06,5,1,0,,
42868438,Artist Loft w/ AMAZING views of Manhattan,93655343074,verified,Tracie,Brooklyn,Greenpoint,40.7272,-73.94374,United States,US,False,moderate,Private room,2009,$546 ,$109 ,14,4.0,8/15/2018,0.12,2,1,17,"No smoking, no pets, no parties please. Respect property and neighbors.",
42868990,Hamilton Heights Sunny Bedroom,82071855301,verified,Laura,Manhattan,Harlem,40.82475,-73.9507,United States,US,False,flexible,Private room,2022,$586 ,$117 ,1,4.0,8/20/2017,0.16,3,1,0,"Please Note: This unit was just renovated in 2015 and it comfortably accommodates four guests, but up to 6 guests are permitted if you so desire (two guests in each bedroom and 2 guests on the two available twin size air mattresses). Please request an air mattress(es) (if needed) when making a reservation. No smoking, no pets, no parties, and must be 25 years old to book.   For check-out, please ensure: -  All plates and cups are left in the sink or dishwasher -  All trash is left in the kitchen trash can or bagged and left next to the trash can (additional bags are under the sink) -  All windows are closed and locked -  If used, the air mattresses are deflated and put away (please leave used linens for the air mattresses on the floor) -  If furniture was moved during your stay, please return to its original location Please be mindful to our neighbors in the building, quiet hours after 10pm is not a must, but a nice gesture. Please be considerate of our next guests who will be staying ",
42869542,"sunny airy bohemian rm, private bath! hip 'shwick",98612533920,verified,Theodora,Brooklyn,Bushwick,40.7014,-73.91798,United States,US,False,flexible,Private room,2013,$592 ,$118 ,2,4.0,4/30/2018,0.12,4,1,0,"No smoking and no pets, no parties.",
42870094,Beautifu large studio in the heart  of Manhattan,97129257549,verified,Roberto,Manhattan,Midtown,40.75797,-73.97004,United States,US,True,flexible,Entire home/apt,2015,$536 ,$107 ,7,29.0,6/22/2019,0.86,1,1,31,No smoking.,
42870647,"COZY KING SIZE BED, NEAR AIRPORTS",68055736647,unconfirmed,Zhur,Queens,Richmond Hill,40.69621,-73.84532,United States,US,False,flexible,Private room,2016,$498 ,$100 ,2,8.0,12/23/2018,0.23,5,2,337,,
42871199,"HUGE ROOM,PRIVATE BATH FORT GREENE/CLINTON HILL",76082731754,unconfirmed,Jason,Brooklyn,Clinton Hill,40.68548,-73.96625,United States,US,True,moderate,Private room,2011,$599 ,$120 ,4,2.0,11/7/2016,0.06,1,1,0,Please leave the studio in the condition as in arrival. Please turn off lights and heat/air when exiting. Please lock both top and bottom locks. Please feel free to call or text me with questions or concerns.,
42871751,PRIME WILLIAMSBURG ROOM. ONE STOP FROM MANHATTAN,64575536973,unconfirmed,Valentina,Brooklyn,Williamsburg,40.71906,-73.95725999999999,United States,US,True,strict,Private room,2005,"$1,106 ",$221 ,1,35.0,6/23/2019,1.01,3,1,247,,
42872304,"Large private room in Astoria, 20 mins to mid-town",81851834699,unconfirmed,Summer,Queens,Ditmars Steinway,40.773920000000004,-73.91678,United States,US,False,strict,Private room,2018,$492 ,$98 ,2,10.0,8/8/2018,0.46,3,1,0,"Please no smoking or pets. You are welcome to use our cookware, dishes and utensils. We just ask that you are respectful of the things in the apartment. ",
42872856,Beautiful loft apt. on quiet Bed-Stuy block,38449190480,verified,Valentina,Brooklyn,Bedford-Stuyvesant,40.68112,-73.9302,United States,US,False,moderate,Entire home/apt,2015,$401 ,$80 ,3,59.0,6/22/2019,1.73,5,1,57,,
42873408,Bushwick Suite,47684953641,unconfirmed,Dee,Brooklyn,Bushwick,40.68891,-73.92084,United States,US,True,strict,Private room,2013,$851 ,$170 ,1,6.0,11/28/2018,0.17,2,2,0,"I expect my guests to be respectful of me, my space and my belongings. I am pretty laid back, but a few things to note: - No pets - No smoking or drugs - Please don't eat my food without my permission (but you can store stuff if you want!) - Feel free to text me if you need to get ahold of me for any reason. - If you leave something behind, I don't have a problem trying to get it back to you, but it will be on your dime. - No more than two guests, please! - Please keep loud noise to a minimum. - Please respect my privacy if I go into my room.",
42873961,Sunny room in PRIME Brooklyn!,66100403118,verified,Jessica,Brooklyn,Bushwick,40.70497,-73.9233,United States,US,True,strict,Private room,2016,$139 ,$28 ,4,3.0,9/23/2018,0.09,1,1,0,"Please don't be loud or disrespectful, this is a fun neighborhood, but also a family neighborhood.  If you use any food/Beverage/Alcohol, please replace.",
42874513,Big bedroom in the heart of Greenpoint,49228164104,unconfirmed,Nathaniel,Brooklyn,Greenpoint,40.73271,-73.95536,United States,US,False,moderate,Private room,2003,"$1,141 ",$228 ,4,1.0,9/14/2016,0.03,5,1,0,"Being clean and respectful of our apartment, the building and it's tenants is our number 1 ""rule"". Other than that, no pets or smoking allowed. We also ask you be mindful of our furniture, and use the coasters given. There will be a $25 fee if we find watermarks and extensive scratches. We will have before photos for guests to sign off on, insuring that we will not place blame on guests for marks previously on furniture.  ",
42875065,Cozy studio In Bed Stuy Brooklyn,72377019452,unconfirmed,Rodney,Brooklyn,Bedford-Stuyvesant,40.68253,-73.9501,United States,US,True,strict,Entire home/apt,2017,$555 ,$111 ,1,31.0,9/20/2018,0.89,3,1,345,,
42875617,Cozy room in convenient Midtown West location,20542838883,unconfirmed,Lin,Manhattan,Hell's Kitchen,40.76144,-73.98849,United States,US,True,strict,Private room,2003,$975 ,$195 ,2,16.0,5/16/2019,0.47,5,1,6,Apartment is located in quiet neighborhood so noise is ok as long as it's not excessive.  We have a strict no-pet and no-smoking policy. This is our building policy and also a strongly enforced household policy.,
42876170,Sunny and Spacious Bedroom in the East Village,98502907378,unconfirmed,Fayth,Manhattan,East Village,40.730290000000004,-73.98725,United States,US,False,flexible,Private room,2008,"$1,090 ",$218 ,4,9.0,3/16/2018,0.26,3,2,0,No smoking.   We do allow pets.,
42876722,"Madison Ave Palace  - Washer Dryer, Outdoor Deck",84577888666,unconfirmed,Corporate Housing,Manhattan,Upper East Side,40.78321,-73.95645999999999,United States,US,False,flexible,Entire home/apt,2004,$473 ,$95 ,30,4.0,4/30/2019,0.21,5,91,311,"WHEN BOOKING, PLEASE PROVIDE THE FOLLOWING IN YOUR MESSAGE to me:  - 1. Total number of guests (adults, children, babies)? Are there any elderly or children under 18? If so, what are their ages?  - 2. Arrival Date AND Time of Check In? (Check In between 2 pm and 9 pm with some leniency)  - 3. Departure Date (Check out before 11 am/noon ideally)  - 4. Please tell me a little about yourselves and the purpose of your trip.  - 5. What Other Needs or Special Requests or Extra Options (please read below for additional options and possible related additional fees).  ------  PLEASE NOTE THE FOLLOWING BEFORE REQUESTING A BOOKING:  * I will reply as soon as possible to let you know if my apartment will be available for ALL your needs.  - 1. We are happy to host Friendly, Neat, Low-Maintainence Adults & Well-Behaved Children.  ---- All cookware and utensils in the kitchen are at your disposal. There will be water (brita) and basic condiments provided for you. We ask that you rinse whatever dishes",
42877274,2br Apartment w/ Balcony & Free Airport Pickup!,50246526876,unconfirmed,Jared,Queens,Sunnyside,40.746340000000004,-73.9179,United States,US,True,strict,Entire home/apt,2006,$548 ,$110 ,1,6.0,5/26/2019,0.18,4,4,365,,
42877827,Spacious Room in HUGE Manhattan flat!,76883261462,unconfirmed,Marie,Manhattan,Harlem,40.80676,-73.94658000000001,United States,US,True,strict,Private room,2003,$409 ,$82 ,4,9.0,9/1/2017,0.26,4,2,0,,
42878379,Upper Westside  Room w/ Private Bath & View,43243834431,unconfirmed,Christina,Manhattan,Harlem,40.82489,-73.95336999999999,United States,US,False,strict,Private room,2013,$285 ,$57 ,2,93.0,6/27/2019,2.69,2,1,215,No smoking.   We do allow pets.,
42878931,Location! Location! Location! ... in a cute studio,8778193029,verified,Brigid,Brooklyn,Williamsburg,40.71588,-73.94296999999999,United States,US,True,strict,Entire home/apt,2007,$718 ,$144 ,14,4.0,9/10/2017,0.12,1,1,0,,
42879484,Private Large Studio-size Room,59819200816,unconfirmed,Angelo,Brooklyn,Bedford-Stuyvesant,40.68683,-73.95004,United States,US,True,strict,Private room,2020,$396 ,$79 ,1,25.0,6/29/2019,2.08,2,1,28,,
42880036,"Quaint, sunny, and quiet room overlooking garden.",40378997650,verified,Amey,Queens,Sunnyside,40.739670000000004,-73.92367,United States,US,False,strict,Private room,2014,"$1,065 ",$213 ,2,7.0,11/13/2016,0.21,2,1,0,"Please no smoking, pets or candles in the apartment. Thank you.",
42880588,Large 1 Bedroom near Prospect Park,90409657225,unconfirmed,Sogol,Brooklyn,Prospect-Lefferts Gardens,40.66028,-73.961,United States,US,False,flexible,Entire home/apt,2004,$200 ,$40 ,2,1.0,9/5/2016,0.03,3,1,0,No smoking.   We do allow pets.,
42881140,Cozy minimalist room close to train (1),2437793627,verified,Silvia,Brooklyn,East New York,40.67539,-73.89039,United States,US,False,moderate,Private room,2010,$593 ,$119 ,3,101.0,6/16/2019,2.92,3,8,323,NO SMOKING AND NO PETS ALLOWED!!,
42881693,Pr1vate Room(Queensizebed)$100,9387505553,verified,Shirley,Brooklyn,Crown Heights,40.67181,-73.925,United States,US,True,moderate,Private room,2010,$780 ,$156 ,1,16.0,1/1/2019,0.46,3,2,365,,
42882245,Lovely bedroom in the heart of Brooklyn,66912780798,verified,Pau,Brooklyn,Midwood,40.61679,-73.96016,United States,US,True,flexible,Private room,2022,$89 ,$18 ,5,0.0,,,5,1,0,"- Please be quiet in the hallway/stairs late at night - I live in a small apartment building (5 apartments), my neighbors are young professionals (no college students) and are very quiet and polite  so please reciprocate - No overnight guests that are not on the reservation/have not been agreed upon in advance. - No smoking in the apartment, out the window, etc.   -Please be mindful of shutting off lights, air conditioners, etc when not in use/when leaving the apartment. -If you cook please take care of your dishes (you can use the dishwasher).",
42882797,1 bedroom w/PRIVATE full bathroom (BUSHWICK),98318162246,verified,Adhat,Brooklyn,Bushwick,40.705420000000004,-73.92025,United States,US,True,flexible,Private room,2006,$826 ,$165 ,15,0.0,,,4,1,0,Please observe quiet after 11pm. Please tidy up if you use any dishes. Please no smoking.,
42883350,Amazing Space in the Heart of Williamsburg,37969682616,verified,James,Brooklyn,Williamsburg,40.71417,-73.94463,United States,US,True,flexible,Entire home/apt,2016,"$1,093 ",$219 ,10,1.0,9/26/2017,0.05,2,1,0,"Please be respectful of our neighbors. No loud parties and music, but have fun!",
42883902,2A Lovely one bedroom apartment in Williamsburg,62730124449,verified,Krzysztof,Brooklyn,Williamsburg,40.719429999999996,-73.94255,United States,US,False,strict,Entire home/apt,2006,"$1,191 ",$238 ,30,11.0,5/31/2019,0.34,2,8,144,,
42884454,South-By-Southwest Room,44083088992,verified,Max,Manhattan,Upper West Side,40.80093,-73.9601,United States,US,True,flexible,Private room,2018,$177 ,$35 ,3,96.0,7/6/2019,2.8,3,1,134,,
42885007,Big Apartment with Balcony by Central Park,9461461738,unconfirmed,Aziz,Manhattan,East Harlem,40.79834,-73.94761,United States,US,True,strict,Entire home/apt,2005,$468 ,$94 ,1,8.0,2/22/2017,0.23,2,1,0,,
42885559,Home 4 Medical Professionals- Stuyvesant Heights 1,86155367885,verified,Stat,Brooklyn,Bedford-Stuyvesant,40.68793,-73.95246,United States,US,False,moderate,Private room,2016,$88 ,$18 ,30,1.0,2/18/2017,0.03,4,43,365,,
42886111,Immaculate Private Apt Under $10 Uber to JFK*,3668130206,unconfirmed,Deborah,Queens,Jamaica,40.68358,-73.7967,United States,US,False,strict,Entire home/apt,2020,$640 ,$128 ,1,94.0,7/4/2019,2.71,5,2,180,"Please Note: This unit was just renovated in February 2016 and it comfortably accommodates one to three guests, but up to 4 guests are permitted if you so desire (two guests in the bedroom, 1 guest on the available twin air mattress and 1 guest on the sofa). Please request an air mattress (if needed) when making a reservation. No smoking, no pets, no parties, and must be 25 years old to book.   For check-out, please ensure: -  All plates and cups are left in the sink or dishwasher -  All trash is left in the kitchen trash can or bagged and left next to the trash can (additional bags are under the sink) -  All windows are closed and locked -  If used, the air mattress is deflated and put away (please leave used linens for the air mattresses on the floor) -  If furniture was moved during your stay, please return to its original location Please be mindful to our neighbors in the building; quiet hours after 10pm. Please be considerate of our next guests who will be staying after you, if so",
42886663,"Modern and Safe Place,Free Wifi",2524011534,verified,Elliot,Queens,St. Albans,40.700520000000004,-73.75184,United States,US,False,strict,Private room,2012,$214 ,$43 ,4,0.0,,,1,1,365,"We are in a neighborhood where families and people live, so we expect respect to all our rules that imply not disturbing the neighbors around us. We don't allow smoking ( any kind of smoking including cigars, or anything else) in the unit or outside ( meaning at the door). If there is smell of cigarette or any other type of smell in the apartment  such as in bedding, furniture, etc. we will discount the complete security deposit, no exceptions.    Excessive cleaning from misuse of the place will have extra cleaning charges. We don't allow loud music or noise that will bother our neighbors.  We are happy to host people who will treat this unit as an apartment not as a hotel room.  **We are in the city so some noise from the streets, traffic, people, and other noise out of control might be heard but can't have any liability over the noise that might occur.",
42887216,"3 BD,2 BTH, Doorman,15 mins to Midtown",33295254436,unconfirmed,Roy & Rita,Manhattan,Harlem,40.8222,-73.94323,United States,US,False,flexible,Entire home/apt,2018,"$1,174 ",$235 ,2,15.0,7/7/2019,0.58,1,1,54,,
42887768,Quiet room with loft bed,50617962521,unconfirmed,Ari,Brooklyn,Williamsburg,40.716,-73.955,United States,US,False,strict,Private room,2009,$99 ,$20 ,5,57.0,6/25/2019,1.65,3,3,104,"Please treat this like you would your own home, and be respectful of the space. This is our home too and not just a hotel to make extra money. If you smoke, please do so outside. Having guests over is fine, but be courteous of our neighbours. Please do clean the dishes and leave them inside the dish washer to dry. Don't hesitate to reach out to us if you have any issues!",
42888320,Huge Sunny Private Bedroom in heart of Brooklyn,82770588225,verified,Daniel,Brooklyn,Bushwick,40.69951,-73.92848000000001,United States,US,False,flexible,Private room,2016,$969 ,$194 ,30,6.0,3/22/2019,0.18,5,1,0,"Please feel free to use anything in the kitchen as needed, but please clean up after yourself. Please don't use metal utensils on the pots/pans as it can scratch the non-stick surface.",
42888873,Lovely & bright apartment in center of Park Slope,56588410070,verified,Talia,Brooklyn,Park Slope,40.66961,-73.97991,United States,US,True,moderate,Entire home/apt,2017,"$1,013 ",$203 ,30,17.0,6/9/2019,0.5,4,1,0,Please treat the home like it was your own.  No smoking or pets allowed.,
42889425,Bright Room in Bushwick,80034684406,unconfirmed,Jacob,Brooklyn,Bushwick,40.68815,-73.91344000000001,United States,US,True,moderate,Private room,2003,$891 ,$178 ,3,7.0,3/31/2018,0.22,1,1,0,,
42889977,Midtown East Pied-à-Terre,82068592874,unconfirmed,Cranston,Manhattan,Midtown,40.75586,-73.96185,United States,US,True,flexible,Entire home/apt,2016,$217 ,$43 ,6,23.0,7/1/2019,2.23,5,1,89,,
42890530,Sunny Master Bedroom / Harlem,58918737947,unconfirmed,Kenny,Manhattan,Harlem,40.81285,-73.95439,United States,US,False,moderate,Private room,2017,$839 ,$168 ,2,3.0,11/12/2016,0.09,4,1,0,,
42891082,Beautiful Designer 1 bedroom Apt Midtown Manhattan,21149411009,verified,Jerald,Manhattan,Hell's Kitchen,40.76688,-73.99401999999999,United States,US,False,moderate,Entire home/apt,2008,"$1,112 ",$222 ,3,31.0,7/3/2019,0.94,2,1,51,,
42891634,Ditmas Park Beautiful Spacious Apartment,66682991871,verified,Tiffany,Brooklyn,Flatbush,40.63825,-73.95654,United States,US,False,moderate,Entire home/apt,2006,$425 ,$85 ,2,18.0,4/22/2019,0.52,4,1,0,"House Rules 1. Check-in is 4 pm local time. If the unit is ready earlier, we’ll let you know. Check-out is normally 11 am local time, but we’d be happy to extend it as long as we don’t have a cleaning scheduled. Just let us know.  2. All bookings require a security deposit of at least $300, which will be refunded within 7 days of your check-out. 3. For security measures we require all guests to provide proof of identification through ID verification on our own website. In order to check in we'll need a photo of your ID.  4. Our cancellation policy is as shown on our ad and defined by the site you are booking through.  5. Don’t let $300 go up in smoke. There's no smoking allowed in any Flatbook and a $300 fine for breaking this rule.  6. Unfortunately we don’t allow pets in any of our apartments. 7. Unless you’re staying in one of our specialty apartments, we don’t allow parties or excessive noise. 8. If we find the place very messy, we have to charge an extra $40 for every extra hour o",
42892186,Harlem River,36132158850,unconfirmed,Ermanno,Manhattan,East Harlem,40.81344,-73.93454,United States,US,False,flexible,Private room,2019,$729 ,$146 ,2,7.0,9/4/2017,0.21,3,1,32,Smoke deck out back.,
42892739,Large private bedroom&bath 2 min. away from subway,41644636707,verified,Barbara,Brooklyn,Williamsburg,40.711529999999996,-73.94215,United States,US,False,moderate,Private room,2007,$721 ,$144 ,2,124.0,7/3/2019,3.65,4,1,58,Smoking and drugs are not permitted on the property. Please remove outdoor shoes at the front door.,
42893291,"Homey, accessible private bedroom",56993840605,unconfirmed,Cal,Manhattan,Washington Heights,40.83315,-73.94108,United States,US,False,strict,Private room,2003,$480 ,$96 ,1,1.0,9/21/2016,0.03,1,2,0,"We're laid back and don't have too many rules! There is a porch outside if you need to smoke. We like to keep our home neat and hope you help us keep it how you find it!  We do ask that you do not bring guests back. This is a way for us to control who is in our home, and it means a lot to us.  As for noise, just be reasonable. If it's getting late, you know the drill :)",
42893843,"1 Bedroom Apartment, Carroll Gardens",61868417878,verified,Valeska,Brooklyn,Carroll Gardens,40.68182,-73.99208,United States,US,False,strict,Entire home/apt,2011,$955 ,$191 ,10,0.0,,,3,1,0,,
42894396,1 Beautiful Private Bedroom In Prime Williamsburg,38728908519,unconfirmed,Nicolette,Brooklyn,Williamsburg,40.7121,-73.9623,United States,US,True,flexible,Private room,2003,$638 ,$128 ,3,2.0,5/12/2019,0.23,4,1,149,No shoes on in the house. My home is 420 friendly yet no cigarettes. You will not have access to a key but you will be able to come and go freely.,
42894948,Chris' Cozy Cave!,78039549543,unconfirmed,Chris,Queens,Ditmars Steinway,40.78031,-73.91003,United States,US,True,strict,Entire home/apt,2015,$357 ,$71 ,3,89.0,6/18/2019,2.6,3,1,259,- Weekly and monthly prices are much lower - Please verify all prices with Angel before booking. - The price is based on double occupancy. $50. per person per night. - Single rooms $64. per night per person,
42895500,"Spacious 1BR amazing view, Beach 5 min, airport 20",68562388210,unconfirmed,Aziz,Brooklyn,Manhattan Beach,40.58249,-73.95347,United States,US,False,strict,Entire home/apt,2011,$567 ,$113 ,30,2.0,9/20/2016,0.06,1,1,0,No Smoking in the Building.,
42896053,Large and inviting 3BR apartment,57626564019,unconfirmed,Allen,Brooklyn,Gravesend,40.59544,-73.97086999999999,United States,US,False,moderate,Entire home/apt,2012,$109 ,$22 ,2,145.0,7/1/2019,4.24,4,2,35,"Please, No pets No smoking in the building.  Thank-you.",
42896605,Studio Apartment Prospect Heights,39953079570,unconfirmed,Tanya,Brooklyn,Crown Heights,40.6758,-73.96251,United States,US,False,flexible,Entire home/apt,2016,$660 ,$132 ,3,10.0,5/19/2019,0.3,3,1,188,No smoking. No pets No visitors Cleaning of rooms & toilets will be down by guest after use and at check out. A surcharge of $50 will be imposed if guests smoke within the property. Sanitary pads are not allowed in the WC. Kitchen utensils are to be cleaned after use always. If you lose the keys $20 surcharge will be imposed for replacement. ,
42897157,21St&6Th Ave Prime Doorman 1bed !GYM 5204,2319431086,unconfirmed,Jeremy & Laura,Manhattan,Chelsea,40.742459999999994,-73.9954,United States,US,True,strict,Entire home/apt,2013,$610 ,$122 ,30,1.0,1/7/2017,0.03,3,96,319,No Pets. Not smoking please :) ,
42897709,Cool Brooklyn spot,80507181070,unconfirmed,Scott,Brooklyn,Bedford-Stuyvesant,40.69576,-73.96137,United States,US,False,moderate,Private room,2018,$983 ,$197 ,2,1.0,8/30/2016,0.03,5,1,0,"1. No additional guests without the expressed written permission of the owner.  This rental offer is for one person. 2.  Never any smoking indoors.   3.  No pets, not even visiting pets are allowed. 4.  Be considerate with television loudness and other noise after 10 pm. 5.  Keep kitchen and common areas clean after use. 6.  Enjoy your stay in our home as our roommate!!",
42898262,Sunny Room with Queen Bed in Artsy Bushwick,91460976416,verified,Bradley,Brooklyn,Bushwick,40.704679999999996,-73.92568,United States,US,False,flexible,Private room,2003,$684 ,$137 ,5,4.0,9/26/2017,0.12,3,1,88,"We live and let live - hoping that you'd be respectful, will care for the property, and enjoy your time! 1. The building is not pet friendly. Hence, no pets please. 2. Smoking outside/porch area only. 3. You are free to use our kitchen, but we expect you to clean up after yourself. 4. Please clean up any mess you make in the room. 5. Please treat the common amenities with respect. 6. Please ensure the bathrooms are clean post use.",
42898814,Spacious Bedroom in Gorgeous Renovated Apartment,21090184604,verified,Carlos,Brooklyn,Bedford-Stuyvesant,40.69063,-73.93947,United States,US,True,flexible,Private room,2008,$693 ,$139 ,2,87.0,6/30/2019,2.51,5,1,60,,
42899366,Beautiful Home Away From Home,30727320440,verified,Kat,Brooklyn,Crown Heights,40.67532,-73.93986,United States,US,True,strict,Private room,2021,$937 ,$187 ,1,7.0,6/21/2019,0.2,2,2,189,Absolutely no smoking or pets.,
42899919,"Park Slope Bklyn, Large 2 BD/2 BTH",79048245604,unconfirmed,Chris & Jayma,Brooklyn,Park Slope,40.67861,-73.98066,United States,US,True,moderate,Entire home/apt,2019,$649 ,$130 ,30,2.0,2/12/2017,0.06,2,1,250,"There's no cleaning fee, so we'd appreciate relative tidiness.",
42900471,Cozy living in midtown close to EVERYTHING,87578152298,verified,Russell,Manhattan,Upper West Side,40.76938,-73.98689,United States,US,False,strict,Entire home/apt,2008,$770 ,$154 ,3,4.0,7/29/2018,0.28,1,1,2,No Smoking facility,
42901023,"Cozy 4 beds, Free Ferry to Manhattan.",18428029853,unconfirmed,Eddie & Lois,Staten Island,West Brighton,40.63333,-74.11310999999999,United States,US,False,moderate,Entire home/apt,2007,$136 ,$27 ,2,96.0,7/1/2019,2.82,2,5,362,"- The price is based on double occupancy. $50. per person per night. - Check prices with host before booking - The price is based on double occupancy $300 per person per week. And $1000 monthly per person. - Single room $64 per night. Weekly, $350. Monthly $1205",
42901576,Spacious room on the East River!,89870823446,unconfirmed,Dario,Manhattan,East Harlem,40.78608,-73.94305,United States,US,False,flexible,Private room,2017,$255 ,$51 ,3,14.0,6/3/2018,0.41,2,4,0,,
42902128,"Cozy NY Apt, Central to transport-LIVE as a LOCAL-",58735780817,verified,Nelly,Brooklyn,Canarsie,40.63949,-73.90585,United States,US,False,flexible,Entire home/apt,2013,"$1,113 ",$223 ,2,83.0,3/11/2018,2.42,1,1,0,,
42902680,Renovated brownstone apt w/ private outdoor patio,47307150009,unconfirmed,Eric,Brooklyn,Bedford-Stuyvesant,40.68612,-73.95926999999999,United States,US,True,moderate,Entire home/apt,2008,$919 ,$184 ,4,112.0,6/30/2019,3.23,4,1,136,,
42903232,Duplex with Private Bathroom by Times Square,65550810270,verified,Michael,Manhattan,Hell's Kitchen,40.7658,-73.98795,United States,US,True,moderate,Private room,2010,"$1,048 ",$210 ,1,319.0,7/1/2019,9.24,4,1,57,"It is VERY important to me that you respect my belongings. I have lots of art, antiques, knick-knacks, books, fragile items, etc. Feel free to borrow a book as long as you return it in the same condition that you found it! Otherwise, please do not pick up or play with my things, go through my drawers, etc. My things are very loved by me, and most cannot be replaced. There will be ZERO tolerance for disrespect or cruelty towards my cats.",
42903785,Spacious 2 bedroom penthouse in Williamsburg,49147399210,verified,Krzysztof,Brooklyn,Greenpoint,40.721070000000005,-73.943,United States,US,False,moderate,Entire home/apt,2011,$468 ,$94 ,30,6.0,8/10/2018,0.2,3,8,176,"PARKING Overnight and weekends, you can park on the street right in front of the house (please DO NOT use the neighbor's driveway).  During weekday commuting hours, you can park on Linwood Street.  Street cleaning alternates from one side to the other on Tuesday mornings, so please park on the appropriate side if you're going to leave your car - the signage is good. KITCHEN The occasional coffee mug and pot is fine to leave behind in the sink on your dash to the airport, but we expect that you'll restore dishes and cookware to their originally clean state after use. WIFI The password is basket4210baked NO SMOKING INSIDE Feel free to light up outside, but please dispose of butts properly. QUIET PLEASE The apartment is one of three in the building - the other two are occupied by professional folks who are respectful of their neighbors and the tranquility of the neighborhood.  We expect they'll be treated in kind. HEATING/COOLING Please turn a/c off when not in the apartment. The heat run",
42904337,Sunny Bloomingdale,74101794825,unconfirmed,Maurice,Manhattan,Upper West Side,40.799859999999995,-73.96415,United States,US,False,moderate,Private room,2018,$932 ,$186 ,1,86.0,7/5/2019,2.5,5,1,34,"This is a self-service room.  The common areas are professionally cleaned but please be considerate and clean up after yourselves in common areas - especially after cooking and eating or using the bathroom.  Smoking is allowed outside. No street shoes allowed in the apartment so be sure to bring house slippers. We recycle and have provided the necessary information so that you can too. Reusable containers for storing food and shopping bags for shopping are provided.  Please consider the environment and do not bring plastic bags or plastic wrap into this house. When in doubt, ask me!",
42904889,"Large studio in Williamsburg, 3B",44898736527,verified,Krzysztof,Brooklyn,Williamsburg,40.719840000000005,-73.94303000000001,United States,US,False,moderate,Entire home/apt,2013,$806 ,$161 ,30,11.0,5/31/2019,0.35,2,8,136,"This is a self-service room.  The common areas are professionally cleaned but please be considerate and clean up after yourself in common areas - especially after cooking and eating or using the bathroom.  No street shoes in the house, por favor, bring slippers. Smoking is allowed outside. We recycle and have provided the necessary information so that you can too. Reusable containers for storing food and shopping bags for shopping are provided.  Please consider the environment and do not bring plastic bags or plastic wrap into this house. When in doubt, ask me!",
42905442,"private cosy , clean 2  bedroom apt",28173415075,unconfirmed,Juan,Queens,Woodside,40.74185,-73.90684,United States,US,True,strict,Private room,2007,"$1,038 ",$208 ,2,9.0,8/14/2017,0.26,1,2,0,,
42905994,"Bedroom & living area Upper East Side, 86th Subway",26822961964,unconfirmed,Daniel,Manhattan,Upper East Side,40.77544,-73.95577,United States,US,False,strict,Entire home/apt,2007,$419 ,$84 ,2,102.0,6/15/2019,3.21,5,1,35,Expect respect for the family and the space--treat it as you would your own home--or better :).,
42906546,Comfortable Twin Size Bed Near Airport,80542641980,unconfirmed,Zhur,Queens,Richmond Hill,40.69416,-73.84698,United States,US,False,flexible,Private room,2021,$298 ,$60 ,2,25.0,6/10/2019,1.13,5,2,152,No pets of any kind.  No loud noise after 11 PM.  ,
42907099,A Small Room With Futon Bed In A House In Brooklyn,92867663328,unconfirmed,Oates,Brooklyn,Prospect-Lefferts Gardens,40.65934,-73.95936999999999,United States,US,False,flexible,Private room,2004,$562 ,$112 ,1,19.0,4/4/2017,0.55,5,2,0,"Absolutely no smoking inside the house, please! There is ample space to do so outside, but please keep our neighbors happy and dispose of butts properly. Also, please keep energy efficiency in mind and turn climate controls off/down when out as well as lights.",
42907651,Soho/Nolita Apartment w/Rooftop Terrace,56340730678,unconfirmed,Chris,Manhattan,Nolita,40.72191,-73.99472,United States,US,False,moderate,Entire home/apt,2010,$162 ,$32 ,19,5.0,3/25/2018,0.17,1,2,0,,
42908203,"Bright, quiet, super comfy chic in Upper East Side",8877685037,verified,Mj,Manhattan,Upper East Side,40.772729999999996,-73.96344,United States,US,True,moderate,Entire home/apt,2006,$638 ,$128 ,2,90.0,6/26/2019,2.59,1,1,134,"In order to provide a calm atmosphere for guests, as well as a comfortable and safe environment, the following are the rules of my house. Please be aware of and follow all of them throughout your stay at my home. Most of what follows is common sense or common courtesy. The rules serve to protect you as a guest by helping ensure that the environment you find here is the one that I intended to create.  Please keep in mind:  You will be sharing common areas with me, and the cleanliness of the common areas is more dependent upon all guests cleaning up after themselves than it is upon my cleaning. Most guests do very well in keeping common areas clean!  House rules: Kindly remove shoes upon entering my apartment. I ask this because my hardwood floors are very old, and shoes increase the noise to my elderly downstairs neighbor (who is wonderful, so I do what I can to make life easy for her).  Please try not to drag luggage up the stairs, as it disturbs the other building occupants. Please le",
42908755,Private room in astoria for a month!,30595103561,unconfirmed,Yudum,Queens,Astoria,40.77013,-73.92092,United States,US,True,flexible,Private room,2009,$981 ,$196 ,2,2.0,6/10/2019,1.22,2,2,34,,
42909308,Spacious Room in the heart of Greenwich Village!,12044819916,verified,Colleen,Manhattan,Greenwich Village,40.72807,-73.99925,United States,US,True,moderate,Private room,2020,$987 ,$197 ,2,5.0,8/20/2017,0.15,4,1,0,Respect our place please.,
42909860,Spacious 3BR Duplex Apt + Loft in Gramercy NYC,48246851128,verified,Justin,Manhattan,Gramercy,40.73815,-73.98443,United States,US,True,strict,Entire home/apt,2021,$262 ,$52 ,3,11.0,5/27/2019,0.32,2,1,0,,
42910412,"Charming 2BR  Prime Carroll Gardens/ F,G Train",36202575245,verified,Sol,Brooklyn,Carroll Gardens,40.67718,-73.99493000000001,United States,US,True,flexible,Entire home/apt,2013,$466 ,$93 ,1,62.0,6/28/2019,1.79,2,5,178,"Quiet Respectful Friendly Clean No smoking of any substance on the property No pets  Leave things as they were found, clean after yourself when checking out",
42910965,Bright 1 Bedroom in the heart of the East Village,22908586844,verified,Elizabeth,Manhattan,East Village,40.72931,-73.97925,United States,US,False,strict,Entire home/apt,2014,$176 ,$35 ,4,18.0,4/22/2018,0.52,3,1,0,Keep it clean,
42911517,Beautiful Furnished 1 BR Apt near Times Square,42008569244,unconfirmed,Kara,Manhattan,Chelsea,40.744609999999994,-73.992,United States,US,False,strict,Entire home/apt,2021,$358 ,$72 ,30,0.0,,,3,121,349,,
