id,NAME,host id,host_identity_verified,host name,neighbourhood group,neighbourhood,lat,long,country,country code,instant_bookable,cancellation_policy,room type,Construction year,price,service fee,minimum nights,number of reviews,last review,reviews per month,review rate number,calculated host listings count,availability 365,house_rules,license
23866556,Magical Mott Haven Loft,35410206080,unconfirmed,Sherril,Bronx,Port Morris,40.80707,-73.92974,United States,US,True,moderate,Entire home/apt,2008,$673 ,$135 ,5,1,5/25/2019,0.67,5,1,0,,
23867108,Stable Room at Incentra Village Hotel,56632865224,unconfirmed,Incentra,Manhattan,West Village,40.73742,-74.00484,United States,US,False,strict,Private room,2003,$405 ,$81 ,1,1,4/24/2019,0.39,3,5,310,,
23867661,Sonder | Stock Exchange | Expansive 3BR + Lounge,92275835327,unconfirmed,Sonder (NYC),Manhattan,Financial District,40.70775,-74.01047,United States,US,False,strict,Entire home/apt,2014,"$1,191 ",$238 ,2,11,6/11/2019,3.33,3,327,297,"No smoking, please.",
23868213,Sonder | Wall Street | Eclectic 1BR + Rooftop,24788797349,verified,Sonder (NYC),Manhattan,Financial District,40.70615,-74.01243000000001,United States,US,True,moderate,Private room,2010,$585 ,$117 ,2,6,6/5/2019,1.59,4,327,328,,
23868765,Sonder | Stock Exchange | Incredible 3BR + Lounge,83476723011,unconfirmed,Sonder (NYC),Manhattan,Financial District,40.70734,-74.01064000000001,United States,US,True,flexible,Entire home/apt,2011,$96 ,$19 ,2,6,6/10/2019,1.41,3,327,316,,
23869318,Sonder | Stock Exchange | Lively Studio + Kitchen,65092468828,verified,Sonder (NYC),Manhattan,Financial District,40.70714,-74.01225,United States,US,True,strict,Entire home/apt,2015,$934 ,$187 ,2,7,6/24/2019,1.88,3,327,338,,
23869870,Sonder | Stock Exchange | Dreamy 1BR + Kitchen,6857460741,unconfirmed,Sonder (NYC),Manhattan,Financial District,40.70795,-74.01046,United States,US,False,flexible,Entire home/apt,2012,"$1,015 ",$203 ,2,9,5/28/2019,2.13,3,327,263,No Smoking No Pets,
23870422,Sonder | Stock Exchange | Dreamy 2BR + Sofa Bed,92625729151,verified,Sonder (NYC),Manhattan,Financial District,40.70649,-74.01227,United States,US,False,flexible,Entire home/apt,2012,$973 ,$195 ,2,15,6/21/2019,3.52,3,327,273,,
23870974,Sonder | Stock Exchange | Calming 1BR + Sofa Bed,92174361607,unconfirmed,Sonder (NYC),Manhattan,Financial District,40.705859999999994,-74.01078000000001,United States,US,True,strict,Entire home/apt,2022,$678 ,$136 ,2,14,6/23/2019,3.65,2,327,323,#NAME?,
23871527,Sonder | Stock Exchange | Private 1BR + Kitchen,78584239251,verified,Sonder (NYC),Manhattan,Financial District,40.70789,-74.01229000000001,United States,US,False,moderate,Entire home/apt,2016,$238 ,$48 ,2,12,6/16/2019,3.05,4,327,340,,
23872079,Sonder | Stock Exchange | Expansive 3BR + Kitchen,47885213666,verified,Sonder (NYC),Manhattan,Financial District,40.706309999999995,-74.01098,United States,US,False,strict,Entire home/apt,2016,$643 ,$129 ,2,7,5/28/2019,2.1,4,327,294,No pets. No smoking. Please :),
23872631,Sonder | Stock Exchange | Welcoming 1BR + Laundry,70830806243,unconfirmed,Sonder (NYC),Manhattan,Financial District,40.7074,-74.01175,United States,US,True,strict,Entire home/apt,2016,$993 ,$199 ,2,2,5/18/2019,0.73,5,327,350,Please know you will be living with others and must be courteous and respectful.,
23873184,Sonder | Stock Exchange | Serene 2BR + Sofa Bed,4221450023,unconfirmed,Sonder (NYC),Manhattan,Financial District,40.7065,-74.01171,United States,US,True,flexible,Entire home/apt,2020,$492 ,$98 ,2,15,6/9/2019,3.19,4,327,310,,
23873736,Sonder | Wall Street | Simple 1BR + Kitchen,35654878412,unconfirmed,Sonder (NYC),Manhattan,Financial District,40.707209999999996,-74.01044,United States,US,False,flexible,Entire home/apt,2016,$475 ,$95 ,2,12,6/19/2019,3.03,5,327,302,No pets. No smoking. Please :),
23874288,Sonder | Stock Exchange | Simple 1BR + Laundry,54442179936,unconfirmed,Sonder (NYC),Manhattan,Financial District,40.70648,-74.01241,United States,US,True,moderate,Entire home/apt,2012,$496 ,$99 ,2,7,5/26/2019,1.69,2,327,337,,
23874841,Sonder | Stock Exchange | Premier 2BR + Lounge,90473722367,verified,Sonder (NYC),Manhattan,Financial District,40.70642,-74.01045,United States,US,False,moderate,Entire home/apt,2003,"$1,077 ",$215 ,2,10,6/14/2019,2.11,4,327,323,"- Absolutely no smoking in, on or near the property, not suitable for children under 16 years of age.",
23875393,Sonder | Stock Exchange | Premier 2BR + Kitchen,85434590743,unconfirmed,Sonder (NYC),Manhattan,Financial District,40.70734,-74.01056,United States,US,False,moderate,Entire home/apt,2021,$234 ,$47 ,2,13,6/14/2019,3.07,2,327,341,No pets. No smoking. Please :),
23875945,Sonder | Stock Exchange | Tranquil 2BR + Kitchen,15341593972,verified,Sonder (NYC),Manhattan,Financial District,40.70767,-74.01061,United States,US,False,flexible,Entire home/apt,2004,$436 ,$87 ,2,8,6/16/2019,1.9,2,327,273,No smoking in the unit or in the building (strict).  There will be a $450 fine for smoking in the unit or in the building. No open flame. No pets. Please respect your neighbors and keep the noise down after 10pm.   There is a $50 fee for lost keys.  NO CHECK IN AFTER 11PM -the doorman leaves at 11pm so I can not get you keys after this time.,
23876497,Sonder | Stock Exchange | Bold 1BR + Kitchen,91454718525,unconfirmed,Sonder (NYC),Manhattan,Financial District,40.7065,-74.01019000000001,United States,US,True,strict,Entire home/apt,2019,$205 ,$41 ,2,10,6/13/2019,2.34,4,327,349,,
23877050,Sonder | Stock Exchange | Bright 1BR + Laundry,18895638864,verified,Sonder (NYC),Manhattan,Financial District,40.706559999999996,-74.01092,United States,US,True,flexible,Entire home/apt,2005,$742 ,$148 ,2,8,6/5/2019,1.88,4,327,356,No Smoking.  No pets except by special arrangement.   Please keep reasonably quiet when in the apartment/building--this is a quiet and densely populated neighborhood. Please DO NOT leave trash on the street.  Separate recycling. Contact me if trash needs to be removed during your stay.,
23877602,Sonder | Stock Exchange | Design Studio + Laundry,52203778923,verified,Sonder (NYC),Manhattan,Financial District,40.70797,-74.01227,United States,US,False,strict,Entire home/apt,2016,$537 ,$107 ,2,10,6/24/2019,2.54,2,327,338,,
23878154,Feminine room in Manhattan. 1 stop to midtown.,61768215254,verified,Alexandra,Manhattan,Harlem,40.813590000000005,-73.95246,United States,US,False,flexible,Private room,2008,$71 ,$14 ,1,2,5/9/2019,0.82,3,1,7,"Use of all of kitchen except gas stove/oven. There is a microwave, sink, plates and all other basic kitchen utensils. No fire or lit candles.",
23878707,Sonder | Stock Exchange | Modern Studio + Kitchen,83430614557,verified,Sonder (NYC),Manhattan,Financial District,40.7072,-74.01214,United States,US,True,moderate,Entire home/apt,2017,$580 ,$116 ,2,8,6/13/2019,2.26,2,327,318,"Please remember that this is a residential building. The building rules, apartment occupancy restrictions, and the year-round tenants must be respected. There is no smoking allowed in the apartments and significant fees will take place if occurs.",
23879259,Sonder | Stock Exchange | Simple 1BR + Sofa Bed,15114616518,unconfirmed,Sonder (NYC),Manhattan,Financial District,40.70731,-74.01056,United States,US,False,strict,Entire home/apt,2006,$888 ,$178 ,2,11,6/11/2019,3.2,4,327,312,"Please don't fiddle around with my stuff or annoy the neighbors.  I don't charge a cleaning fee, please strip the bed of the sheets and leave all used towels in the bath tub. Thanks.",
23879811,Sonder | Stock Exchange | Chic 1BR + Sofa Bed,97767918501,unconfirmed,Sonder (NYC),Manhattan,Financial District,40.70782,-74.01066,United States,US,True,flexible,Entire home/apt,2003,"$1,084 ",$217 ,2,9,5/13/2019,2.11,3,327,346,Absolutely no smoking in or around apartment. This includes entry way and entire Anderson Place lane. Unfortunately we are not allowed to accept children under 16.,
23880364,Sonder | Stock Exchange | Warm Studio + Kitchen,26735242450,unconfirmed,Sonder (NYC),Manhattan,Financial District,40.70584,-74.01045,United States,US,False,flexible,Entire home/apt,2006,$889 ,$178 ,2,6,5/26/2019,1.58,4,327,295,,
23880916,Sonder | Stock Exchange | Airy 1BR + Lounge,17263526274,unconfirmed,Sonder (NYC),Manhattan,Financial District,40.705690000000004,-74.01183,United States,US,True,strict,Entire home/apt,2019,$542 ,$108 ,2,8,6/18/2019,2.31,5,327,333,,
23881468,Sonder | Stock Exchange | Classic Studio + Laundry,87815620750,verified,Sonder (NYC),Manhattan,Financial District,40.705740000000006,-74.01023,United States,US,False,strict,Entire home/apt,2005,"$1,130 ",$226 ,2,20,6/21/2019,4.11,2,327,333,NO Smoking.,
23882020,Sonder | Stock Exchange | Chic 1BR + Laundry,32819130610,unconfirmed,Sonder (NYC),Manhattan,Financial District,40.70621,-74.01054,United States,US,False,strict,Entire home/apt,2003,"$1,184 ",$237 ,2,5,5/21/2019,1.25,2,327,335,No Smoking Allowed.  Cats Welcome With Fee.,
23882573,Sonder | Stock Exchange | Central 1BR + Sofa Bed,87030814616,unconfirmed,Sonder (NYC),Manhattan,Financial District,40.70766,-74.01114,United States,US,True,flexible,Entire home/apt,2005,"$1,176 ",$235 ,2,1,5/27/2019,0.7,4,327,258,"House Rules 1. Check-in is 4 pm local time. If the unit is ready earlier, we’ll let you know. Check-out is normally 11 am local time, but we’d be happy to extend it as long as we don’t have a cleaning scheduled. Just let us know.  2. All bookings require a security deposit of at least $300, which will be refunded within 7 days of your check-out. 3. For security measures we require all guests to provide proof of identification through ID verification on our own website. In order to check in we'll need a photo of your ID.  4. Our cancellation policy is as shown on our ad and defined by the site you are booking through.  5. Don’t let $300 go up in smoke. There's no smoking allowed in any Flatbook and a $300 fine for breaking this rule.  6. Unfortunately we don’t allow pets in any of our apartments. 7. Unless you’re staying in one of our specialty apartments, we don’t allow parties or excessive noise. 8. If we find the place very messy, we have to charge an extra $40 for every extra hour o",
23883125,Sonder | Stock Exchange | Lively 1BR + Lounge,20634787135,verified,Sonder (NYC),Manhattan,Financial District,40.705690000000004,-74.01077,United States,US,False,strict,Entire home/apt,2018,$466 ,$93 ,2,8,6/11/2019,3.64,4,327,349,,
23883677,Sonder | Stock Exchange | Sleek 3BR + Sofa Bed,77991225482,unconfirmed,Sonder (NYC),Manhattan,Financial District,40.70748,-74.01042,United States,US,False,moderate,Entire home/apt,2021,$254 ,$51 ,2,15,6/21/2019,4.37,2,327,254,NO Smoking,
23884230,Sonder | Stock Exchange | Sleek Studio + Kitchen,52616558896,verified,Sonder (NYC),Manhattan,Financial District,40.70581,-74.01226,United States,US,True,flexible,Entire home/apt,2009,$445 ,$89 ,2,5,6/12/2019,1.35,2,327,284,,
23884782,Sonder | Stock Exchange | Lovely 1BR + Lounge,38284249444,unconfirmed,Sonder (NYC),Manhattan,Financial District,40.707640000000005,-74.01077,United States,US,True,flexible,Entire home/apt,2018,$162 ,$32 ,2,15,6/21/2019,3.19,5,327,260,,
23885334,Sonder | Stock Exchange | Playful 1BR + Laundry,52771971018,unconfirmed,Sonder (NYC),Manhattan,Financial District,40.70644,-74.01188,United States,US,False,flexible,Entire home/apt,2019,$107 ,$21 ,2,10,6/23/2019,2.59,4,327,292,,
23885887,Midtown 2 Bed Large Full Kitchen & Free Breakfast,52744922021,unconfirmed,Roman,Manhattan,Midtown,40.75431,-73.96518,United States,US,True,strict,Entire home/apt,2012,$645 ,$129 ,3,6,6/21/2019,1.57,3,8,326,,
23886439,Sonder | Stock Exchange | Original 3BR + Lounge,97214111038,unconfirmed,Sonder (NYC),Manhattan,Financial District,40.70785,-74.01239,United States,US,True,strict,Entire home/apt,2019,$164 ,$33 ,2,7,6/14/2019,1.79,4,327,275,No Smoking No Pets No Parties No Loud Music,
23886991,Sonder | Stock Exchange | Distinct 1BR + Kitchen,83891214695,verified,Sonder (NYC),Manhattan,Financial District,40.70599,-74.01201,United States,US,False,flexible,Entire home/apt,2016,$695 ,$139 ,2,8,6/19/2019,2.02,5,327,348,NO Smoking Pets Allowed with a $375 non refundable pet fee.,
23887543,Sonder | Stock Exchange | Unique 1BR + Laundry,7504000149,unconfirmed,Sonder (NYC),Manhattan,Financial District,40.70731,-74.01021,United States,US,True,strict,Entire home/apt,2004,$351 ,$70 ,2,15,6/16/2019,3.75,3,327,261,,
23888096,Charming & Spacious Loft in Clinton Hill,17619480829,unconfirmed,Elsa,Brooklyn,Clinton Hill,40.69344,-73.9652,United States,US,False,flexible,Entire home/apt,2012,$409 ,$82 ,4,5,6/30/2019,1.19,5,1,40,,
23888648,Sonder | Stock Exchange | Smart 1BR + Kitchen,72838324537,verified,Sonder (NYC),Manhattan,Financial District,40.70583,-74.01089,United States,US,True,strict,Entire home/apt,2012,$196 ,$39 ,2,4,6/24/2019,1.97,5,327,333,,
23889200,Sonder | Stock Exchange | Quaint Studio + Lounge,20673965828,unconfirmed,Sonder (NYC),Manhattan,Financial District,40.706509999999994,-74.01252,United States,US,True,flexible,Entire home/apt,2019,$724 ,$145 ,2,9,6/20/2019,2.16,5,327,336,,
23889753,Sonder | Stock Exchange | Peaceful 1BR + Lounge,574716087,verified,Sonder (NYC),Manhattan,Financial District,40.70599,-74.01064000000001,United States,US,True,moderate,Entire home/apt,2016,$179 ,$36 ,2,11,6/13/2019,2.73,4,327,355,"House Rules 1. Check-in is 4 pm local time. If the unit is ready earlier, we’ll let you know. Check-out is normally 11 am local time, but we’d be happy to extend it as long as we don’t have a cleaning scheduled. Just let us know.  2. All bookings require a security deposit of at least $300, which will be refunded within 7 days of your check-out. 3. For security measures we require all guests to provide proof of identification through ID verification on our own website. In order to check in we'll need a photo of your ID.  4. Our cancellation policy is as shown on our ad and defined by the site you are booking through.  5. Don’t let $300 go up in smoke. There's no smoking allowed in any Flatbook and a $300 fine for breaking this rule.  6. Unfortunately we don’t allow pets in any of our apartments. 7. Unless you’re staying in one of our specialty apartments, we don’t allow parties or excessive noise. 8. If we find the place very messy, we have to charge an extra $40 for every extra hour o",
23890305,Sonder | Stock Exchange | Smart 1BR + Sofa Bed,19448502535,verified,Sonder (NYC),Manhattan,Financial District,40.70775,-74.0105,United States,US,True,moderate,Entire home/apt,2012,"$1,041 ",$208 ,2,9,6/11/2019,2.31,3,327,313,"It is a residential building so all of the residential building rules apply and must be fallow. I have zero tolerance for parties, noise and smoking.",
23890857,FairPlay BNB for alternative life style renters!,50123271220,verified,Alice,Staten Island,Shore Acres,40.60525,-74.06745,United States,US,True,moderate,Entire home/apt,2009,$825 ,$165 ,1,0,,,2,1,87,No Smoking. Pets Allowed with fee.,
23891410,Sonder | Stock Exchange | Classic Studio + Kitchen,42959294616,unconfirmed,Sonder (NYC),Manhattan,Financial District,40.70706,-74.01035999999999,United States,US,True,flexible,Entire home/apt,2008,"$1,116 ",$223 ,2,7,5/13/2019,1.65,4,327,346,* No smoking indoors.  * No pets  * No loud/large parties.  * Please clean up before checking out. Any major clean-up service required may be deducted from the deposit.  * Guests staying longer than one week are responsible for keeping the space tidy. We provide cleaning supplies.  * Additional guests permitted for an extra charge per person per night (see price table).,
23891962,Sonder | Stock Exchange | Tasteful 3BR + Kitchen,22845211180,unconfirmed,Sonder (NYC),Manhattan,Financial District,40.70632,-74.0116,United States,US,False,moderate,Entire home/apt,2007,$569 ,$114 ,2,11,6/21/2019,3.0,4,327,267,,
23892514,Sonder | Stock Exchange | Lively 1BR + Laundry,78686901995,verified,Sonder (NYC),Manhattan,Financial District,40.70563,-74.01097,United States,US,False,moderate,Entire home/apt,2007,$318 ,$64 ,2,3,4/27/2019,0.81,5,327,350,* No smoking indoors.  * No pets  * No loud/large parties.  * Please clean up before checking out. Any major clean-up service required may be deducted from the deposit.  * Guests staying longer than one week are responsible for keeping the space tidy. We provide cleaning supplies.  * Additional guests permitted for an extra charge per person per night (see price table).,
23893066,Sonder | Stock Exchange | Unique 1BR + Sofa Bed,76793974284,unconfirmed,Sonder (NYC),Manhattan,Financial District,40.70702,-74.01087,United States,US,False,flexible,Entire home/apt,2022,$343 ,$69 ,2,9,6/5/2019,2.52,5,327,347,"- NO SMOKING (You'll have to do that outside if you smoke) - Please keep the house like you found it - Please don't leave a mess - Please don't leave things dirty. - If you use the bathroom, clean or wipe things down  - If you use the kitchen, please clean dishes and wipe things down as well - No guest allowed - you can meet friends at other venues - Shoes off in the apartment - please leave by the door. If you would like please bring some slippers. - Please keep things quiet after 10pm - If you smoke, you must go outside! NO smoking inside! (the full security deposit will be withheld if a guest smokes in the house) - If you cook, please turn the fan on. - Please use your common sense, and if you are not sure, ask... - Remember, this is my house - so please treat it with respect.",
23893619,Sonder | Stock Exchange | Playful 1BR + Sofa Bed,51088023020,verified,Sonder (NYC),Manhattan,Financial District,40.70595,-74.0118,United States,US,False,strict,Entire home/apt,2021,$385 ,$77 ,2,2,6/14/2019,1.82,3,327,317,"• Check-in time is 2PM. Check-out time is 11am (Unless discussed)  • Not suitable for pets • No smoking Keep it clean. No smoking Voices kept low in the hallways If neighbors come by due to noise complaints/partying please turn it down. Beer Pong must be played with water in the play cups. (This is a cardinal rule, if violated will result in a negative review) Please be courteous to all the neighbors and practice common sense. If there are additional guests after midnight they will count towards the extra guest fee. Cost of Damages: Lost Key ($250) Additional Cleaning Needed includes, sticky floors, excess trash, stained walls, etc($50/hr)",
23894171,Room,63605817938,unconfirmed,Jade,Queens,Woodside,40.745540000000005,-73.89831,United States,US,False,strict,Private room,2016,$477 ,$95 ,2,0,,,4,1,363,Keep the apartment clean and damage free please.,
23894723,Sonder | Stock Exchange | Lovely 1BR + Sofa Bed,58417328191,verified,Sonder (NYC),Manhattan,Financial District,40.70637,-74.01199,United States,US,False,strict,Entire home/apt,2013,$103 ,$21 ,2,17,6/17/2019,4.08,4,327,271,"House Rules 1. Check-in is 4 pm local time. If the unit is ready earlier, we’ll let you know. Check-out is normally 11 am local time, but we’d be happy to extend it as long as we don’t have a cleaning scheduled. Just let us know.  2. All bookings require a security deposit of at least $300, which will be refunded within 7 days of your check-out. 3. For security measures we require all guests to provide proof of identification through ID verification on our own website. In order to check in we'll need a photo of your ID.  4. Our cancellation policy is as shown on our ad and defined by the site you are booking through.  5. Don’t let $300 go up in smoke. There's no smoking allowed in any Flatbook and a $300 fine for breaking this rule.  6. Unfortunately we don’t allow pets in any of our apartments. 7. Unless you’re staying in one of our specialty apartments, we don’t allow parties or excessive noise. 8. If we find the place very messy, we have to charge an extra $40 for every extra hour o",
23895276,Sonder | Stock Exchange | Artsy 1BR + Laundry,38001939640,unconfirmed,Sonder (NYC),Manhattan,Financial District,40.70609,-74.01219,United States,US,True,moderate,Entire home/apt,2017,$903 ,$181 ,2,7,6/16/2019,2.08,4,327,331,#NAME?,
23895828,Sonder | Stock Exchange | Serene 2BR + Kitchen,67540909568,unconfirmed,Sonder (NYC),Manhattan,Financial District,40.70581,-74.01101,United States,US,True,moderate,Entire home/apt,2008,$856 ,$171 ,2,9,6/20/2019,2.43,2,327,268,#NAME?,
23896380,Sonder | Stock Exchange | Unique 1BR + Kitchen,27256887667,verified,Sonder (NYC),Manhattan,Financial District,40.7074,-74.01218,United States,US,False,strict,Entire home/apt,2009,$820 ,$164 ,2,12,6/16/2019,2.57,5,327,357,"Guests should treat my home as if it were their own. While my valuables are locked and kept away, I do ask that guests respect my private closet space and the items located within. Please, no smoking.",
23896933,Sonder | Stock Exchange | Classic 1BR + Sofa Bed,58778669209,unconfirmed,Sonder (NYC),Manhattan,Financial District,40.70722,-74.01023,United States,US,False,moderate,Entire home/apt,2018,$650 ,$130 ,2,9,6/10/2019,2.11,5,327,323,* No smoking indoors.  * No pets  * No loud/large parties.  * Please clean up before checking out. Any major clean-up service required may be deducted from the deposit.  * Guests staying longer than one week are responsible for keeping the space tidy. We provide cleaning supplies.  * Additional guests permitted for an extra charge per person per night (see price table).,
23897485,Sonder | Stock Exchange | Airy 1BR + Kitchen,61720969666,verified,Sonder (NYC),Manhattan,Financial District,40.7074,-74.01043,United States,US,True,strict,Entire home/apt,2018,$502 ,$100 ,2,6,6/16/2019,2.5,4,327,328,No Smoking No Parties or Events of any kind Please take out your shoes when you arrive. Remember you are not a tenant you are a Guest of the Host.,
23898037,Sonder | Stock Exchange | Simple 1BR + Lounge,86352573069,verified,Sonder (NYC),Manhattan,Financial District,40.706540000000004,-74.01091,United States,US,True,strict,Entire home/apt,2020,$267 ,$53 ,2,11,6/20/2019,2.97,3,327,304,"House rules: Guests agree to the following terms and conditions 1.Guest(s) agree to NO PARTIES anywhere on the property. Legal action will be taken for parties that cause damages to the unit, property, reputation, or relationship with building staff or other residents.  2.Smoking of any kind is not permitted in the unit or on the premises.  3.Guests agree to abide by maximum occupancy of unit, and observe quiet hours between 9pm and 9am 4.Guests are responsible for action of ALL GUESTS occupying their unit at all times.  5.Guests agree to return all keys, remotes, and parking passes. Replacement fees may apply for unreturned items 6.Guests understand that onsite building staff (maintenance and concierge) are not affiliated with Jordan or AIRBNB. Please contact me directly for any needed items. 7.Guests understand that no pets are to be in the unit.  8.Guests agree to pay replacement cost for any unreturned items, and $125 per hour fee for unauthorized early checkin or late checkout.  20",
23898589,Sonder | Stock Exchange | Artsy Studio + Kitchen,26231777972,verified,Sonder (NYC),Manhattan,Financial District,40.707570000000004,-74.01111,United States,US,False,moderate,Entire home/apt,2022,$743 ,$149 ,2,4,4/12/2019,1.08,5,327,298,,
23899142,Sonder | Stock Exchange | Playful 1BR + Lounge,38762327578,unconfirmed,Sonder (NYC),Manhattan,Financial District,40.70765,-74.01100000000001,United States,US,True,strict,Entire home/apt,2019,$659 ,$132 ,2,4,5/14/2019,0.97,5,327,314,,
23899694,Sonder | Stock Exchange | Delightful 1BR + Kitchen,42604865791,verified,Sonder (NYC),Manhattan,Financial District,40.70748,-74.01080999999999,United States,US,False,moderate,Entire home/apt,2003,$132 ,$26 ,2,4,5/27/2019,1.15,4,327,331,,
23900246,Sonder | Stock Exchange | Stylish Studio + Kitchen,38521197564,verified,Sonder (NYC),Manhattan,Financial District,40.70734,-74.01097,United States,US,True,flexible,Entire home/apt,2010,$193 ,$39 ,2,6,6/11/2019,1.48,3,327,325,"Please remove shoes when entering and while on board. No smoking, pets, or children.  No loud music, partying or extra guests. This is a quiet space, so please respect the boat because it is our full time home.  Check in time is after 3:00pm and check out is noon.",
23900799,Sonder | Stock Exchange | Bold 1BR + Lounge,7120073076,verified,Sonder (NYC),Manhattan,Financial District,40.706379999999996,-74.01086,United States,US,True,strict,Entire home/apt,2014,$646 ,$129 ,2,4,6/23/2019,1.04,5,327,279,"House rules: Guests agree to the following terms and conditions 1.Guest(s) agree to NO PARTIES anywhere on the property. Legal action will be taken for parties that cause damages to the unit, property, reputation, or relationship with building staff or other residents.  2.Smoking of any kind is not permitted in the unit or on the premises.  3.Guests agree to abide by maximum occupancy of unit, and observe quiet hours between 9pm and 9am 4.Guests are responsible for action of ALL GUESTS occupying their unit at all times.  5.Guests agree to return all keys, remotes, and parking passes. Replacement fees may apply for unreturned items 6.Guests understand that onsite building staff (maintenance and concierge) are not affiliated with Jordan or AIRBNB. Please contact me directly for any needed items. 7.Guests understand that no pets are to be in the unit.  8.Guests agree to pay replacement cost for any unreturned items, and $125 per hour fee for unauthorized early checkin or late checkout.  20",
23901351,Cozy Escape in the thriving heart of Bed-Stuy,96763597388,unconfirmed,Beryl,Brooklyn,Bedford-Stuyvesant,40.68529,-73.94028,United States,US,True,strict,Entire home/apt,2003,$230 ,$46 ,2,9,7/7/2019,2.93,5,1,301,#NAME?,
23901903,Sonder | Stock Exchange | Serene 2BR + Lounge,6242386029,verified,Sonder (NYC),Manhattan,Financial District,40.70782,-74.01227,United States,US,True,flexible,Entire home/apt,2010,$746 ,$149 ,2,8,6/24/2019,2.12,4,327,289,"NO SMOKING, NO PETS. $100 move-in fee payable to the building and due at move in.  A US check is okay or if you pay cash, then we will write a company check and give you a receipt.  Check in after noon and before 7pm. $50 charge if checking in after 7pm. No check-in after 11:30pm Check-out 11am. ",
23902456,Sonder | Stock Exchange | Lovely 1BR + Kitchen,87612639373,unconfirmed,Sonder (NYC),Manhattan,Financial District,40.70619,-74.01065,United States,US,True,strict,Entire home/apt,2016,$356 ,$71 ,2,5,5/26/2019,1.43,3,327,268,don't tear down the place! you will leave your credit card as deposit.,
23903008,"Bright, nice size room in beautiful Brooklyn apt.",98262105352,verified,Murat,Brooklyn,Windsor Terrace,40.65302,-73.97357,United States,US,True,moderate,Private room,2017,$472 ,$94 ,2,1,6/24/2019,1.0,3,1,0,"Please bring your own daily essentials, I provide nothing as of now. Please take off your shoes when you get in the house. Please don't bring any friends over unless they are confirmed guests. Please keep quiet after midnight. When booking for a weekend, please book on a Friday and for at least 3 nights, as I will not be around on Saturdays and Sundays to accept bookings. If neighbors asks, just tell them you're here to visit a friend. Don't tell then your guests from AirBNB. Please let me know exactly what time you will get to my house, or at least an hour ahead. I am not always at home so I will have to go hand keys to you and I will only have limited time. Thanks!",
23903560,Sonder | Stock Exchange | Classic Studio + Lounge,89285475459,unconfirmed,Sonder (NYC),Manhattan,Financial District,40.70796,-74.01205999999999,United States,US,False,strict,Entire home/apt,2017,$79 ,$16 ,2,9,6/18/2019,2.48,2,327,318,- Rooftop deck - 1 Block from South Station,
23904112,Sonder | Stock Exchange | Premier 2BR + Sofa Bed,9023911951,unconfirmed,Sonder (NYC),Manhattan,Financial District,40.70751,-74.01066,United States,US,True,moderate,Entire home/apt,2012,$759 ,$152 ,2,12,6/20/2019,3.5,2,327,302,No Smoking,
23904665,Sonder | Stock Exchange | Lively 1BR + Kitchen,4485408477,verified,Sonder (NYC),Manhattan,Financial District,40.70726,-74.0106,United States,US,False,moderate,Entire home/apt,2019,"$1,088 ",$218 ,2,2,6/23/2019,0.77,3,327,351,"NO SMOKING INSIDE! PLEASE I BEG YOU _ DO NOT DO THAT!!!!! I also only charge a $10 cleaning fee because I expect you to leave the place the way you found it. I clean the sheets, bathroom, and a general whipe down with Clorox whipes so please treat my home as if it is your own :)",
23905217,Sonder | Stock Exchange | Sleek 3BR + Lounge,38415573052,verified,Sonder (NYC),Manhattan,Financial District,40.7062,-74.01191999999999,United States,US,True,flexible,Entire home/apt,2014,"$1,078 ",$216 ,2,8,6/11/2019,2.5,4,327,255,No Smoking,
23905769,Sonder | Stock Exchange | Dashing 1BR + Kitchen,93006221671,verified,Sonder (NYC),Manhattan,Financial District,40.70584,-74.01039,United States,US,True,moderate,Entire home/apt,2008,"$1,192 ",$238 ,2,3,6/13/2019,0.77,4,327,317,,
23906322,Sonder | Stock Exchange | Smart 1BR + Laundry,18025330861,unconfirmed,Sonder (NYC),Manhattan,Financial District,40.70751,-74.01184,United States,US,True,moderate,Entire home/apt,2004,$613 ,$123 ,2,13,6/2/2019,3.42,2,327,331,"Please remember that this is a residential building. The building rules, apartment occupancy restrictions and the year-round tenants must be respected.",
23906874,Sonder | Stock Exchange | Distinct 1BR + Sofa Bed,78956762638,unconfirmed,Sonder (NYC),Manhattan,Financial District,40.7058,-74.01106999999999,United States,US,False,moderate,Entire home/apt,2018,$644 ,$129 ,2,5,6/19/2019,1.36,3,327,343,,
23907426,Sonder | Stock Exchange | Bright 1BR + Kitchen,25296794601,unconfirmed,Sonder (NYC),Manhattan,Financial District,40.70628,-74.01213,United States,US,False,moderate,Entire home/apt,2015,$111 ,$22 ,2,3,5/31/2019,0.74,3,327,293,No smoking No pets ,
23907979,Sonder | Stock Exchange | Sunny 1BR + Sofa Bed,51600328099,verified,Sonder (NYC),Manhattan,Financial District,40.706559999999996,-74.01094,United States,US,False,moderate,Entire home/apt,2005,$451 ,$90 ,2,8,5/29/2019,2.12,3,327,343,"House rules: Guests agree to the following terms and conditions 1.Guest(s) agree to NO PARTIES anywhere on the property. Legal action will be taken for parties that cause damages to the unit, property, reputation, or relationship with building staff or other residents.  2.Smoking of any kind is not permitted in the unit or on the premises.  3.Guests agree to abide by maximum occupancy of unit, and observe quiet hours between 9pm and 9am 4.Guests are responsible for action of ALL GUESTS occupying their unit at all times.  5.Guests agree to return all keys, remotes, and parking passes. Replacement fees may apply for unreturned items 6.Guests understand that onsite building staff (maintenance and concierge) are not affiliated with Jordan or AIRBNB. Please contact me directly for any needed items. 7.Guests understand that no pets are to be in the unit.  8.Guests agree to pay replacement cost for any unreturned items, and $125 per hour fee for unauthorized early checkin or late checkout.  20",
23908531,Sonder | Stock Exchange | Glam 1BR + Sofa Bed,36072343284,unconfirmed,Sonder (NYC),Manhattan,Financial District,40.707809999999995,-74.01165,United States,US,True,moderate,Entire home/apt,2008,$540 ,$108 ,2,6,6/11/2019,1.57,3,327,343,,
23909083,Sonder | Stock Exchange | Tranquil 1BR + Kitchen,88441607324,verified,Sonder (NYC),Manhattan,Financial District,40.70766,-74.01074,United States,US,False,strict,Entire home/apt,2017,"$1,006 ",$201 ,2,3,5/25/2019,1.23,4,327,333,,
23909635,Sonder | Stock Exchange | Dreamy Studio + Lounge,41427267323,verified,Sonder (NYC),Manhattan,Financial District,40.70649,-74.01208000000001,United States,US,True,strict,Entire home/apt,2004,$189 ,$38 ,2,9,6/14/2019,2.62,3,327,271,Just the basics -  No Smoking. No Pets. No Parties.  Respect our home and our neighbors.  Kids are welcome but the house isn't 'child-proofed',
23910188,Sonder | Stock Exchange | Bright 1BR + Sofa Bed,18284391414,unconfirmed,Sonder (NYC),Manhattan,Financial District,40.7075,-74.01199,United States,US,False,strict,Entire home/apt,2008,$110 ,$22 ,2,2,6/8/2019,0.59,3,327,331,Please leave the apartment in the same condition it was left to you.,
23910740,Sonder | Stock Exchange | Airy 1BR + Laundry,55845036662,unconfirmed,Sonder (NYC),Manhattan,Financial District,40.70727,-74.01026,United States,US,True,moderate,Entire home/apt,2021,"$1,027 ",$205 ,2,3,6/11/2019,1.58,2,327,341,"Due at move-in: $150 cleaning fee, $100 move-in fee ($250 fee included with Airbnb) $1000 refundable security deposit. NO PETS & NO SMOKING Move-in: after noon Move-out: 11am",
23911292,Sun drenched modern stylish 2 bedroom apt near all,68335330315,unconfirmed,Clement & Rose,Brooklyn,Flatlands,40.63129,-73.92748,United States,US,False,moderate,Entire home/apt,2021,"$1,083 ",$217 ,2,5,6/19/2019,1.58,4,2,365,,
23911845,Sonder | Stock Exchange | Playful 1BR + Kitchen,4896996009,verified,Sonder (NYC),Manhattan,Financial District,40.70645,-74.01175,United States,US,True,strict,Entire home/apt,2018,"$1,068 ",$214 ,2,9,6/23/2019,2.6,3,327,277,"House Rules 1. Check-in is 4 pm local time. If the unit is ready earlier, we’ll let you know. Check-out is normally 11 am local time, but we’d be happy to extend it as long as we don’t have a cleaning scheduled. Just let us know.  2. All bookings require a security deposit of at least $300, which will be refunded within 7 days of your check-out. 3. For security measures we require all guests to provide proof of identification through ID verification on our own website. In order to check in we'll need a photo of your ID.  4. Our cancellation policy is as shown on our ad and defined by the site you are booking through.  5. Don’t let $300 go up in smoke. There's no smoking allowed in any Flatbook and a $300 fine for breaking this rule.  6. Unfortunately we don’t allow pets in any of our apartments. 7. Unless you’re staying in one of our specialty apartments, we don’t allow parties or excessive noise. 8. If we find the place very messy, we have to charge an extra $40 for every extra hour o",
23912397,Sonder | Stock Exchange | Lovely 1BR + Laundry,82343114275,verified,Sonder (NYC),Manhattan,Financial District,40.70582,-74.01111,United States,US,True,strict,Entire home/apt,2008,$78 ,$16 ,2,9,6/23/2019,2.48,4,327,284,"No smoking, pets or parties please. ",
23912949,Sonder | Stock Exchange | Lively 1BR + Sofa Bed,46962589419,unconfirmed,Sonder (NYC),Manhattan,Financial District,40.70782,-74.0107,United States,US,False,moderate,Entire home/apt,2014,$728 ,$146 ,2,9,6/22/2019,2.23,3,327,332,"Please remember that this is a residential building. The building rules, apartment occupancy restrictions, and the year-round tenants must be respected.  There is no smoking allowed in the apartments and significant fees will take place if occurs. ",
23913502,Sonder | Stock Exchange | Chic 1BR + Kitchen,56716014576,verified,Sonder (NYC),Manhattan,Financial District,40.70762,-74.01105,United States,US,False,flexible,Entire home/apt,2021,$685 ,$137 ,2,3,6/1/2019,0.74,4,327,310,"Please, no alcohol on the premises. Also, please don't be too loud at night.",
23914054,Sonder | Stock Exchange | Pristine 1BR + Kitchen,48795661693,unconfirmed,Sonder (NYC),Manhattan,Financial District,40.7062,-74.01092,United States,US,True,moderate,Entire home/apt,2021,$660 ,$132 ,2,11,6/17/2019,2.37,4,327,329,Please be courteous and respectful of the others who are living  in the area.,
23914606,Sun-Drenched 1 BR/1BA near Grand Army Plaza #10313,95478188638,verified,Marissa,Brooklyn,Park Slope,40.67655,-73.97697,United States,US,False,flexible,Entire home/apt,2012,"$1,056 ",$211 ,3,17,6/29/2019,3.98,5,1,142,No pets,
23915158,Private Room in Stunning Apartment,33934728303,verified,Jae,Brooklyn,Bedford-Stuyvesant,40.684290000000004,-73.92515,United States,US,False,strict,Private room,2010,$673 ,$135 ,1,5,5/14/2019,1.1,2,1,86,,
23915711,Times Square & Rockefeller Center Private Bedroom,73682061775,unconfirmed,Eden,Manhattan,Midtown,40.7597,-73.97916,United States,US,False,flexible,Private room,2005,$168 ,$34 ,2,0,,,4,2,0,,
23916263,Summer room  夏,52785485116,unconfirmed,George,Queens,Fresh Meadows,40.73834,-73.79209,United States,US,True,flexible,Private room,2013,"$1,059 ",$212 ,1,24,7/1/2019,4.97,2,5,32,"- NO SMOKING (You'll have to do that outside if you smoke) - Please keep the house exactly like you found it - Please don't leave a mess - Please don't leave things dirty. - If you use the bathroom, clean or wipe things down  - If you use the kitchen, please clean dishes and wipe things down as well - No guest allowed - you can meet friends at other venues - Shoes off in the apartment - please leave by the door. If you would like please bring some slippers. - Please keep things quiet after 10pm - If you smoke, you must go outside! NO smoking inside! (the full security deposit will be withheld if a guest smokes in the house) - If you cook, please turn the fan on. - Please use your common sense, and if you are not sure, ask... - Remember, this is my house - so please treat it with respect.",
23916815,Bushwick APT with big bright room/private backyard,31892925717,unconfirmed,Stephanie,Brooklyn,Bushwick,40.697540000000004,-73.91465,United States,US,True,flexible,Private room,2020,$245 ,$49 ,4,1,4/21/2019,0.38,3,1,0,"No smoking, no pets, no parties",
23917368,Quiet 1bedroom apartment,82202142880,verified,V,Manhattan,Hell's Kitchen,40.7588,-73.9922,United States,US,True,flexible,Entire home/apt,2020,$338 ,$68 ,1,23,6/23/2019,4.66,2,1,106,No smoking inside the apartment.  Pets are allowed but for a fee  Be respectful of the neighbors,
23917920,LARGE Trendy Studio!!!,60081114236,verified,Lc,Brooklyn,Flatbush,40.64464,-73.96453000000001,United States,US,True,strict,Entire home/apt,2003,$564 ,$113 ,3,3,6/3/2019,0.97,5,1,73,No Smoking No Pets,
23918472,Quiet Private Room in the Exciting East Village!,22295645301,unconfirmed,Joseph,Manhattan,East Village,40.72576,-73.98309,United States,US,True,strict,Private room,2012,$966 ,$193 ,1,18,7/3/2019,4.15,2,4,90,"Please always be courteous to my neighbors and keep down noise, especially in hallways. I really love living here and want it to stay that way.  :)",
23919025,The Berry - Hip in the heart of Williamsburg.,54083599393,verified,Adam,Brooklyn,Williamsburg,40.71989,-73.9581,United States,US,True,flexible,Entire home/apt,2013,$489 ,$98 ,4,2,6/30/2019,0.48,2,1,7,,
23919577,Urban Casita,97060007147,unconfirmed,Heather & Alex,Brooklyn,Bedford-Stuyvesant,40.6923,-73.9328,United States,US,True,moderate,Entire home/apt,2020,$276 ,$55 ,3,12,6/17/2019,2.88,5,1,6,,
23920129,Mary Sweet Home,70640718698,unconfirmed,Marysell,Queens,Flushing,40.73907,-73.82943,United States,US,False,flexible,Private room,2005,$401 ,$80 ,1,2,3/10/2019,0.41,2,1,0,No smoking.  No parties.  Be respectful of our neighbors.,
23920681,Upper Ditmars Top FL of Home with Patio,85447360294,unconfirmed,Chris,Queens,Ditmars Steinway,40.77315,-73.89908,United States,US,False,moderate,Entire home/apt,2005,$665 ,$133 ,5,1,4/1/2019,0.3,4,1,84,"These are my rules. I know things happen in life, so talk to me if something comes up. I'm easy going. No pets, smoking (cigs or E-cigs), parties, or loud noise/music allowed after 9PM. Please treat the apartment as if it was your own home. 1. CHECK IN AND CHECK OUT: Check in is at 5 pm and check out is at 1 pm. This agreement does not create a tenancy or residence. You must depart and arrive at the reserved times. If you do not take possession within 24 hours of arrival date, cancellation is assumed, unless owner is notified. There is no refund for early departure. 2. NO-SMOKING: This is a NO-SMOKING unit. You may smoke outside of the building. 3. DAMAGE DEPOSIT: A damage deposit is required. The damage deposit does not apply to guest fees. The deposit is fully refundable within 14 days of departure provided the following provisions are met:  a. No damage is done to the unit or its contents beyond normal wear and tear.  b. No charges are incurred due to smoking, additional guests, or ",
23921234,Fall room  秋,39969163755,unconfirmed,George,Queens,Fresh Meadows,40.737840000000006,-73.79101,United States,US,True,flexible,Private room,2007,"$1,055 ",$211 ,1,20,7/8/2019,4.2,5,5,38,,
23921786,Family House 旅行客栈,56229214989,verified,George,Queens,Fresh Meadows,40.73704,-73.79151,United States,US,True,moderate,Entire home/apt,2017,$233 ,$47 ,1,13,6/17/2019,2.87,4,5,114,No Smoking Pets Allowed with Fee.,
23922338,Bushwick Gem-Spacious & Quiet for a solo traveller,17739218887,verified,Clarissa,Brooklyn,Bushwick,40.69534,-73.91776999999999,United States,US,False,moderate,Private room,2022,$932 ,$186 ,7,0,,,2,2,16,"Please remember that this is a residential building. The building rules, apartment occupancy restrictions and the year-round tenants must be respected.",
23922891,private room for up to 2 guests,31453287970,verified,Lizhen,Queens,Elmhurst,40.743109999999994,-73.88098000000001,United States,US,False,strict,Private room,2018,$924 ,$185 ,1,1,2/18/2019,0.21,5,1,89,,
23923443,Room in Williamsburg w/ private full bathroom,92434023860,unconfirmed,Luke,Brooklyn,Williamsburg,40.7079,-73.94608000000001,United States,US,True,flexible,Private room,2012,$406 ,$81 ,2,2,5/6/2019,0.85,5,1,188,,
23923995,Welcome to my Lovely Studio.,49632039214,unconfirmed,Denny,Bronx,Tremont,40.8474,-73.89612,United States,US,True,strict,Shared room,2022,$399 ,$80 ,1,7,5/19/2019,1.54,4,1,158,,
23924548,the haven,5831539795,verified,Nitzan,Brooklyn,Crown Heights,40.665,-73.95362,United States,US,False,moderate,Entire home/apt,2005,$319 ,$64 ,30,1,3/9/2019,0.25,2,1,0,"House Rules 1. All bookings made at least a week before check in are fully refundable if cancelled within 24 hours of booking. After this, you will receive a 50% refund if you cancel at least 7 days before the start of your trip. 2. Check-in time is any time after 4 pm local time. If the unit is ready earlier, we’ll let you know. Check-out is normally 11 am local time, but we’d be happy to extend it as long as we don’t have a cleaning scheduled. Just let us know.  3. All bookings require a security deposit of at least $300. 4. For security measures we require all guests to provide proof of identification through ID verification on our own website. In order to check in, we'll need a photo of your ID.  5. Don’t let $300 go up in smoke. There's no smoking allowed in any Flatbook and a $300 fine for breaking this rule.  6. Unfortunately we don’t allow pets in most of our apartments. 7. Unless you’re staying in one of our specialty apartments, we don’t allow parties or excessive noise. 8. I",
23925100,2400 sq. ft. Luxury Tribeca Loft,10532414839,verified,Cuitlahuac,Manhattan,Tribeca,40.71683,-74.00574,United States,US,True,strict,Private room,2022,$808 ,$162 ,1,1,3/21/2019,0.27,3,1,66,No smoking,
23925652,Cozy room in brand new condo with rooftop & gym,59443090981,verified,Esteban,Brooklyn,Greenpoint,40.733940000000004,-73.95174,United States,US,True,flexible,Private room,2017,"$1,043 ",$209 ,2,11,6/23/2019,3.33,2,1,49,,
23926204,Bright room in a spacious apartment,37835394803,unconfirmed,Ismael,Bronx,Parkchester,40.83099,-73.86950999999999,United States,US,False,flexible,Private room,2018,"$1,084 ",$217 ,2,10,6/3/2019,2.1,5,1,6,"No guests over other than the ones in your booking. No smoking in apartment or rooftop lounge No partying No loud music that would disturb other residents. No pets. Must be clean and sanitary. If you cook, you must clean up and return all cooking utensils back in their proper place. If you wish to do laundry, bring your own detergent.",
23926757,The Artist Retreat Duplex and Garden 2,84400311072,unconfirmed,Amy,Brooklyn,Bedford-Stuyvesant,40.68272,-73.9303,United States,US,False,strict,Entire home/apt,2020,$604 ,$121 ,2,0,,,4,4,89,"House Rules 1. All bookings made at least a week before check in are fully refundable if cancelled within 24 hours of booking. After this, you will receive a 50% refund if you cancel at least 7 days before the start of your trip. 2. Check-in time is any time after 4 pm local time. If the unit is ready earlier, we’ll let you know. Check-out is normally 11 am local time, but we’d be happy to extend it as long as we don’t have a cleaning scheduled. Just let us know.  3. All bookings require a security deposit of at least $300. 4. For security measures we require all guests to provide proof of identification through ID verification on our own website. In order to check in, we'll need a photo of your ID.  5. Don’t let $300 go up in smoke. There's no smoking allowed in any Flatbook and a $300 fine for breaking this rule.  6. Unfortunately we don’t allow pets in most of our apartments. 7. Unless you’re staying in one of our specialty apartments, we don’t allow parties or excessive noise. 8. I",
23927309,Private Apartment in the Heart of East Village,53748399214,verified,Chin,Manhattan,East Village,40.72716,-73.9783,United States,US,False,moderate,Entire home/apt,2011,"$1,129 ",$226 ,30,17,7/7/2019,4.18,5,1,74,"Please remember that this is a residential building. The building rules, apartment occupancy restrictions and the year-round tenants must be respected.",
23927861,Sweet Studio Apartment in Sunnyside,11246405944,unconfirmed,Steve,Queens,Sunnyside,40.749,-73.91858,United States,US,True,flexible,Entire home/apt,2012,$109 ,$22 ,3,15,7/1/2019,4.5,2,2,23,$1000 refundable security deposit and $150 cleaning fee due at move-in. NO Smoking and NO pets. $100 move in fee charged by the building Check-in after noon and before 7pm. After 7pm $50 fee. No move-ins after midnight. Check-out 11am. ,
23928414,Cozy/ smallish  on 143 st & Broadway,37305137435,verified,Marlon,Manhattan,Harlem,40.821529999999996,-73.95458,United States,US,True,moderate,Private room,2006,"$1,169 ",$234 ,5,7,6/21/2019,1.68,4,6,11,,
23928966,Bushwick Loft Transformed into Bohemian Hideaway!,9553203123,unconfirmed,Nick,Brooklyn,Williamsburg,40.70525,-73.93363000000001,United States,US,False,moderate,Private room,2006,$780 ,$156 ,1,29,7/5/2019,6.13,2,1,13,,
23929518,Waterfront apt with Manhattan view and balcony...,82328808146,verified,Dino,Manhattan,Roosevelt Island,40.76218,-73.94896999999999,United States,US,True,strict,Private room,2014,$563 ,$113 ,1,20,7/2/2019,8.45,5,1,104,No smoking or parties allowed,
23930071,Artist Studio Loft in The Heart of Williamsburg,59918753500,unconfirmed,Vlasta,Brooklyn,Williamsburg,40.71356,-73.96751,United States,US,False,moderate,Entire home/apt,2011,"$1,018 ",$204 ,2,5,5/19/2019,1.05,5,2,26,,
23930623,"Lux room near train station,  LGA & Manhattan.",37678365500,unconfirmed,Kazuya,Queens,Woodside,40.74609,-73.90632,United States,US,True,flexible,Private room,2013,$824 ,$165 ,30,0,,,4,103,230,"Please remember that this is a residential building. The building rules, apartment occupancy restrictions and the year-round tenants must be respected.",
23931175,Furnished room in a nice apt 20 mins to Manhattan,57301545225,unconfirmed,Ella,Queens,Rego Park,40.72871,-73.86014,United States,US,True,flexible,Private room,2012,$790 ,$158 ,2,10,7/1/2019,2.34,4,1,319,#NAME?,
23931727,Cozy NYC apartment,13483999381,verified,Mark & Alex,Manhattan,East Harlem,40.79616,-73.93343,United States,US,True,flexible,Private room,2017,"$1,087 ",$217 ,5,0,,,4,1,179,Please remove sheets and place in the washing machine when done.  Also place used towels in washing machine.,
23932280,"One of a kind, lovely apartment w/private backyard",48674918957,unconfirmed,Jennifer,Brooklyn,Prospect Heights,40.679590000000005,-73.96736,United States,US,False,flexible,Entire home/apt,2005,"$1,034 ",$207 ,1,3,6/30/2019,1.1,3,1,20,"Please remember that this is a residential building. The building rules, apartment occupancy restrictions and the year-round tenants must be respected.",
23932832,"E Flatbush! Cozy, 20 min walk to Dwnstate Hosp",77733035108,unconfirmed,Angela,Brooklyn,East Flatbush,40.649409999999996,-73.93451,United States,US,True,moderate,Private room,2007,$585 ,$117 ,1,14,7/6/2019,3.09,2,3,37,"Please remember that this is a residential building. The building rules, apartment occupancy restrictions and the year-round tenants must be respected.",
23933384,70KO,37212378134,unconfirmed,Gabriel,Brooklyn,Bedford-Stuyvesant,40.6892,-73.95213000000001,United States,US,True,flexible,Private room,2016,$555 ,$111 ,1,0,,,2,1,178,,
23933937,Unique 2 bedroom apt in the center of Williamsburg,85037526791,verified,Diego,Brooklyn,Williamsburg,40.71294,-73.96141999999999,United States,US,False,flexible,Entire home/apt,2008,$94 ,$19 ,2,27,6/28/2019,5.91,5,1,188,"No smoking, no pets, no parties",
23934489,Sun drenched apartment w/ outdoor space.,44647338336,unconfirmed,Brittany,Brooklyn,Williamsburg,40.71297,-73.95139,United States,US,False,strict,Private room,2022,$730 ,$146 ,30,0,,,4,1,340,"No smoking, pets or parties.",
23935041,Modern Ground FL Event Space on Infamous 5th Ave,44834728833,verified,Mike,Manhattan,East Harlem,40.80129,-73.94466,United States,US,True,flexible,Entire home/apt,2003,$387 ,$77 ,1,15,6/24/2019,3.52,3,1,91,"No smoking, no pets, no parties.",
23935594,1.Nice Room near La Guardia AirPort NYC,7670028897,verified,Rosy,Queens,East Elmhurst,40.76599,-73.8693,United States,US,False,moderate,Private room,2016,$114 ,$23 ,1,51,7/2/2019,11.59,4,1,66,Garbage and recycling is on the same floor as unit if more refuse is created than can be stored. There is a door that is labeled as such and there are bins for recycling and a garbage shute for tied plastic garbage bags.,
23936146,86,53527893550,unconfirmed,Ali,Brooklyn,Downtown Brooklyn,40.69429,-73.98415,United States,US,False,strict,Entire home/apt,2017,"$1,113 ",$223 ,1,1,3/27/2019,0.29,4,1,365,Sorry no smoking. Please treat this beautiful immaculate apartment like your own.,
23936698,Spacious NYC experience,73321025107,unconfirmed,Nellie,Queens,Richmond Hill,40.67863,-73.82648,United States,US,False,strict,Entire home/apt,2012,$52 ,$10 ,180,0,,,2,1,365,"Thank you for your reservation. By placing your reservation online you indicated that you accepted the terms and conditions which have been printed below.  Please review your reservation summary as below - then print, sign and return the agreement to:  (EMAIL HIDDEN) or fax it to (PHONE NUMBER HIDDEN) or  mail it to: Spare Suite, Inc., 119 Braintree Street, Suite 510, Boston, MA 02134, USA Upon receipt, we will send you the welcome document with check in instructions and how to get your keys. ------------------------------------------------------------------------ ------------------------------------------------------------------------ Terms of the Agreement: BOOKING AND REFUND POLICY Once booked your reservation is guaranteed for the check in and check out times and dates specified. All reservations must be paid in advance, in full for the entire period of stay.  All reservations are final, and NON REFUNDABLE UNDER ANY CIRCUMSTANCES.  If you feel you may need to cancel once booked, yo",
23937250,Safe quiet midtown home!,81039489808,verified,Dave,Manhattan,Upper East Side,40.76324,-73.96382,United States,US,True,flexible,Entire home/apt,2003,$450 ,$90 ,3,1,6/19/2019,1.0,4,1,3,,
23937803,BROOKLYN Bright Williamsburg room Backyard +Trains,58863493727,unconfirmed,Pete And Chloe,Brooklyn,Williamsburg,40.70684,-73.94932,United States,US,True,moderate,Private room,2015,$678 ,$136 ,1,20,7/4/2019,4.23,4,4,107,No smoking. No parties. Please respect our neighbors.,
23938355,Cool&cozy Bushwick apartment with private backyard,33897969081,verified,Irina,Brooklyn,Bushwick,40.68723,-73.91450999999999,United States,US,True,moderate,Entire home/apt,2008,"$1,144 ",$229 ,6,15,6/18/2019,3.19,5,1,63,,
23938907,"Brownstone Apt, 1min to Subway, 20min to Manhattan",36919415047,verified,Ninja & Sung,Brooklyn,Clinton Hill,40.68846,-73.96139000000001,United States,US,False,flexible,Entire home/apt,2020,$875 ,$175 ,3,12,7/1/2019,3.71,3,1,38,,
23939460,1 bedroom apt in Harlem 600 sq. feet,34026216893,unconfirmed,Alberto,Manhattan,East Harlem,40.79658,-73.93284,United States,US,True,strict,Entire home/apt,2011,$998 ,$200 ,7,0,,,3,1,178,"No smoking or pets are permitted in the condo.  This unit is single occupancy, although a guest is welcome to visit.  Bruce has prepared a guest book with information about the property, the area and other important details to make your stay more comfortable.",
23940012,The best place .Close to Central Park,50696260036,unconfirmed,Luiz Charles,Manhattan,Upper East Side,40.77405,-73.9623,United States,US,False,moderate,Entire home/apt,2010,$56 ,$11 ,15,0,,,2,1,162,,
23940564,"Bright Den In Modern, New Condo, Sleeps 2",76503819918,unconfirmed,Leila,Brooklyn,Gowanus,40.681940000000004,-73.98033000000001,United States,US,False,flexible,Private room,2015,$967 ,$193 ,3,9,6/15/2019,2.23,4,1,89,,
23941117,Unique & Comfortable Apartment in East Village,70930707270,verified,Clinton,Manhattan,East Village,40.72694,-73.98501,United States,US,True,strict,Entire home/apt,2017,$233 ,$47 ,2,2,6/9/2019,0.58,2,2,0,* No smoking indoors.  * No pets  * No loud/large parties.  * Please clean up before checking out. Any major clean-up service required may be deducted from the deposit.  * Guests staying longer than one week are responsible for keeping the space tidy. We provide cleaning supplies.  * Additional guests permitted for an extra charge per person per night (see price table).,
23941669,Super Luxury! XL Alcove Studio in heart of Chelsea,83990675541,unconfirmed,Carol,Manhattan,Chelsea,40.741009999999996,-73.99471,United States,US,False,moderate,Entire home/apt,2010,"$1,187 ",$237 ,2,12,6/7/2019,2.55,5,1,128,,
23942221,ROOM X,2178976276,verified,Memory,Brooklyn,Bushwick,40.689809999999994,-73.91299000000001,United States,US,False,moderate,Private room,2006,"$1,073 ",$215 ,3,8,5/19/2019,1.9,4,1,0,NO Smoking.   Cats Allowed With Fee.,
23942773,Charming Bedroom in Quintessential Brooklyn Home,82564179138,verified,Matthew,Brooklyn,Williamsburg,40.71751,-73.94474,United States,US,True,flexible,Private room,2016,$719 ,$144 ,1,0,,,5,1,0,No Smoking No Drugs  No Parties on property No pets Please be consideration of our neighbors. Thank you in advance!,
23943326,Quite and cozy room in Manatthan,75020793692,verified,Camille,Manhattan,East Harlem,40.79795,-73.93448000000001,United States,US,True,moderate,Private room,2009,"$1,006 ",$201 ,2,20,6/14/2019,4.38,5,1,52,No smoking. No parties. Please be respectful of our neighbors.,
23943878,Comfy bedroom in stylish apt in Clinton Hill,12830632406,unconfirmed,Max,Brooklyn,Bedford-Stuyvesant,40.68594,-73.95658,United States,US,True,moderate,Private room,2004,$515 ,$103 ,1,0,,,4,2,146,No surprises. No parties. No smoking. No loading of extra guests. My office is in building so I will know who is there.,
23944430,"Nice bedroom in Astoria, Queens, NY",28680674976,unconfirmed,Clara,Queens,Astoria,40.76352,-73.92489,United States,US,False,strict,Private room,2011,"$1,046 ",$209 ,3,0,,,5,2,0,No Smoking. Cats Allowed With Fee.,
23944983,Split level Front walk-in Apartment,1566440676,unconfirmed,Rafael,Queens,East Elmhurst,40.76276,-73.86889000000001,United States,US,False,moderate,Private room,2009,$457 ,$91 ,1,6,6/3/2019,1.25,3,7,55,"Please remember that this is a residential building. The building rules, apartment occupancy restrictions, and the year-round tenants must be respected. There is no smoking allowed in the apartments and significant fees will take place if occurs.",
23945535,Private garden and luxury 2-bd apartment in Harlem,55553718872,unconfirmed,Terry,Manhattan,Harlem,40.82869,-73.94468,United States,US,False,flexible,Entire home/apt,2003,$785 ,$157 ,30,0,,,4,1,147,,
23946087,Beautiful Mid-century Modern One Bedroom Apartment,5454034319,unconfirmed,Lisa,Queens,Astoria,40.76624,-73.91475,United States,US,True,strict,Entire home/apt,2008,$922 ,$184 ,3,18,6/27/2019,4.29,3,1,0,"- No smoking.  - Maximum of 2 people  - Sorry, no children. (I love kids, but this is a very quiet building. It's all young professionals.  - Please be quiet and respectful of others in the building (no loud music/tv,   - Please dispose of baby wipes and/or tampons in the waste basket, not in the toilet. (the pipes are old and clog easily – last time baby wipes had to be removed from the pipes, the plumbing bill was $350!).",
23946640,"Easy access Mall, Midtown & JFK. Vast room space!",85666529984,verified,Kazuya,Queens,Elmhurst,40.74467,-73.8726,United States,US,True,flexible,Private room,2016,$365 ,$73 ,30,0,,,2,103,233,,
23947192,AMAZINGLY LOCATED APARTMENT NEAR TIME SQ,24288383146,verified,Oscar,Manhattan,Hell's Kitchen,40.76299,-73.98994,United States,US,False,flexible,Entire home/apt,2004,$608 ,$122 ,1,39,7/7/2019,8.48,3,1,64,#NAME?,
23947744,Charming 1 bedroom for female guest,60236915714,verified,Shalini,Brooklyn,Prospect Heights,40.67414,-73.9662,United States,US,False,flexible,Private room,2003,$295 ,$59 ,2,7,7/2/2019,1.5,4,1,63,"Check in after noon and before 7pm. After 7pm $50 charge. No move-ins after midnight. check out 11am.  NO PETS, NO SMOKING ",
23948296,Bright 1b on quiet Williamsburg street,34188448290,verified,Alison,Brooklyn,Williamsburg,40.71177,-73.96464,United States,US,False,moderate,Entire home/apt,2006,$754 ,$151 ,3,4,7/1/2019,0.88,3,1,8,"House Rules 1. All bookings made at least a week before check in are fully refundable if cancelled within 24 hours of booking. After this, you will receive a 50% refund if you cancel at least 7 days before the start of your trip. 2. Check-in time is any time after 4 pm local time. If the unit is ready earlier, we’ll let you know. Check-out is normally 11 am local time, but we’d be happy to extend it as long as we don’t have a cleaning scheduled. Just let us know.  3. All bookings require a security deposit of at least $300. 4. For security measures we require all guests to provide proof of identification through ID verification on our own website. In order to check in, we'll need a photo of your ID.  5. Don’t let $300 go up in smoke. There's no smoking allowed in any Flatbook and a $300 fine for breaking this rule.  6. Unfortunately we don’t allow pets in most of our apartments. 7. Unless you’re staying in one of our specialty apartments, we don’t allow parties or excessive noise. 8. I",
23948849,Cozy 2 Bedroom Brownstone Duplex,59386385442,unconfirmed,Shoshana,Brooklyn,Bedford-Stuyvesant,40.681290000000004,-73.94251,United States,US,True,strict,Entire home/apt,2017,$218 ,$44 ,3,10,5/21/2019,2.78,3,2,5,"Please remember that this is a residential building. The building rules, apartment occupancy restrictions, and the year-round tenants must be respected. There is no smoking allowed in the apartments and significant fees will take place if occurs.",
23949401,BROOKLYN! Chic Williamsburg room + Balcony +Trains,31347005550,verified,Pete And Chloe,Brooklyn,Williamsburg,40.70847,-73.9491,United States,US,True,strict,Private room,2011,$344 ,$69 ,1,31,7/2/2019,6.46,4,4,116,,
23949953,Homey sanctuary in classic limestone garden apt.,83172195018,unconfirmed,Alexis,Brooklyn,Bedford-Stuyvesant,40.685140000000004,-73.92392,United States,US,False,moderate,Entire home/apt,2019,$334 ,$67 ,5,9,6/25/2019,2.6,2,1,99,,
23950506,BROOKLYN! Cute Williamsburg room + Balcony +Trains,1457310733,unconfirmed,Pete And Chloe,Brooklyn,Williamsburg,40.70766,-73.94974,United States,US,False,flexible,Private room,2020,"$1,101 ",$220 ,1,34,7/5/2019,7.03,4,4,132,"Please respect the house as if it were your own. This is NOT a party house. We live here, as do our neighbors. Quiet time is generally after 10 PM.  Check-in is at 3:00 PM sharp, and check out is at 10:00 AM sharp. We DO NOT accommodate early check-ins or late check-outs. These time are in place for our cleaning crew. PLEASE be respectful of their timetable. They work very hard to turn around the entire house in time. If these times do not work for your group please do not book. Please remove your shoes and place them in the sitting room directly to the left of the entrance on the shoe mats. There are no shoes allowed in the house.  We DO NOT allow smoking in the house, on the deck, in the courtyard, or in the driveway.  Please do not loiter in the courtyard or driveway. Parking in the driveway is prohibited. You must contact me when booking to receive instructions for use of my parking pass to a nearby garage. The parking pass is for ONE non-oversized vehicle. The garage is a 2.5 minu",
23951058,Carroll Gardens Cozy Nest,18648925557,unconfirmed,Barbara,Brooklyn,Carroll Gardens,40.680820000000004,-73.99481999999999,United States,US,False,strict,Private room,2020,$771 ,$154 ,4,5,6/16/2019,1.4,2,1,0,,
23951610,Private bedroom/bathroom in Williamsburg GEM !,5726305186,unconfirmed,Manon,Brooklyn,Williamsburg,40.71208,-73.95125999999999,United States,US,False,flexible,Private room,2006,"$1,036 ",$207 ,3,9,6/24/2019,2.03,4,1,19,,
23952163,Sleek Williamsburg Apartment With Gym,37655855560,unconfirmed,Amy,Brooklyn,Williamsburg,40.7084,-73.94488,United States,US,False,strict,Private room,2018,$985 ,$197 ,1,2,5/18/2019,0.61,2,1,89,NO Smoking,
23952715,A Sweet Retreat in Bedstuy,97698940455,verified,Cat,Brooklyn,Bedford-Stuyvesant,40.69389,-73.94317,United States,US,True,moderate,Private room,2012,$50 ,$10 ,3,0,,,5,3,280,"Simply to respect the apartment and treat it as if it were your home! Unless you smoke in your home, in which case I ask that you refrain from doing so while in the unit.",
23953267,Large Studio Doorman Elevator 5241,78665514523,verified,Jeremy & Laura,Manhattan,Midtown,40.75629,-73.96548,United States,US,False,flexible,Entire home/apt,2011,$706 ,$141 ,30,0,,,4,96,332,NO Smoking  Pets Allowed with a $375 non refundable pet fee.,
23953819,Bright Spacious Full Floor Fort Greene Apartment,35790965626,unconfirmed,Blacky,Brooklyn,Fort Greene,40.69722,-73.97204,United States,US,False,flexible,Entire home/apt,2016,"$1,025 ",$205 ,3,2,3/25/2019,0.44,2,1,5,,
23954372,Modern renovated 1 BR in the heart of Manhattan,78773305434,unconfirmed,Kel,Manhattan,Upper East Side,40.76218,-73.96633,United States,US,False,moderate,Entire home/apt,2021,"$1,022 ",$204 ,1,26,6/29/2019,5.91,2,1,47,"Be clean, honest and respectful to other people living in the building",
23954924,RM#2-Bright room w/balcony 30 mins NYC & airports,59911524405,unconfirmed,Deborah,Queens,Jamaica Hills,40.71686,-73.79741999999999,United States,US,False,flexible,Private room,2018,"$1,125 ",$225 ,2,25,7/7/2019,6.88,2,2,318,,
23955476,"Sharp UES 2BR w/Indoor pool, Doorman + City views by Blueground",55998666816,unconfirmed,Blueground,Manhattan,Midtown,40.759009999999996,-73.96198000000001,United States,US,False,flexible,Entire home/apt,2010,$647 ,$129 ,30,0,,,5,232,341,"Please remember that this is a residential building. The building rules, apartment occupancy restrictions, and the year-round tenants must be respected. There is no smoking allowed in the apartments and significant fees will take place if occurs.",
23956029,LUXURY PRVT ROOM NEAR PROSPECT PARK,68126637545,verified,Stephanie,Brooklyn,Kensington,40.6376,-73.97386,United States,US,False,strict,Private room,2010,$121 ,$24 ,1,0,,,4,1,0,"Thank you for your reservation. By placing your reservation online you indicated that you accepted the terms and conditions which have been printed below.  Please review your reservation summary as below - then print, sign and return the agreement to:  (EMAIL HIDDEN) or fax it to (PHONE NUMBER HIDDEN) or  mail it to: Spare Suite, Inc., 119 Braintree Street, Suite 510, Boston, MA 02134, USA Upon receipt, we will send you the welcome document with check in instructions and how to get your keys. ------------------------------------------------------------------------ ------------------------------------------------------------------------ Terms of the Agreement: BOOKING AND REFUND POLICY Once booked your reservation is guaranteed for the check in and check out times and dates specified. All reservations must be paid in advance, in full for the entire period of stay.  All reservations are final, and NON REFUNDABLE UNDER ANY CIRCUMSTANCES.  If you feel you may need to cancel once booked, yo",
23956581,Stylish 1 Bedroom in the heart of Brooklyn,98491633647,unconfirmed,Mary,Brooklyn,Crown Heights,40.66854,-73.95857,United States,US,False,strict,Entire home/apt,2008,$480 ,$96 ,2,9,6/25/2019,4.5,4,1,0,,
23957133,Quiet Mid-Century Modern Apartment,68816821645,unconfirmed,Ashlin,Manhattan,Upper West Side,40.77995,-73.98464,United States,US,False,flexible,Entire home/apt,2015,$994 ,$199 ,2,3,4/29/2019,0.62,2,1,36,,
23957686,Best Nest.,30489091881,unconfirmed,Jackie,Manhattan,Upper East Side,40.76335,-73.96831,United States,US,True,strict,Private room,2014,$371 ,$74 ,1,0,,,4,1,179,希望房间里一切都好好的吧,
23958238,Cozy bedroom minutes to Manhattan,3888484348,unconfirmed,Dafni,Queens,Astoria,40.768370000000004,-73.92712,United States,US,False,moderate,Private room,2017,$681 ,$136 ,2,4,6/29/2019,1.15,3,3,31,NO Smoking.,
23958790,Cozy room with private entrance in Harlem.,31527928568,verified,George,Manhattan,Harlem,40.805209999999995,-73.95137,United States,US,False,flexible,Private room,2014,$54 ,$11 ,1,14,6/19/2019,2.98,5,3,113,,
23959342,Hidden GEM in the CENTRAL location,24242352076,unconfirmed,Maria,Manhattan,West Village,40.73957,-74.00241,United States,US,False,strict,Entire home/apt,2012,$728 ,$146 ,2,4,5/7/2019,0.99,4,1,0,"We both are very clean and tidy people. We don't accept smokers. In terms of this, we really want our guests to have good habit of living. We trust our visitors for being tidy, that's why we don't charge any cleansing fee. Party is definitely forbidden here. 我们都是非常干净整洁的人,公寓不租用给吸烟者,所以我们希望租客也是有良好生活习惯的人。我们相信我们的房客都是有良好习惯的人,所以我们不收取任何清洁费。派对聚会等活动是绝对不允许发生的。 We charge $100 deposit in case visitors make any damage in the apartment. The deposit will be keep by Airbnb Inc. If nothing in the apartment get damaged during your stay, Airbnb Inc. will give back your deposit after you leave the apartment. 我们收取100美金的押金以防房客给公寓带来任何损坏,押金将由Airbnb公司保管,如果在房客住宿期间没有任何损坏,Airbnb公司将在您的行程结束之后返还您的押金。",
23959895,Room in Heart of NYC Art & Nightlife !,76024369778,unconfirmed,Mick,Manhattan,Nolita,40.72214,-73.99675,United States,US,False,strict,Private room,2009,$230 ,$46 ,3,9,6/7/2019,2.73,4,1,67,,
23960447,Brooklyn Two Bedroom APT near the TRAIN,20456648111,verified,Vlad,Brooklyn,Kensington,40.64265,-73.98355,United States,US,True,strict,Entire home/apt,2004,$929 ,$186 ,3,2,5/30/2019,0.79,2,1,177,,
23960999,Crash Space in BK for your NYC Adventure!,32141206974,verified,Eric,Brooklyn,Crown Heights,40.67302,-73.92134,United States,US,True,moderate,Shared room,2021,$62 ,$12 ,2,1,2/20/2019,0.21,4,5,29,No smoking No pets,
23961552,The Projects Gallery,64948429353,verified,Sam,Brooklyn,Fort Greene,40.68495,-73.97438000000001,United States,US,True,moderate,Private room,2012,"$1,039 ",$208 ,4,0,,,2,1,365,,
23962104,Beautiful big ROOM/Safe&comfortable/ near LG& JFK,83241375530,verified,Jay/Carolina Bastidas Family,Brooklyn,Cypress Hills,40.684459999999994,-73.87801,United States,US,False,moderate,Private room,2003,$289 ,$58 ,4,10,6/26/2019,2.44,4,2,307,"No smoking No pets  No parties No extra guest No loud music No opening of windows Please be aware: This is an old fashioned building, the elevator is small and slow There is no central AC, but 2 efficient window units This is downtown Boston, you may hear some noise of people in the streets",
23962656,Excellent apartment/ awesome location,89082512329,verified,Jordan,Brooklyn,South Slope,40.667359999999995,-73.98508000000001,United States,US,False,moderate,Entire home/apt,2003,"$1,001 ",$200 ,5,0,,,5,1,8,,
23963209,lower east side home,90851767963,verified,Xu,Manhattan,Lower East Side,40.7127,-73.98854,United States,US,True,strict,Private room,2015,$336 ,$67 ,4,9,6/23/2019,1.96,5,1,34,,
23963761,Bedroom in middle of BK! Great location!,20573161086,unconfirmed,Katya,Brooklyn,Bushwick,40.69266,-73.92058,United States,US,False,flexible,Private room,2017,$649 ,$130 ,1,0,,,5,1,16,,
23964313,Huge room in Creative Colorful Modern apartment,443688513,unconfirmed,Brooke,Brooklyn,Bedford-Stuyvesant,40.69619,-73.94242,United States,US,True,strict,Private room,2007,$888 ,$178 ,1,6,4/28/2019,1.29,2,2,22,Small pets are allowed. There's an area by the window/fire escape where smoking is allowed.,
23964865,TWO BEDROOM APARTMENT IN BEAUTIFUL BED-STUY,14779623905,verified,Nick,Brooklyn,Bedford-Stuyvesant,40.69493,-73.94483000000001,United States,US,True,strict,Entire home/apt,2007,$514 ,$103 ,3,4,6/30/2019,1.04,3,3,6,,
23965418,Cozy Quaint Brooklyn Apartment,60521250724,verified,Skylar,Brooklyn,Crown Heights,40.67111,-73.92237,United States,US,True,moderate,Entire home/apt,2017,$476 ,$95 ,2,11,7/7/2019,2.6,4,1,128,,
23965970,"Cozy space, centrally located!",29036192486,verified,Martin,Manhattan,Kips Bay,40.739509999999996,-73.98216,United States,US,False,flexible,Entire home/apt,2017,$253 ,$51 ,30,0,,,4,1,36,"No smoking, no pets, no parties.",
23966522,"SPACIOUS Floor-Through Loft in Flatiron, NYC",84215729918,unconfirmed,Anika,Manhattan,Gramercy,40.73833,-73.98943,United States,US,False,moderate,Entire home/apt,2009,$53 ,$11 ,2,2,5/5/2019,0.7,4,1,166,,
23967075,LARGE 2 Bedroom Midtown Manhattan Apartment!,47404671655,verified,Ethan,Manhattan,Hell's Kitchen,40.76262,-73.98865,United States,US,False,flexible,Entire home/apt,2011,$509 ,$102 ,1,7,7/4/2019,1.74,5,1,8,"Thank you for your reservation. By placing your reservation online you indicated that you accepted the terms and conditions which have been printed below.  Please review your reservation summary as below - then print, sign and return the agreement to:  (EMAIL HIDDEN) or fax it to (PHONE NUMBER HIDDEN) or  mail it to: Spare Suite, Inc., 119 Braintree Street, Suite 510, Boston, MA 02134, USA Upon receipt, we will send you the welcome document with check in instructions and how to get your keys. ------------------------------------------------------------------------ ------------------------------------------------------------------------ Terms of the Agreement: BOOKING AND REFUND POLICY Once booked your reservation is guaranteed for the check in and check out times and dates specified. All reservations must be paid in advance, in full for the entire period of stay.  All reservations are final, and NON REFUNDABLE UNDER ANY CIRCUMSTANCES.  If you feel you may need to cancel once booked, yo",
23967627,"Comfortable, Quiet, close to Airports, Manhattan",10454000980,verified,J,Queens,Maspeth,40.73218,-73.89633,United States,US,False,strict,Private room,2010,$368 ,$74 ,1,0,,,3,1,0,No Smoking No Pets,
23968179,Washington Suite at Incentra Village Hotel,77086745731,unconfirmed,Incentra,Manhattan,West Village,40.73672,-74.00539,United States,US,True,flexible,Private room,2014,$679 ,$136 ,1,3,7/1/2019,2.43,4,5,329,,
23968732,Tabor Room at Incentra Village Hotel,49011086007,unconfirmed,Incentra,Manhattan,West Village,40.73697,-74.00343000000001,United States,US,False,strict,Private room,2015,$237 ,$47 ,1,2,5/26/2019,0.59,4,5,334,#NAME?,
23969284,Lahore Suite at Incentra Village House,70046030158,verified,Incentra,Manhattan,West Village,40.73897,-74.00346,United States,US,True,flexible,Private room,2009,$809 ,$162 ,1,3,5/19/2019,0.7,3,5,341,• Check-in time is 3PM. • Check-out time 12PM No loud parties. Please leave the apartment as you found it,
23969836,One stop away manhattan #2,43586805344,unconfirmed,Tina,Brooklyn,Williamsburg,40.70738,-73.95569,United States,US,False,moderate,Private room,2008,$511 ,$102 ,2,26,6/29/2019,6.5,2,2,21,The rules for my villa are the same as those for Marriott Custom House Guests.,
23970388,Glorious Bedstuy: Large room with a work station.,68833944052,unconfirmed,Beauty,Brooklyn,Bedford-Stuyvesant,40.69433,-73.9432,United States,US,False,flexible,Private room,2022,$62 ,$12 ,1,22,7/7/2019,4.49,3,4,282,,
23970941,Brownstone Brooklyn with a View,34623816749,unconfirmed,Beka And Strat,Brooklyn,Prospect-Lefferts Gardens,40.65814,-73.9588,United States,US,False,moderate,Private room,2014,$682 ,$136 ,2,3,6/23/2019,3.0,4,2,179,,
23971493,LES is more,69928188734,unconfirmed,Law,Manhattan,Lower East Side,40.717009999999995,-73.98874,United States,US,False,strict,Entire home/apt,2021,$638 ,$128 ,1,14,7/2/2019,4.2,4,1,9,"Please remember that this is a residential building. The building rules, apartment occupancy restrictions and the year-round tenants must be respected.  Parties, pets and smoking are not allowed under any circumstances and incur significant fees.",
23972045,Pacheco’s House.,72523135787,verified,Adrian,Brooklyn,Prospect-Lefferts Gardens,40.65447,-73.9616,United States,US,False,strict,Private room,2019,$824 ,$165 ,2,6,5/20/2019,1.26,5,1,144,Guests should do dishes.,
23972598,Bedstuy Blues: Room for one or two,38428610103,unconfirmed,Beauty,Brooklyn,Bedford-Stuyvesant,40.69315,-73.94191,United States,US,True,flexible,Private room,2020,$725 ,$145 ,1,39,7/6/2019,7.96,3,4,301,,
23973150,Stylish West Village Artists Studio Penthouse,59278252079,unconfirmed,Duane,Manhattan,West Village,40.736740000000005,-74.00556,United States,US,True,flexible,Entire home/apt,2020,$603 ,$121 ,30,0,,,4,2,309,Just the basics -  No Smoking. No Pets. No Parties.  Respect our home and our neighbors. Kids are welcome but the house isn't 'child-proofed',
23973702,Uptown Riverside Drive Apartment,95851879351,verified,Ana,Manhattan,Harlem,40.82666,-73.95175,United States,US,False,strict,Private room,2017,$511 ,$102 ,3,1,4/21/2019,0.38,3,1,120,Please treat my apartment as if it were your own.,
23974255,Cozy Greenpoint Getaway,43221644402,unconfirmed,Paulina,Brooklyn,Greenpoint,40.72912,-73.95203000000001,United States,US,True,strict,Private room,2008,$530 ,$106 ,3,4,6/30/2019,1.36,2,1,53,No Smoking.  No Pets.,
23974807,Stylish apartment in a Brooklyn brownstone,3829507633,unconfirmed,Patrick,Brooklyn,Bedford-Stuyvesant,40.685970000000005,-73.93873,United States,US,True,moderate,Entire home/apt,2012,"$1,034 ",$207 ,5,4,7/1/2019,1.2,5,1,0,"Please remember that this is a residential building. The building rules, apartment occupancy restrictions and the year-round tenants must be respected.  Parties, pets and smoking are not allowed under any circumstances and incur significant fees. ",
23975359,Enjoy privacy & comfort in Washington Heights 1BR,32303397913,verified,Angela,Manhattan,Washington Heights,40.85197,-73.92853000000001,United States,US,False,flexible,Entire home/apt,2009,"$1,161 ",$232 ,1,4,3/24/2019,0.95,3,1,0,,
23975911,Cozy Room in Ridgewood/Bushwick! 25 Mins to NYC,89876394186,unconfirmed,John,Queens,Ridgewood,40.70833,-73.91039,United States,US,False,flexible,Private room,2016,"$1,013 ",$203 ,3,3,6/24/2019,1.29,5,2,342,,
23976464,Convenient 2 bedroom apt near Times Sq. 1C,24412184743,unconfirmed,John,Manhattan,Hell's Kitchen,40.75393,-73.99667,United States,US,True,moderate,Entire home/apt,2013,"$1,034 ",$207 ,3,2,5/26/2019,0.81,4,47,352,No Smoking.  No Pets.  Guest must be able to pick up keys from leasing office tomorrow before 6PM.,
23977016,Room Nearby train station to Times Square NYC,27818054578,unconfirmed,Blanca,Queens,Long Island City,40.75204,-73.9226,United States,US,True,flexible,Private room,2014,$828 ,$166 ,3,14,6/29/2019,3.41,5,1,77,,
23977568,3 bedroom apartment 10m away from Times Sq. 2C,42776711296,verified,John,Manhattan,Hell's Kitchen,40.755720000000004,-73.99509,United States,US,False,flexible,Entire home/apt,2021,$362 ,$72 ,3,1,3/12/2019,0.25,3,47,297,No Smoking,
23978121,Rare 1BR Artist's Apt. Chinatown-L. Italy-NoLita,48263344923,unconfirmed,Di Di,Manhattan,Nolita,40.71996,-73.99548,United States,US,False,flexible,Entire home/apt,2011,$190 ,$38 ,2,5,4/14/2019,1.1,4,1,0,,
23978673,LARGE BEDROOM IN BRONX DOWN THE BLOCK FROM 2 TRAIN,4664249814,verified,Camille,Bronx,Wakefield,40.88805,-73.86451,United States,US,False,strict,Private room,2012,$476 ,$95 ,1,0,,,3,1,0,,
23979225,East Williamsburg Quiet Getaway or Workspace,58015375532,unconfirmed,Reesey,Brooklyn,Williamsburg,40.71536,-73.93661999999999,United States,US,True,strict,Private room,2015,$56 ,$11 ,1,10,5/7/2019,2.11,4,2,0,,
23979778,✤ NEWLY RENOVATED ✤ TOP LOCATION ✤,52222948971,verified,Yara,Manhattan,Hell's Kitchen,40.76332,-73.9915,United States,US,False,strict,Entire home/apt,2008,"$1,008 ",$202 ,2,11,6/21/2019,3.3,3,1,252,,
23980330,Upper West Side 1BR w/ Doorman + Gym by Blueground,28904171549,verified,Blueground,Manhattan,Upper West Side,40.7813,-73.97927,United States,US,True,strict,Entire home/apt,2015,$391 ,$78 ,30,0,,,4,232,189,,
23980882,"Spacious Midtown East 1BR w/ Balcony, Gym, Doorman by Blueground",37589108772,unconfirmed,Blueground,Manhattan,Murray Hill,40.7493,-73.97376,United States,US,True,moderate,Entire home/apt,2006,$379 ,$76 ,30,0,,,5,232,83,,
23981434,"Crisp Heart of Chelsea Studio, w/ Roofdeck + Gym, by Blueground",27617881544,verified,Blueground,Manhattan,Chelsea,40.74112,-73.99483000000001,United States,US,True,flexible,Entire home/apt,2004,$281 ,$56 ,30,0,,,5,232,283,,
23981987,NYC - PRIVATE room in Bay Ridge.,73917689158,verified,Jim,Brooklyn,Bay Ridge,40.62955,-74.02429000000001,United States,US,False,moderate,Private room,2012,"$1,110 ",$222 ,6,3,4/21/2019,0.82,2,1,62,,
23982539,Sunnyside room mins to Times Square & JFK.,72860971831,verified,Kazuya,Queens,Sunnyside,40.74658,-73.92007,United States,US,True,moderate,Private room,2003,$892 ,$178 ,30,1,4/22/2019,0.38,3,103,0,,
23983091,Brooklyn artistic studio apartment!,74058068277,unconfirmed,James And Laureta,Brooklyn,Bedford-Stuyvesant,40.68396,-73.95267,United States,US,True,moderate,Entire home/apt,2012,$587 ,$117 ,1,14,6/10/2019,3.09,5,5,85,"No shoes in the apartment, please",
23983644,PRIVATE bath &  entrance in hip Greenpoint,81673699876,verified,Jacqueline,Brooklyn,Greenpoint,40.7293,-73.95075,United States,US,True,flexible,Private room,2015,$866 ,$173 ,21,1,7/1/2019,1.0,2,1,343,,
23984196,Amazing Apt in West Village NYC,69034866889,verified,Lorena,Manhattan,West Village,40.73938,-74.00176,United States,US,False,strict,Entire home/apt,2018,$703 ,$141 ,6,4,7/5/2019,0.83,5,1,0,,
23984748,Red Door Townhouse — Heart of The Upper East Side,88930863138,verified,Jennifer,Manhattan,Upper East Side,40.77202,-73.95821,United States,US,True,flexible,Private room,2010,$115 ,$23 ,1,11,6/20/2019,2.92,5,1,81,,
23985301,Large Bedroom with Private Entrance,63076376336,unconfirmed,Maddy,Brooklyn,Greenpoint,40.73446,-73.9523,United States,US,False,strict,Private room,2005,$488 ,$98 ,14,0,,,4,1,157,No pets and No smoking in the room. thanks.,
23985853,Brooklyn palace,97101897120,unconfirmed,Raphael,Brooklyn,Williamsburg,40.7085,-73.94966,United States,US,False,strict,Private room,2022,$821 ,$164 ,1,1,3/11/2019,0.25,4,1,0,,
23986405,Spacious 1 Bedroom in the Heart of Williamsburg,78413103780,verified,Austin,Brooklyn,Williamsburg,40.71415,-73.93857,United States,US,False,flexible,Entire home/apt,2009,$623 ,$125 ,1,5,5/27/2019,1.2,2,1,0,"Must love dogs :) NO SMOKERS/SMOKING/DRUG USE Check-in time during the week has to be after 2 pm. I am flexible on the weekends and with check out times.  Other than that, be respectful and have fun in Boston.",
23986957,Brand New!XL 1 BR!Prime Midtown~Elv bldg~BestValue,48333651456,unconfirmed,Izi,Manhattan,Hell's Kitchen,40.76099,-73.99554,United States,US,True,moderate,Entire home/apt,2019,$696 ,$139 ,30,0,,,5,13,310,"Absolutely NEVER any smoking of any kind. Please be reasonably quiet (""No partying""!) Sheets, towels and other cleaning are done by me.  I do these things at different times.  Always before dinner time (or before you arrive it's a really late arrival). Probably before 3pm, during the school year at about 1pm usually.  If you have really specific needs, you should speak up ahead of time.",
23987510,sweet room to relax,31878490385,verified,Yesenia,Brooklyn,Bushwick,40.69169,-73.90429,United States,US,False,flexible,Private room,2012,$401 ,$80 ,1,3,4/20/2019,0.69,4,4,0,"Overall please treat the apartment as you would you own home, Keeping it as clean and tidy as you found it.  Please clean up before checking out. Any major clean-up service required may be deducted from the deposit.  No Loud / Large Parties .  Please include the number of people who will be staying before you reserve this apartment. No extra guests other than the maximum 4 allowed who booked  All smoking should be done outside, as this is a smoke free enviroment. ",
23988062,comfortable room for guests,43925112882,unconfirmed,Yesenia,Brooklyn,Bushwick,40.68991,-73.90495,United States,US,True,moderate,Private room,2014,$934 ,$187 ,1,8,4/10/2019,1.67,5,4,0,,
23988614,NEW renovated bathroom & Private backyard,77552726135,verified,Hiroki,Queens,Elmhurst,40.74503,-73.87099,United States,US,True,moderate,Private room,2008,"$1,070 ",$214 ,30,0,,,3,37,1,#NAME?,
23989167,Large Private Bedroom Near Tons Of Transit!,78554928359,verified,Yuval,Queens,Ridgewood,40.70896,-73.8956,United States,US,False,moderate,Private room,2003,"$1,171 ",$234 ,30,2,5/4/2019,0.6,5,23,204,"Please Note: This unit was just renovated last year and it comfortably accommodates 2 guests, but up to 3 guests are permitted if you so desire (two guests in the bedroom and 1 guest on the available queen size air mattress). Please request an air mattress (if needed) when making a reservation. No smoking, no pets, no parties, and must be 25 years old to book.   For check-out, please ensure: -  All plates and cups are left in the sink or dishwasher -  All trash is left in the kitchen trash can or bagged and left next to the trash can (additional bags are under the sink) -  All windows are closed and locked -  If used, the air mattresses are deflated and put away (please leave used linens for the air mattresses on the floor) -  If furniture was moved during your stay, please return to its original location Please be mindful to our neighbors in the building; quiet hours after 10pm is not a must, but a nice gesture. Please be considerate of our next guests who will be staying after you, i",
23989719,"Chic Private Bedroom in Ridgewood, NY by 3 Trains!",72219466409,unconfirmed,Yuval,Queens,Ridgewood,40.70892,-73.89502,United States,US,True,strict,Private room,2016,$157 ,$31 ,30,0,,,4,23,220,- Concierge available between 8am and Midnight,
23990271,"Bold & Beautiful Private Bedroom, Ridgewood Queens",50694658520,verified,Yuval,Queens,Ridgewood,40.70813,-73.89664,United States,US,False,moderate,Private room,2011,$170 ,$34 ,30,2,6/7/2019,1.62,5,23,208,- Concierge available between 8am and Midnight,
23990824,"Trendy Private Room in Prime NY, 3 Train Nearby!",12368301377,unconfirmed,Yuval,Queens,Ridgewood,40.70727,-73.89627,United States,US,True,flexible,Private room,2013,$132 ,$26 ,30,0,,,3,23,332,Please note there is no elevator in this building and there are indeed stairs. And the stairwells are rather narrow. Do not book if either of these are a problem for you.,
23991376,"Stylish Private Bedroom in Ridgewood, NY",69729300793,unconfirmed,Yuval,Queens,Ridgewood,40.70906,-73.89511,United States,US,False,strict,Private room,2015,$324 ,$65 ,30,1,3/28/2019,0.29,3,23,318,,
23991928,"Duplex apartment near JFK,  LGA, train & the city",95110106810,unconfirmed,Christina,Queens,Astoria,40.75605,-73.91341,United States,US,True,moderate,Entire home/apt,2007,$722 ,$144 ,1,4,6/3/2019,1.12,5,5,89,,
23992480,"Private Room in Bushwick, Brooklyn",36426022491,verified,Nathalie,Brooklyn,Bushwick,40.701879999999996,-73.9258,United States,US,False,moderate,Private room,2005,$830 ,$166 ,1,2,6/16/2019,0.61,2,1,0,"Please remember that this is a residential building. The building rules, apartment occupancy restrictions and the year-round tenants must be respected.  Parties, pets and smoking are not allowed under any circumstances and incur significant fees. ",
23993033,Grand Central 1 bedroom apartment,4749619303,unconfirmed,Stefy,Manhattan,Midtown,40.753370000000004,-73.97334000000001,United States,US,False,flexible,Entire home/apt,2012,$479 ,$96 ,2,7,6/23/2019,1.78,4,1,12,"No guests allowed. Please keep noise levels to a low/moderate rate. Please maintain the space with care & cleanliness. Loss of Key - A charge of $50 will be levied. What you do in your personal time is entirely up to you, but when staying at our place we have a strict no drug use policy. This is just the law… not so much one of our rules.",
23993585,TIMES SQUARE!!! COZY PRIVATE ROOM  (for up to 3)!,36399161255,verified,Marccelo Gabriel,Manhattan,Theater District,40.76282,-73.98236,United States,US,False,moderate,Private room,2006,$559 ,$112 ,1,27,6/23/2019,5.79,2,1,94,"No pets/parties. Treat it like its your own place- actually no, if you treat your apartment poorly then don't treat it like it's yours! Lol. Just be as considerate as possible :)",
23994137,Bronx,82086736544,verified,Hiroki,Bronx,Kingsbridge,40.88474,-73.90321,United States,US,True,moderate,Private room,2009,$948 ,$190 ,30,0,,,2,37,0,"No Smoking anywhere on the property!  DO NOT ask anyone but me how to get into the building or where the lock box is DO NOT mention airbnb to anyone around the building, or leave airbnb printouts laying around. Sheets, towels and other cleaning are done by me.  I do these things at different times.  Always before dinner time (or before you arrive it's a really late arrival). Probably before 3pm, during the school year at about 1pm usually.  If you have really specific needs, you should speak up ahead of time. Never assume cleaning will happen before 3pm.  12noon-3pm check ins are a courtesy. Occasionally cleaning happens 4pm-ish, always by 6pm and not after your arrival if arriving later.  Do not write reviews about beds that were unmade if you were allowed to check in early. In general no dogs please.  Other pets are generally allowed, if for instance you happen to travel with your kitty...or ferret (check first) Please confine trash to wastebaskets and take trash out (behind building",
23994690,A Place for Pet Lovers,29941837421,unconfirmed,Jackson,Brooklyn,Flatbush,40.64612,-73.9608,United States,US,False,flexible,Private room,2014,$337 ,$67 ,1,7,5/31/2019,1.86,3,1,61,"Our home is your home! We hope you enjoy your stay in Back Bay and respect it as your own :) We expect the apartment to be clean, and everything to be in the same condition as when you arrived upon departure.",
23995242,Hidden 2 Bedrm Gem in SOBRO! Minutes to NYC!,54164869095,unconfirmed,Julio,Bronx,Longwood,40.82671,-73.90643,United States,US,True,flexible,Entire home/apt,2007,$506 ,$101 ,2,7,6/30/2019,2.26,5,1,118,This is our home and we request that you treat the apartment and our belongings with respect during your stay. It is a quaint and quiet brownstone and we would appreciate your keeping the volume low for the neighbors.,
23995794,The Luxury Spot!  Brooklyn Prime Location!,50660830791,verified,Yaevette,Brooklyn,Crown Heights,40.67066,-73.94801,United States,US,True,flexible,Entire home/apt,2017,$309 ,$62 ,3,2,6/30/2019,2.0,3,1,70,No smoking inside (fine on the deck provided you are respectful by throwing away cigarette butts) No parties No use of grill on deck,
23996347,Water Front Duplex with Amazing Views and Parking.,23426648314,unconfirmed,Alex,Brooklyn,Bay Ridge,40.6348,-74.03788,United States,US,False,flexible,Entire home/apt,2014,"$1,054 ",$211 ,28,0,,,2,1,339,#NAME?,
23996899,Rare Gem - Modern Lux Studio,70836994579,unconfirmed,Niky,Manhattan,Financial District,40.703990000000005,-74.00662,United States,US,True,moderate,Entire home/apt,2005,$666 ,$133 ,2,13,7/1/2019,3.12,5,1,227,"This is a quiet, residential building. Please respect myself and other tenants by keeping your airbnb activities in the building to yourself. ",
23997451,Huge Private Room near Central Park with KEY,68749918170,verified,Kiara,Manhattan,East Harlem,40.808009999999996,-73.94011,United States,US,False,flexible,Private room,2015,$333 ,$67 ,1,14,6/27/2019,6.27,5,2,0,"Please remember that this is a residential building. The building rules, apartment occupancy restrictions and the year-round tenants must be respected.  Parties and smoking are not allowed under any circumstances and incur significant fees. Pets may be considered with pre-approval and an additional pet fee.",
23998003,Romantic Top Floor Brownstone in Crown Heights,57449390930,unconfirmed,Kendrick,Brooklyn,Crown Heights,40.669779999999996,-73.95009,United States,US,False,moderate,Entire home/apt,2009,"$1,077 ",$215 ,1,10,6/18/2019,2.4,4,1,199,"Please remember that this is a residential building. The building rules, apartment occupancy restrictions and the year-round tenants must be respected.  Parties, pets and smoking are not allowed under any circumstances and incur significant fees.",
23998556,CITY VIEWS LARGE APARTMENT,51575256260,verified,Maria,Manhattan,Flatiron District,40.741890000000005,-73.99019,United States,US,True,strict,Entire home/apt,2019,$904 ,$181 ,3,14,7/2/2019,3.65,3,1,76,Please do not smoke in the home. Please leave the trash in the trash bag at the end of your stay.,
23999108,Extra Large Room Close to Midtown,12064977996,unconfirmed,Marlon,Manhattan,East Harlem,40.7996,-73.94216,United States,US,False,strict,Private room,2015,$64 ,$13 ,5,2,6/22/2019,2.0,2,6,6,I expect my guests to treat the space as  if it was their own house. Please keep it clean and organized when you leave the way it was.,
23999660,LUXURY 2 BR WITH PRIVATE PATIO IN CHELSEA-WEST21ST,59987189002,unconfirmed,Pranjal,Manhattan,Chelsea,40.74119,-73.99535999999999,United States,US,True,strict,Entire home/apt,2020,$133 ,$27 ,30,0,,,4,65,327,,
24000213,Warm Cozy Home W/Backyard,86913514707,verified,Derrik,Brooklyn,East Flatbush,40.651340000000005,-73.94309,United States,US,True,flexible,Private room,2003,$408 ,$82 ,1,0,,,4,1,89,,
24000765,Get away for the weekend in a cozy private room,45079673387,verified,Jurany,Manhattan,Morningside Heights,40.80511,-73.95824,United States,US,True,strict,Private room,2008,$707 ,$141 ,3,0,,,2,1,364,For your privacy host will not greet you unless you want to meet host. The apartment is separated in two by a long hallway and black room divider. Guest are NOT  allowed to go past the black room divider. 1) Upon arrival ring door bell and someone will buzz to unlock and let you into the apartment building.  2) Walk into the apartment.  3) Directly ahead will be your room. The light switch is in the room on the right of the room door . Also above light switch is the heat thermometer for the room and a air conditioner in the window. 4) Keep room door closed. 5) Pick up the keys that are in the Lotus leaf bowl on top of the desk next to the lamp. 6) keys to the lobby door (large key) apartment door (medium key) and room (small key) 7) The bathroom is directly on the left of the room. 8) Keep bathroom door closed when your occupied in there. 9) The microwave and refrigerator are in the closet. 10) Toiletries are in the closet and are for your use. 11) Cold water bottles in the refrigerato,
24001317,Central Location in NYC - Walk to Central Park,78539765072,verified,Florentino,Manhattan,East Harlem,40.80108,-73.94601999999999,United States,US,True,strict,Private room,2015,$951 ,$190 ,1,9,5/25/2019,2.23,4,4,365,,
24001870,Charming Studio in Brooklyn Heights,66760350909,verified,Caroline,Brooklyn,Brooklyn Heights,40.69757,-73.99335,United States,US,False,flexible,Entire home/apt,2012,$552 ,$110 ,1,1,3/13/2019,0.25,2,1,0,"Please remember that this is a residential building. The building rules, apartment occupancy restrictions and the year-round tenants must be respected.  Parties, pets and smoking are not allowed under any circumstances and incur significant fees.",
24002422,Brooklyn spacious Bedroom (D) close to the Subways,30617490992,unconfirmed,Nubia,Brooklyn,Bushwick,40.68587,-73.9082,United States,US,False,flexible,Private room,2019,$96 ,$19 ,2,23,7/2/2019,5.11,3,4,114,"Please remember that this is a residential building. The building rules, apartment occupancy restrictions and the year-round tenants must be respected.  Parties and smoking are not allowed under any circumstances and incur significant fees. Pets may be considered with pre-approval and an additional pet fee.",
24002974,NYC like Home !,7745821958,verified,Elizabeth,Manhattan,Upper East Side,40.77189,-73.94694,United States,US,True,flexible,Entire home/apt,2010,$737 ,$147 ,7,2,5/2/2019,0.75,3,1,76,,
24003526,Celebrity Central Park townhouse designer's touch.,47555056124,unconfirmed,Jenny,Manhattan,Upper East Side,40.76262,-73.96443000000001,United States,US,False,strict,Entire home/apt,2021,$673 ,$135 ,1,10,6/30/2019,2.36,4,1,363,No smoking in house.  No parties.  Please be courteous and respectful to our neighbors.  Please leave the apartment in the same clean condition that you found it. Have a great time in Boston and come home to Fenway!,
24004079,Brooklyn Small but cozy bedroom C close to Subways,71665150705,unconfirmed,Nubia,Brooklyn,Bushwick,40.6872,-73.90895,United States,US,True,flexible,Private room,2005,$76 ,$15 ,2,18,6/29/2019,4.0,5,4,188,Absolutely no smoking and no pets,
24004631,Modern room B into heart of Brooklyn close Subways,85372775666,unconfirmed,Nubia,Brooklyn,Bushwick,40.68772,-73.90808,United States,US,True,moderate,Private room,2003,$325 ,$65 ,2,15,6/16/2019,3.33,2,4,111,No shoes in the bedroom and in the bathroom please!,
24005183,"Quiet private room fabulous apt, perfect location",89054400976,verified,Irina,Manhattan,Upper West Side,40.77422,-73.97778000000001,United States,US,False,flexible,Private room,2014,"$1,016 ",$203 ,2,13,6/22/2019,3.61,5,1,6,,
24005736,Artist LOFT in East Williamsburg!,2300133354,unconfirmed,Aushra,Brooklyn,Bushwick,40.70218,-73.93581999999999,United States,US,True,strict,Entire home/apt,2010,$499 ,$100 ,5,1,3/4/2019,0.24,4,1,11,,
24006288,"Elegant & Luxurious, Clean & Cheerful entire house",95866267051,verified,Peter,Staten Island,Stapleton,40.6279,-74.08202,United States,US,True,moderate,Entire home/apt,2009,$615 ,$123 ,2,11,7/3/2019,3.51,5,1,182,"- This is a quiet, residential building. Guest need to be conscious of this. - Hostess must know your arrival time at least 2 days in advance",
24006840,Home away from home lodging #2 with 2 Bed- 2 guest,63811060331,verified,Vena,Brooklyn,East Flatbush,40.64929,-73.92685,United States,US,False,flexible,Private room,2013,$990 ,$198 ,1,7,7/1/2019,1.47,2,3,365,#NAME?,
24007393,Home away from home lodging 3 (2 Beds - 2 guests),39877928992,unconfirmed,Vena,Brooklyn,East Flatbush,40.65015,-73.92803,United States,US,False,strict,Private room,2007,$263 ,$53 ,1,7,6/23/2019,1.84,3,3,351,- We are young professionals who like to keep our home neat and quiet. We'll likely be working from home at times during your stay and we ask you to respect us the same way we'll respect you. No shoes from outside worn inside the house (indoor shoes are okay). No smoking. No pets.,
24007945,Shared Room - All Female - Great Roommates!,36927351534,unconfirmed,Sarah & John @ Bedly,Brooklyn,Crown Heights,40.676520000000004,-73.94015999999999,United States,US,True,flexible,Shared room,2022,$884 ,$177 ,15,2,5/31/2019,0.59,5,2,23,,
24008497,Shared Room: All Male - Coed Apt-Great Roommates,63923098951,unconfirmed,Sarah & John @ Bedly,Brooklyn,Crown Heights,40.67692,-73.94038,United States,US,True,flexible,Shared room,2007,$243 ,$49 ,20,2,5/13/2019,0.75,5,2,49,,
24009049,"Warm , Beautiful and cozy 1Br in LES",27832259003,unconfirmed,Samia,Manhattan,Two Bridges,40.71257,-73.995,United States,US,True,moderate,Entire home/apt,2014,$661 ,$132 ,2,15,7/1/2019,3.44,3,1,90,"Please remember that this is a residential building. The building rules, apartment occupancy restrictions and the year-round tenants must be respected.  Parties and smoking are not allowed under any circumstances and incur significant fees. Pets may be considered with pre-approval and an additional pet fee.",
24009602,Elevated Living in the East Village,26618743166,verified,Britt,Manhattan,East Village,40.72498,-73.97604,United States,US,False,moderate,Private room,2010,$267 ,$53 ,1,6,6/17/2019,1.49,2,1,160,No smoking No pets We don't charge a cleaning fee - guests are expected to contribute to light cleaning and maintenance for comfort of guests after them!,
24010154,Rent my unique 2BR Condo in Prime Williamsburg,79405699404,unconfirmed,Dani,Brooklyn,Williamsburg,40.71581,-73.95546,United States,US,True,flexible,Entire home/apt,2005,$200 ,$40 ,90,0,,,4,1,328,,
24010706,Sun drenched 1 bedroom furnished,54087623556,unconfirmed,Amir,Manhattan,East Harlem,40.80526,-73.93818,United States,US,True,moderate,Entire home/apt,2008,$462 ,$92 ,14,2,5/30/2019,0.6,3,3,3,,
24011259,WILLIAMSBURG PRIME LOCATION-AMAZING LIGHT!,60722661359,verified,Monica,Brooklyn,Williamsburg,40.71682,-73.95446,United States,US,True,moderate,Private room,2017,$911 ,$182 ,182,0,,,2,1,157,,
24011811,"Modern and  spacious apt in Kips Bay, NYC!",14795150337,verified,Kara,Manhattan,Kips Bay,40.74378,-73.97355999999999,United States,US,True,flexible,Entire home/apt,2015,$705 ,$141 ,29,0,,,4,121,364,,
24012363,Comfortable stay-beautiful 1 bedroom apt in NYC!,70220675414,unconfirmed,Kara,Manhattan,Kips Bay,40.74361,-73.97523000000001,United States,US,False,moderate,Entire home/apt,2004,$571 ,$114 ,29,0,,,3,121,364,"- This is a quiet, residential building. Guest need to be conscious of this. - Host must know arrival time.  No arrivals after 10 pm",
24012916,"Gorgeous Studio apt in the heart of Kips Bay, NYC!",76692106845,unconfirmed,Kara,Manhattan,Kips Bay,40.742709999999995,-73.97533,United States,US,False,moderate,Entire home/apt,2021,$674 ,$135 ,29,0,,,5,121,184,#NAME?,
24013468,Premium FiDi 1BR w/ Doorman + Wraparound Roofdeck by Blueground,6229534515,unconfirmed,Blueground,Manhattan,Financial District,40.703990000000005,-74.00908000000001,United States,US,False,strict,Entire home/apt,2018,$127 ,$25 ,90,0,,,2,232,281,,
24014020,Cozy bedroom in the best location in New York,68165142519,verified,Coronado,Brooklyn,Williamsburg,40.710840000000005,-73.95875,United States,US,True,flexible,Private room,2008,$77 ,$15 ,4,3,6/9/2019,0.76,3,1,0,#NAME?,
24014572,Entire apartment in townhouse,90727855238,unconfirmed,Anwar,Manhattan,Harlem,40.814609999999995,-73.94635,United States,US,True,strict,Entire home/apt,2006,$964 ,$193 ,4,5,5/27/2019,1.23,2,2,214,,
24015125,Gorgeous 7BR/3.5BA Bohemian Flat - PRIME LOCATION,63211398528,verified,Bethany,Brooklyn,Williamsburg,40.71244,-73.9581,United States,US,False,moderate,Entire home/apt,2013,"$1,188 ",$238 ,3,0,,,5,3,7,,
24015677,fabulous & large bedroom - East Williamsburg,51635416704,verified,Lily,Brooklyn,Williamsburg,40.71235,-73.93963000000001,United States,US,False,moderate,Private room,2018,$453 ,$91 ,2,9,6/14/2019,1.99,5,1,345,,
24016229,"Private Studio for Events, Recording & Exhibitions",12474547367,verified,Mariah,Brooklyn,Bushwick,40.68385,-73.90653,United States,US,False,flexible,Private room,2007,$977 ,$195 ,1,3,5/26/2019,0.93,2,1,364,No smoking inside No parties  No additional guests without approval  Please be respectful and clean,
24016782,Chic Village Apt!,44326263961,unconfirmed,Bradley,Manhattan,Greenwich Village,40.72847,-74.00094,United States,US,True,flexible,Entire home/apt,2006,$64 ,$13 ,3,0,,,5,1,0,,
24017334,Apartment,17222070455,verified,Ruth,Bronx,Longwood,40.81694,-73.89627,United States,US,False,moderate,Private room,2005,$748 ,$150 ,1,8,5/25/2019,1.97,2,1,308,,
24017886,"POSH COBBLE HILL APARTMENT, 5 MINUTES TO MANHATTAN",29873464611,verified,Hugo,Brooklyn,Carroll Gardens,40.68391,-73.99226,United States,US,False,moderate,Entire home/apt,2005,$507 ,$101 ,4,12,7/4/2019,3.33,4,3,207,#NAME?,
