id,NAME,host id,host_identity_verified,host name,neighbourhood group,neighbourhood,lat,long,country,country code,instant_bookable,cancellation_policy,room type,Construction year,price,service fee,minimum nights,number of reviews,last review,reviews per month,review rate number,calculated host listings count,availability 365,house_rules,license
40435556,Luxury Tribeca Apartment w/Roofdeck,12224019726,unconfirmed,Kerry,Manhattan,Civic Center,40.71645,-74.00402,United States,US,False,moderate,Entire home/apt,2007,$75 ,$15 ,2,2,4/24/2016,0.04,1,1,0,,
40436108,Lg Bedroom Trendy Williamsburg BK,80428312297,verified,Christina,Brooklyn,Williamsburg,40.71711,-73.94259,United States,US,False,strict,Private room,2017,$75 ,$15 ,1,0,,,2,1,0,,
40436661,Spacious 3 bedroom on Prospect Park,41234225688,verified,Arnold,Brooklyn,South Slope,40.663779999999996,-73.97813000000001,United States,US,False,flexible,Entire home/apt,2003,"$1,137 ",$227 ,3,6,9/5/2016,0.13,5,1,0,,
40437213,Cozy/Private Bdrm By Central Park!,17317682179,unconfirmed,Clara,Manhattan,Upper West Side,40.80304,-73.96582,United States,US,True,strict,Private room,2019,$154 ,$31 ,4,1,8/28/2015,0.02,3,1,0,,
40437765,Room in East Williamsburg 1 Block from L Train,7652797760,verified,Fiona,Brooklyn,Williamsburg,40.70794,-73.93975999999999,United States,US,True,flexible,Private room,2018,$355 ,$71 ,5,1,7/21/2016,0.03,4,1,0,,
40438318,Studio in central historical Harlem,26544824930,unconfirmed,Martina,Manhattan,Harlem,40.80819,-73.94315,United States,US,False,flexible,Entire home/apt,2012,$833 ,$167 ,1,1,7/13/2016,0.03,1,1,0,,
40438870,Sunny Park Slope Bedroom,24355748208,unconfirmed,Ian,Brooklyn,Park Slope,40.68006,-73.98053,United States,US,False,strict,Private room,2010,$969 ,$194 ,2,7,10/21/2016,0.16,4,1,0,,
40439422,Modern 1BR in Heart of Williamsburg,44825577568,verified,Don,Brooklyn,Williamsburg,40.71969,-73.9562,United States,US,True,strict,Entire home/apt,2003,$545 ,$109 ,1,1,8/2/2015,0.02,5,1,0,,
40439974,Beautiful Room in Brownstone - Prime Location,44888801415,verified,Karen,Brooklyn,Park Slope,40.67618,-73.98122,United States,US,False,flexible,Private room,2009,$817 ,$163 ,1,211,7/7/2019,5.13,3,2,178,,
40440527,Luxury apartment near Central Park,34985229029,verified,Alon,Manhattan,Midtown,40.76579,-73.98057,United States,US,True,moderate,Entire home/apt,2013,$104 ,$21 ,5,0,,,4,1,0,,
40441079,Big Cozy Room,97270813850,unconfirmed,Viviana,Brooklyn,Bushwick,40.69508,-73.91053000000001,United States,US,True,moderate,Private room,2010,$75 ,$15 ,3,71,6/29/2019,1.47,1,1,24,,
40441631,Comfortable private room in Harlem,57592872861,unconfirmed,Ricky,Manhattan,Harlem,40.82606,-73.94659,United States,US,True,strict,Private room,2017,$473 ,$95 ,1,4,7/1/2019,0.09,4,2,55,,
40442184,$500/wk 1br - 150ft2 - Dec 23-Jan 4,72577655632,verified,Matt,Manhattan,East Village,40.724920000000004,-73.97914,United States,US,True,flexible,Private room,2015,$239 ,$48 ,6,1,7/22/2015,0.02,3,1,0,,
40442736,East Village Studio Like Room,94977782201,verified,Alice,Manhattan,East Village,40.729620000000004,-73.9836,United States,US,False,strict,Shared room,2010,$783 ,$157 ,2,2,8/29/2015,0.04,3,1,0,,
40443288,Brooklyn Brownstone duplex + garden,42532716529,unconfirmed,JaimeLee & Travis,Brooklyn,Bedford-Stuyvesant,40.68396,-73.92872,United States,US,False,flexible,Entire home/apt,2010,$126 ,$25 ,7,6,1/4/2019,0.19,5,1,1,,
40443841,Artistic Brooklyn Apartment,17530937955,verified,Mary,Brooklyn,Bushwick,40.70055,-73.92193,United States,US,True,flexible,Private room,2020,$121 ,$24 ,1,0,,,2,1,0,,
40444393,Brooklyn Brownstone with Backyard,81914685391,verified,Raven,Brooklyn,Bushwick,40.68833,-73.91676,United States,US,False,flexible,Entire home/apt,2007,$437 ,$87 ,5,0,,,1,1,0,,
40444945,Luxury Hip Brand New LES ROOM w/ Terrace!,66311652534,verified,Nick And Julia,Manhattan,Lower East Side,40.72065,-73.98273,United States,US,False,strict,Private room,2004,$118 ,$24 ,2,148,7/3/2019,3.16,2,1,134,,
40445497,Luxury Doorman Apt in Midtown East!,41948035524,verified,Jennifer,Manhattan,Murray Hill,40.74823,-73.97447,United States,US,False,strict,Private room,2013,$994 ,$199 ,1,2,9/21/2015,0.04,3,1,0,,
40446050,Bedroom in 4bed/1bath in Brooklyn!,78600382992,verified,Shane,Brooklyn,Bedford-Stuyvesant,40.68725,-73.95472,United States,US,False,strict,Private room,2016,$337 ,$67 ,1,0,,,2,1,0,,
40446602,Ditmas Park Spacious Studio Apt,43346632679,verified,Quinn,Brooklyn,Flatbush,40.64691,-73.95855,United States,US,False,flexible,Entire home/apt,2019,$916 ,$183 ,1,2,12/30/2015,0.04,2,1,0,,
40447154,Lovely private bedroom,20308985268,unconfirmed,Deidrea,Brooklyn,Bedford-Stuyvesant,40.688559999999995,-73.9547,United States,US,True,strict,Private room,2018,$232 ,$46 ,3,2,8/19/2015,0.04,4,1,0,,
40447707,Beautiful Private Area in Flatbush,91257141103,unconfirmed,Jasmine,Brooklyn,East Flatbush,40.649390000000004,-73.94791,United States,US,False,moderate,Private room,2020,$640 ,$128 ,1,0,,,1,1,0,,
40448259,Manhattan Getaway - LES,57231688666,unconfirmed,Loreta,Manhattan,Lower East Side,40.717290000000006,-73.98442,United States,US,False,moderate,Entire home/apt,2007,$148 ,$30 ,5,21,6/17/2019,0.47,1,1,239,,
40448811,Bohéme 1BR steps from Prospect Park,54157893015,unconfirmed,Ian,Brooklyn,Flatbush,40.653490000000005,-73.95527,United States,US,False,flexible,Entire home/apt,2022,$263 ,$53 ,7,2,8/17/2015,0.04,3,1,0,,
40449364,New York Apt in the Heart of NY,27611044015,unconfirmed,Thomas,Manhattan,Chelsea,40.74627,-73.99141999999999,United States,US,False,strict,Private room,2009,$582 ,$116 ,1,0,,,5,1,0,,
40449916,"Sunny, big room available in 3 BDRM",10282371912,unconfirmed,Chantal,Manhattan,East Harlem,40.80023,-73.93822,United States,US,False,moderate,Private room,2010,$373 ,$75 ,1,1,7/22/2015,0.02,3,1,0,,
40450468,Welcome to our Luxury home,94860170862,unconfirmed,Yoav,Manhattan,Financial District,40.7078,-74.00914,United States,US,True,moderate,Entire home/apt,2014,$782 ,$156 ,1,6,8/18/2017,0.13,4,1,0,,
40451020,Sunny Room Overlooking Harlem,70308300642,unconfirmed,Jakob,Manhattan,Harlem,40.826809999999995,-73.9426,United States,US,False,flexible,Private room,2018,$887 ,$177 ,5,2,2/2/2016,0.05,1,1,0,,
40451573,Huge private room with bathroom,13435767541,verified,Jennifer,Manhattan,Washington Heights,40.83428,-73.94445999999999,United States,US,False,flexible,Private room,2020,$329 ,$66 ,1,1,7/23/2015,0.02,4,1,0,,
40452125,Brooklyn oasis with breathtaking skyline view!,64082893365,verified,Hanna,Brooklyn,Bedford-Stuyvesant,40.68889,-73.95406,United States,US,True,flexible,Private room,2013,$799 ,$160 ,2,8,8/27/2018,0.17,4,1,281,,
40452677,"Bright, Airy, Quiet 1 Bd",31133516523,unconfirmed,Babita,Manhattan,Kips Bay,40.73943,-73.98135,United States,US,False,strict,Entire home/apt,2022,$71 ,$14 ,3,20,3/8/2019,0.42,4,1,0,,
40453230,"Large 2 bedroom APT,  20mins to Times Square.",18240040524,unconfirmed,Ari,Manhattan,East Harlem,40.788579999999996,-73.94742,United States,US,False,flexible,Entire home/apt,2017,$588 ,$118 ,1,19,5/2/2019,0.43,1,4,322,,
40453782,spacious private rooms in 5bd 4bth,47457136637,verified,Vlad,Brooklyn,Sheepshead Bay,40.59244,-73.95633000000001,United States,US,True,strict,Private room,2021,$168 ,$34 ,7,0,,,2,3,90,,
40454334,Brownstone@Central Park❤️Manhattan historic area,24250003792,verified,Karen,Manhattan,Upper West Side,40.779759999999996,-73.97837,United States,US,True,strict,Private room,2022,$944 ,$189 ,7,11,6/9/2019,1.16,3,1,362,,
40454887,Clean and Sunny Brooklyn apt!!,41215008417,verified,Melissa,Brooklyn,Bushwick,40.70178,-73.92829,United States,US,True,moderate,Entire home/apt,2014,$412 ,$82 ,4,1,9/4/2015,0.02,5,1,0,,
40455439,Great E.Village Apt. Best Location!,86807502691,verified,Alexi,Manhattan,East Village,40.72423,-73.99013000000001,United States,US,True,moderate,Private room,2016,$626 ,$125 ,2,4,8/12/2015,0.08,5,1,0,,
40455991,Private Room in New Bed-Stuy Lofts,98403010373,verified,Dee,Brooklyn,Bedford-Stuyvesant,40.6898,-73.95205,United States,US,False,moderate,Private room,2020,$774 ,$155 ,1,0,,,5,1,0,,
40456543,South Slope Modern + Spacious with Outdoor Deck,22236006790,unconfirmed,Philip,Brooklyn,Sunset Park,40.66196,-73.99176999999999,United States,US,True,flexible,Private room,2013,$583 ,$117 ,1,113,6/18/2019,2.33,2,2,233,,
40457096,Authentic Brownstone New York Living,35408577410,verified,Paul,Brooklyn,Bedford-Stuyvesant,40.68247,-73.94119,United States,US,False,strict,Entire home/apt,2015,"$1,156 ",$231 ,2,34,4/26/2019,0.76,5,2,337,,
40457648,cozy + bright room in BK!,17449931918,unconfirmed,Klara,Brooklyn,East New York,40.65918,-73.89226,United States,US,True,flexible,Private room,2015,$528 ,$106 ,2,9,11/4/2017,0.19,2,1,342,,
40458200,Bushwick Oasis,45376251249,unconfirmed,Randy,Brooklyn,Bedford-Stuyvesant,40.69143,-73.93436,United States,US,True,flexible,Private room,2011,"$1,112 ",$222 ,1,24,6/10/2016,0.5,3,1,0,,
40458753,Bright room in Williamsburg loft,69829601724,verified,Phil,Brooklyn,Williamsburg,40.70767,-73.94821,United States,US,True,flexible,Private room,2019,$636 ,$127 ,14,0,,,4,1,0,,
40459305,Bright double room in West Village,12980452791,verified,Saga,Manhattan,West Village,40.72911,-74.00338,United States,US,False,flexible,Private room,2004,$451 ,$90 ,5,2,1/2/2016,0.04,4,1,0,,
40459857,Large loft in Bushwick,92852540475,unconfirmed,Paul,Brooklyn,Williamsburg,40.70068,-73.94103,United States,US,True,moderate,Private room,2020,$499 ,$100 ,3,14,8/29/2018,0.35,1,1,0,,
40460410,Stunning 1BR - SoHo Prime Location!,9701317209,verified,Andrew,Manhattan,SoHo,40.7221,-74.00464000000001,United States,US,True,flexible,Private room,2003,$720 ,$144 ,2,2,10/9/2015,0.04,4,1,0,,
40460962,1 room available for in midtown NYC,66111309824,verified,Stanley,Manhattan,Midtown,40.75277,-73.96686,United States,US,True,moderate,Private room,2003,$877 ,$175 ,1,2,7/31/2015,0.04,1,1,0,,
40461514,Spacious Renovated Apt. in Harlem,9407363037,verified,Zack,Manhattan,Harlem,40.81355,-73.94407,United States,US,False,strict,Private room,2013,$120 ,$24 ,1,2,8/14/2015,0.04,2,1,0,,
40462066,Sunny apartment in the heart of LIC,25478628805,verified,Greta,Queens,Long Island City,40.74364,-73.95392,United States,US,False,moderate,Entire home/apt,2007,$824 ,$165 ,5,0,,,5,1,0,,
40462619,"Huge 1 bdr, convenient location!",58901360343,unconfirmed,Maria,Queens,Ditmars Steinway,40.77742,-73.90965,United States,US,True,strict,Private room,2012,$283 ,$57 ,3,3,9/5/2018,0.06,1,2,163,,
40463171,"Large, sunny, quiet, 2 bed apt",20732457046,unconfirmed,Robert,Brooklyn,Prospect Heights,40.67876,-73.9715,United States,US,False,moderate,Entire home/apt,2010,$826 ,$165 ,1,4,11/28/2015,0.08,2,1,0,,
40463723,Big Bright Modern East Village 1 BR,90189244044,unconfirmed,Mike,Manhattan,East Village,40.72164,-73.97927,United States,US,False,moderate,Entire home/apt,2011,$628 ,$126 ,1,9,6/27/2016,0.24,4,1,31,,
40464276,Cozy bedroom in E. Village in July,95525020176,unconfirmed,Alexander,Manhattan,Lower East Side,40.72309,-73.98926,United States,US,False,strict,Private room,2012,$832 ,$166 ,1,0,,,5,1,0,,
40464828,2 bed apartment 2 blocks from 42 st,72402364147,unconfirmed,Andrew,Manhattan,Hell's Kitchen,40.76171,-73.99478,United States,US,True,moderate,Private room,2021,$59 ,$12 ,1,1,7/23/2015,0.02,4,1,0,,
40465380,Boutique apartment  by the Ocean,88074352761,verified,Alex,Brooklyn,Sheepshead Bay,40.58294,-73.95897,United States,US,False,flexible,Entire home/apt,2004,"$1,077 ",$215 ,2,45,6/23/2019,0.93,2,5,256,,
40465933,Bushwick! Unlimited Metro Card!,51394973545,verified,Taylor,Brooklyn,Bushwick,40.69927,-73.92133000000001,United States,US,False,flexible,Private room,2017,"$1,153 ",$231 ,1,0,,,4,1,0,,
40466485,Cosy bedroom in Williamsburg,29649362258,verified,Seb,Brooklyn,Williamsburg,40.71058,-73.9672,United States,US,False,moderate,Private room,2003,$979 ,$196 ,2,74,6/3/2019,1.64,2,1,210,,
40467037,One bedroom available in Astoria,33412926306,unconfirmed,Priscila,Queens,Long Island City,40.75547,-73.92017,United States,US,True,flexible,Private room,2016,$871 ,$174 ,1,0,,,5,1,0,,
40467589,Big room in Clinton Hil near subway,34294189511,verified,Gagandeep,Brooklyn,Bedford-Stuyvesant,40.691720000000004,-73.95862,United States,US,True,moderate,Private room,2003,$174 ,$35 ,1,0,,,2,2,0,,
40468142,Chateau Ludlow,22024253458,unconfirmed,Noëmi,Manhattan,Lower East Side,40.71508,-73.98973000000001,United States,US,True,strict,Private room,2007,"$1,087 ",$217 ,1,18,9/15/2016,0.37,2,1,0,,
40468694,~Sunny quiet apartment in Brooklyn~,26483207024,unconfirmed,Joanne,Brooklyn,Bedford-Stuyvesant,40.68978,-73.94444,United States,US,True,flexible,Entire home/apt,2010,$166 ,$33 ,7,2,9/6/2015,0.04,1,1,0,,
40469246,"Astoria 1 Bed, 2 Blocks to Train",57667556046,unconfirmed,Jenna,Queens,Astoria,40.76448,-73.92714000000001,United States,US,False,flexible,Entire home/apt,2007,"$1,095 ",$219 ,2,0,,,3,1,0,,
40469799,Room in the heart of Williamsburg!,24087965762,unconfirmed,Nathaniel,Brooklyn,Williamsburg,40.7122,-73.9511,United States,US,True,strict,Private room,2020,"$1,152 ",$230 ,1,3,9/13/2015,0.06,1,1,0,,
40470351,2 Bedroom in Heart of Williamsburg,46615060289,unconfirmed,Michael,Brooklyn,Williamsburg,40.71452,-73.95486,United States,US,False,strict,Entire home/apt,2004,$306 ,$61 ,1,1,8/17/2015,0.02,5,1,0,,
40470903,Furnished BR in a 2BR apt Gramercy,57767163752,verified,Daniel,Manhattan,Gramercy,40.73448,-73.98056,United States,US,False,strict,Private room,2009,$139 ,$28 ,30,2,8/31/2015,0.04,2,1,0,,
40471456,Chic apartment on Central Park West,55485286475,unconfirmed,Nicholas,Manhattan,Upper West Side,40.79933,-73.95949,United States,US,True,moderate,Entire home/apt,2003,$526 ,$105 ,1,1,9/2/2015,0.02,3,1,0,,
40472008,Amazing apartment available for a year to rent!,93640998335,verified,Sarah,Manhattan,Upper West Side,40.78015,-73.97875,United States,US,True,flexible,Entire home/apt,2022,$476 ,$95 ,30,2,9/28/2017,0.08,4,1,200,,
40472560,Cozy Room in the LOWER EAST SIDE!,23092031777,unconfirmed,Caitlin,Manhattan,Lower East Side,40.71934,-73.98424,United States,US,True,strict,Private room,2018,$791 ,$158 ,1,2,12/29/2015,0.04,5,1,0,,
40473112,Modern 1 Bdrm Apt in Mid Manhattan,98668641152,verified,Guillermo,Manhattan,Murray Hill,40.74537,-73.97462,United States,US,False,strict,Entire home/apt,2022,"$1,126 ",$225 ,2,0,,,5,1,0,,
40473665,Spacious 1BR,62021073068,unconfirmed,Sean,Brooklyn,Carroll Gardens,40.68189,-73.99695,United States,US,True,flexible,Entire home/apt,2017,$341 ,$68 ,1,6,8/2/2016,0.12,3,1,0,,
40474217,My Spacious & Comfy Home Away,21597246321,verified,Shaquana,Brooklyn,Crown Heights,40.67647,-73.94813,United States,US,False,flexible,Entire home/apt,2007,$976 ,$195 ,2,23,6/12/2017,0.59,5,1,0,,
40474769,Spacious Graham Ave Room Aug 1 -21,57858824076,verified,Jean,Brooklyn,Williamsburg,40.715759999999996,-73.94468,United States,US,True,strict,Private room,2011,"$1,059 ",$212 ,5,0,,,4,1,0,,
40475322,Big Cozy Room 2 Blocks From Trains,88460861325,unconfirmed,Josh,Brooklyn,Sunset Park,40.644,-74.01092,United States,US,True,flexible,Private room,2019,$64 ,$13 ,3,2,11/2/2015,0.04,3,1,0,,
40475874,Artists' Sunny 1-BR Apt in Astoria,76318341309,unconfirmed,Dusan,Queens,Astoria,40.76778,-73.92201,United States,US,True,flexible,Entire home/apt,2013,"$1,071 ",$214 ,1,3,8/20/2015,0.06,2,1,0,,
40476426,Charming Williamsburg 1 Bedroom,8626319573,verified,William,Brooklyn,Williamsburg,40.70649,-73.94505,United States,US,True,flexible,Entire home/apt,2010,$769 ,$154 ,1,11,12/28/2015,0.23,4,1,0,,
40476979,Colorful Apartment Upper West Side,44232974193,verified,Kit,Manhattan,Morningside Heights,40.804190000000006,-73.96268,United States,US,False,moderate,Entire home/apt,2003,$733 ,$147 ,1,0,,,5,1,0,,
40477531,Entire 1 Bedroom apartment,59402079752,unconfirmed,NYC Hostess,Manhattan,NoHo,40.72579,-73.99341,United States,US,False,strict,Entire home/apt,2020,$197 ,$39 ,3,14,5/14/2019,0.3,3,1,198,,
40478083,Spacious NOMAD 1 BR for 4,39827186726,verified,Alexander,Manhattan,Midtown,40.74603,-73.98364000000001,United States,US,False,flexible,Entire home/apt,2003,$729 ,$146 ,3,1,8/7/2015,0.02,5,1,0,,
40478635,Manhattan Club sleeps 4,46778916163,unconfirmed,Helena,Manhattan,Midtown,40.76441,-73.98058,United States,US,True,moderate,Entire home/apt,2020,$73 ,$15 ,7,0,,,5,1,0,,
40479188,Room with a View,29917461558,verified,Nadine,Manhattan,Kips Bay,40.73774,-73.97343000000001,United States,US,False,moderate,Private room,2019,$614 ,$123 ,28,1,5/1/2016,0.03,3,1,72,,
40479740,Great spot in Lower East Side,89544597945,verified,EmiLy,Manhattan,Lower East Side,40.71546,-73.9896,United States,US,True,strict,Entire home/apt,2011,$498 ,$100 ,4,3,5/13/2016,0.08,5,1,0,,
40480292,"French charm at Château Village, Greenwich Village",93972108229,unconfirmed,John,Manhattan,Greenwich Village,40.7292,-74.00209,United States,US,True,moderate,Private room,2007,"$1,039 ",$208 ,3,62,6/6/2018,1.3,3,1,0,,
40480845,Hip & Trendy Williamsburg 2 BR 2BA Apartment,89455595103,verified,Louis,Brooklyn,Williamsburg,40.713029999999996,-73.9558,United States,US,True,flexible,Entire home/apt,2004,$160 ,$32 ,2,28,6/22/2019,0.61,5,1,170,,
40481397,Master Bedroom in Luxury Apartment,69860163419,unconfirmed,Andrew,Brooklyn,Williamsburg,40.71376,-73.95293000000001,United States,US,True,strict,Private room,2003,$772 ,$154 ,3,2,8/3/2015,0.04,1,1,0,,
40481949,Sunny apartment overlooking park,80301867988,unconfirmed,Samantha,Brooklyn,Crown Heights,40.67358,-73.94351,United States,US,True,flexible,Entire home/apt,2019,$712 ,$142 ,1,7,9/11/2018,0.15,2,1,0,,
40482502,Cozy room in 1bedroom apt,59847681375,verified,Israel,Queens,Astoria,40.7722,-73.93105,United States,US,False,strict,Private room,2004,$459 ,$92 ,1,0,,,3,1,0,,
40483054,Luxury Modern Brownstone Full Apt,69966433183,verified,Elwanda,Brooklyn,Bedford-Stuyvesant,40.6846,-73.94478000000001,United States,US,False,flexible,Entire home/apt,2010,$114 ,$23 ,3,130,7/6/2019,2.72,1,1,217,,
40483606,Private room in Nolita / SOHO,23740247324,verified,David,Manhattan,Nolita,40.724109999999996,-73.99563,United States,US,False,strict,Private room,2016,$927 ,$185 ,2,1,9/6/2015,0.02,2,1,0,,
40484158,Studio in Lincoln Sq - Columbus Cir,35929827815,unconfirmed,Sholeh,Manhattan,Upper West Side,40.77088,-73.98061,United States,US,True,flexible,Entire home/apt,2021,$575 ,$115 ,2,2,12/1/2015,0.04,4,1,0,,
40484711,East Village Two Bedroom,94372716440,verified,Matt,Manhattan,East Village,40.72228,-73.9838,United States,US,False,moderate,Entire home/apt,2004,$431 ,$86 ,3,21,11/26/2017,0.44,1,1,0,,
40485263,"Affordable, quiet, brownstone home",61802558130,unconfirmed,Luke,Brooklyn,Bedford-Stuyvesant,40.68148,-73.93145,United States,US,True,strict,Private room,2013,$886 ,$177 ,1,0,,,4,1,0,,
40485815,Huge Lower East Side 2 Bedroom,80066339046,unconfirmed,Pippa,Manhattan,Lower East Side,40.71864,-73.98346,United States,US,False,strict,Entire home/apt,2005,$339 ,$68 ,7,1,10/18/2015,0.02,5,1,0,,
40486368,Sunny Greenpoint 1 Bedroom with vintage feel,84948075155,verified,Nick,Brooklyn,Greenpoint,40.72927,-73.95707,United States,US,False,moderate,Entire home/apt,2003,$75 ,$15 ,3,6,4/18/2018,0.17,3,2,43,,
40486920,East Village Penthouse With Rooftop,40986076278,verified,Will,Manhattan,East Village,40.72163,-73.97888,United States,US,True,moderate,Private room,2013,$104 ,$21 ,1,0,,,3,1,0,,
40487472,Bright and beautiful 1 bedroom Apt.,58973887242,verified,Rosalia,Manhattan,Upper West Side,40.7777,-73.98796,United States,US,False,flexible,Entire home/apt,2017,$419 ,$84 ,1,1,8/10/2015,0.02,5,1,0,,
40488025,Comfy room in Gramercy Park,36783374761,unconfirmed,Max,Manhattan,Gramercy,40.73579,-73.98175,United States,US,True,flexible,Private room,2019,$942 ,$188 ,1,0,,,3,1,0,,
40488577,Long Island City- Furnished Studio,54464742019,verified,Jess,Queens,Long Island City,40.75226,-73.94089,United States,US,False,flexible,Entire home/apt,2003,$361 ,$72 ,1,9,9/26/2015,0.19,1,1,0,,
40489129,Sunny family-friendly 2br & parking,223563901,unconfirmed,Michal,Brooklyn,Gowanus,40.66892,-73.99136,United States,US,True,flexible,Entire home/apt,2011,$80 ,$16 ,3,178,6/23/2019,3.7,1,1,134,,
40489681,"City retrieve1 -large bedroom, comfortable / quite",44012366367,verified,Jana,Manhattan,Harlem,40.82622,-73.9498,United States,US,True,moderate,Private room,2013,"$1,026 ",$205 ,31,1,1/7/2017,0.03,5,4,64,,
40490234,"City retrieve2-comfort, quite, sunny room and desk",42362335113,unconfirmed,Jana,Manhattan,Harlem,40.82605,-73.94783000000001,United States,US,True,flexible,Private room,2021,"$1,093 ",$219 ,31,3,9/30/2018,0.08,3,4,32,,
40490786,BLUE SKIES AND GREEN TREES IN NYC.,22884648728,unconfirmed,Jean,Brooklyn,Flatbush,40.64213,-73.95298000000001,United States,US,False,moderate,Private room,2011,$693 ,$139 ,1,22,11/20/2016,0.5,4,2,89,,
40491338,Large private room in W. Heights,82847298746,verified,Emmanuel,Manhattan,Washington Heights,40.835229999999996,-73.9398,United States,US,False,moderate,Private room,2016,"$1,063 ",$213 ,1,2,12/18/2015,0.05,2,1,0,,
40491891,2 twins bed Private room  in Brooklyn,78963128591,unconfirmed,Tanya,Brooklyn,Flatbush,40.64167,-73.95465,United States,US,True,flexible,Private room,2014,$773 ,$155 ,3,4,8/1/2017,0.09,3,2,0,,
40492443,Apt.-private entrance -Townhouse- 10mins. to JFK,1214867891,unconfirmed,Carl,Queens,Springfield Gardens,40.67205,-73.75343000000001,United States,US,True,strict,Private room,2017,$382 ,$76 ,1,1,6/16/2018,0.08,1,1,365,,
40492995,Room Epic View Near Freedom Tower,80218040256,unconfirmed,Crystal,Manhattan,Tribeca,40.71928,-74.01125,United States,US,False,strict,Private room,2009,$953 ,$191 ,1,15,6/8/2017,0.34,3,2,0,,
40493548,Parkside Brooklyn Artist Apartment!,53655636754,unconfirmed,Stefanie,Brooklyn,Prospect-Lefferts Gardens,40.656279999999995,-73.96014,United States,US,False,moderate,Private room,2004,"$1,028 ",$206 ,5,3,9/22/2015,0.06,3,2,0,,
40494100,Steps Away From Grand Central,70160956375,unconfirmed,Tricia,Manhattan,Murray Hill,40.74981,-73.9786,United States,US,True,flexible,Entire home/apt,2021,"$1,175 ",$235 ,5,1,9/13/2015,0.02,1,1,0,,
40494652,Refreshing Bushwick Enclave,68883686484,unconfirmed,Allon,Brooklyn,Bushwick,40.694959999999995,-73.93088,United States,US,True,moderate,Private room,2016,$275 ,$55 ,3,4,12/27/2015,0.08,4,1,0,,
40495204,Patricia's Place near Williamsburg,76993773187,verified,Patricia,Brooklyn,Bushwick,40.69644,-73.92707,United States,US,False,flexible,Entire home/apt,2006,$205 ,$41 ,2,106,6/8/2019,2.2,5,1,210,,
40495757,Comfy Modern Bklyn 1BR + Guest BR,55071625582,verified,Su,Brooklyn,Bedford-Stuyvesant,40.67988,-73.92831,United States,US,True,flexible,Entire home/apt,2019,$958 ,$192 ,2,6,12/7/2015,0.13,1,1,0,,
40496309,Bushwick Room,56521576500,verified,David,Brooklyn,Bushwick,40.70647,-73.92093,United States,US,False,moderate,Private room,2012,$353 ,$71 ,20,0,,,4,1,0,,
40496861,1 BR Apartment Upper West Side,80041369190,unconfirmed,Joanna,Manhattan,Upper West Side,40.79555,-73.96578000000001,United States,US,False,moderate,Entire home/apt,2013,$543 ,$109 ,3,0,,,3,1,0,,
40497414,Beautiful bedroom in Ditmas Park!!!,74018074775,unconfirmed,J And Lana,Brooklyn,Flatbush,40.63198,-73.95988,United States,US,True,moderate,Private room,2010,"$1,199 ",$240 ,2,59,6/23/2019,1.24,2,1,344,,
40497966,Charming UES PreWar 24/7 Doorman 2 bed/2 bath apt,84288018018,verified,Meredith,Manhattan,Upper East Side,40.782709999999994,-73.95288000000001,United States,US,True,flexible,Entire home/apt,2009,$78 ,$16 ,2,30,6/19/2019,0.63,3,1,332,,
40498518,2BR + Roof Top-20min from Manhattan,97676891831,verified,Maud,Brooklyn,Park Slope,40.66835,-73.97981,United States,US,False,moderate,Entire home/apt,2006,$787 ,$157 ,5,2,8/23/2015,0.04,5,1,0,,
40499071,"Sunny, cozy, and convenient room in Harlem",60101545134,verified,Jen,Manhattan,Harlem,40.806490000000004,-73.95565,United States,US,True,moderate,Private room,2011,$751 ,$150 ,4,16,5/28/2017,0.43,5,1,0,,
40499623,Spacious Studio Room with Beautiful view NYC,61819463983,verified,Lance,Queens,Flushing,40.76735,-73.81801,United States,US,False,strict,Private room,2006,$893 ,$179 ,1,28,1/1/2018,0.6,1,1,363,,
40500175,One room in artsy Williamsburg,47938214057,verified,Abby,Brooklyn,Williamsburg,40.71723,-73.96285,United States,US,True,moderate,Private room,2021,$750 ,$150 ,1,0,,,3,1,0,,
40500727,Cozy apt. near the subway in uptown Manhattan,82495141440,unconfirmed,Mariza,Manhattan,Washington Heights,40.856190000000005,-73.93117,United States,US,False,strict,Private room,2020,"$1,069 ",$214 ,1,2,12/3/2016,0.06,3,1,145,,
40501280,stylish apartment w/ backyard,71688120093,verified,Rachael,Brooklyn,Greenpoint,40.73059,-73.95651,United States,US,False,moderate,Entire home/apt,2019,$891 ,$178 ,1,3,2/11/2017,0.06,4,1,0,,
40501832,Calm & Quiet in Clinton Hill,90979808451,verified,Margo,Brooklyn,Clinton Hill,40.68128,-73.96285999999999,United States,US,True,strict,Entire home/apt,2020,$257 ,$51 ,3,5,9/7/2016,0.1,4,1,0,,
40502384,RARE! Vintage 2 Bed Artist's Flat,15327143694,unconfirmed,Kestrel,Brooklyn,Bedford-Stuyvesant,40.686859999999996,-73.94973,United States,US,True,flexible,Entire home/apt,2016,$586 ,$117 ,1,1,12/20/2015,0.02,3,3,0,,
40502937,Big sunny 1BR in Ditmas Park with kitten!,13065560590,unconfirmed,Jordan,Brooklyn,Flatbush,40.63767,-73.95636999999999,United States,US,False,flexible,Entire home/apt,2011,"$1,010 ",$202 ,21,0,,,5,1,0,,
40503489,Lg Prospect Hts Room at Brooklyn&Breakfast,26263614099,verified,Brooklyn&   Breakfast    -Len-,Brooklyn,Prospect Heights,40.67883,-73.97051,United States,US,True,flexible,Private room,2003,$786 ,$157 ,1,258,6/30/2019,5.45,2,13,320,,
40504041,Beautiful Home for seasonal rental,63921301499,verified,Emmanuelle,Brooklyn,East Flatbush,40.64563,-73.9419,United States,US,False,flexible,Entire home/apt,2010,$366 ,$73 ,2,36,5/31/2019,0.77,3,1,248,,
40504594,Private room in WILLIAMSBURG LOFT,67721651348,verified,Hilary,Brooklyn,Williamsburg,40.7138,-73.96798000000001,United States,US,False,moderate,Private room,2012,$674 ,$135 ,1,12,10/27/2018,0.26,4,1,89,,
40505146,Private Room in Shared Apartment,38823438592,verified,Jason,Manhattan,Kips Bay,40.74085,-73.98153,United States,US,False,flexible,Private room,2020,$133 ,$27 ,1,1,9/2/2015,0.02,3,1,0,,
40505698,Brooklyn's finest by Prospect Park,7833092157,unconfirmed,Casey,Brooklyn,Prospect-Lefferts Gardens,40.6608,-73.95888000000001,United States,US,False,strict,Entire home/apt,2014,$287 ,$57 ,3,65,9/17/2018,1.37,1,1,127,,
40506250,Minimal Central Chelsea Studio,80508075829,unconfirmed,Arty,Manhattan,West Village,40.73778,-73.99941,United States,US,False,strict,Entire home/apt,2022,$899 ,$180 ,5,17,6/24/2019,0.56,2,1,28,,
40506803,Unique Artists' Studio in Manhattan,54870642427,unconfirmed,Gabe,Manhattan,Chinatown,40.71624,-73.99015,United States,US,True,flexible,Entire home/apt,2016,$735 ,$147 ,3,30,1/3/2018,0.63,3,1,0,,
40507355,Large 1 Bdrm for 5; close to Roberta's / Morgan L,55408555802,verified,Peter,Brooklyn,Bushwick,40.702220000000004,-73.93294,United States,US,False,strict,Entire home/apt,2015,$913 ,$183 ,3,109,7/1/2019,2.5,3,2,191,,
40507907,Large One Bedroom with Backyard,19072266961,unconfirmed,Carver,Brooklyn,Bedford-Stuyvesant,40.68482,-73.95666,United States,US,True,flexible,Entire home/apt,2012,$842 ,$168 ,2,6,8/25/2015,0.12,4,1,0,,
40508460,Luxury Upper East Side Apartment,13060432778,verified,Bo,Manhattan,Upper East Side,40.76205,-73.96382,United States,US,True,moderate,Entire home/apt,2008,$251 ,$50 ,2,145,6/12/2019,3.05,5,1,298,,
40509012,NEW Modern Brooklyn 1BR Apt!,88566808324,unconfirmed,James,Brooklyn,Bedford-Stuyvesant,40.68678,-73.9513,United States,US,True,flexible,Entire home/apt,2022,$716 ,$143 ,1,6,11/29/2015,0.13,5,1,0,,
40509564,One bedroom apartment,42342223452,verified,Biruta,Brooklyn,Bay Ridge,40.630140000000004,-74.027,United States,US,True,strict,Entire home/apt,2019,$176 ,$35 ,7,10,8/6/2018,0.21,5,1,0,,
40510117,Cozy Sublet in Brooklyn,24012324433,unconfirmed,Paul,Brooklyn,Bedford-Stuyvesant,40.68618,-73.93273,United States,US,True,moderate,Private room,2011,$310 ,$62 ,3,7,10/22/2015,0.15,1,1,0,,
40510669,East Williamsburg /Bushwick Room,38342338685,unconfirmed,Thuy,Brooklyn,Williamsburg,40.70608,-73.9433,United States,US,True,strict,Private room,2007,$587 ,$117 ,2,0,,,1,2,0,,
40511221,Large private bed/bath by Times Sq,12169013006,verified,Ishan,Manhattan,Hell's Kitchen,40.75538,-73.99750999999999,United States,US,True,strict,Private room,2015,$420 ,$84 ,2,0,,,4,1,0,,
40511773,Experience Brooklyn,66585569690,verified,Juan,Brooklyn,Williamsburg,40.70275,-73.93445,United States,US,True,flexible,Entire home/apt,2011,$361 ,$72 ,1,191,6/16/2019,3.97,4,1,290,,
40512326,Large Private Room in Greenpoint/ Williamsburg,62018913618,unconfirmed,Aude,Brooklyn,Greenpoint,40.72435,-73.95154000000001,United States,US,True,strict,Private room,2008,$103 ,$21 ,1,119,6/24/2019,2.57,4,2,1,,
40512878,Extraordinary One Bedroom Apartment,62830596535,unconfirmed,Lisa,Brooklyn,Crown Heights,40.66514,-73.95688,United States,US,False,flexible,Entire home/apt,2017,$818 ,$164 ,3,56,6/26/2019,1.25,5,1,333,,
40513430,Townhouse Bonus Room w/Private Bath,13672206533,unconfirmed,Kimberly,Brooklyn,Prospect Heights,40.680240000000005,-73.96658000000001,United States,US,True,moderate,Private room,2007,$612 ,$122 ,1,213,7/1/2019,4.42,5,2,38,,
40513983,Brooklyn Brownstone In Historic Bed Stuy - LEGAL,29224249641,unconfirmed,Natasha,Brooklyn,Bedford-Stuyvesant,40.68906,-73.93751,United States,US,False,flexible,Entire home/apt,2014,$530 ,$106 ,2,149,6/24/2019,4.08,1,1,142,,
40514535,LAKOU LAKAY- A HOME AWAY FROM HOME,21069931536,unconfirmed,Guerline,Brooklyn,Flatbush,40.63968,-73.95215,United States,US,False,moderate,Entire home/apt,2009,$99 ,$20 ,3,105,6/25/2019,2.67,2,1,195,,
40515087,1 BR in a shared flat East Village,37189239550,verified,Pierre,Manhattan,Gramercy,40.73366,-73.98313,United States,US,False,flexible,Private room,2017,$518 ,$104 ,1,4,12/25/2015,0.08,2,1,0,,
40515640,Entire apartment in Williamsburg,67507935523,verified,Alexandra,Brooklyn,Williamsburg,40.70732,-73.95259,United States,US,False,moderate,Entire home/apt,2018,$238 ,$48 ,3,4,1/4/2016,0.08,3,2,0,,
40516192,Room in Nolita with great Rooftop,74351371031,unconfirmed,Sandro,Manhattan,Nolita,40.722609999999996,-73.99333,United States,US,True,flexible,Private room,2019,"$1,112 ",$222 ,12,0,,,5,2,0,,
40516744,"Centrally Located, Spacious, and Quiet!",8390268372,unconfirmed,Mark,Manhattan,Gramercy,40.73768,-73.98727,United States,US,True,strict,Entire home/apt,2005,$455 ,$91 ,3,0,,,5,1,0,,
40517296,Williamsburg Walk Up,55940083403,verified,Ben,Brooklyn,Williamsburg,40.7128,-73.94175,United States,US,False,moderate,Entire home/apt,2015,$82 ,$16 ,1,0,,,5,1,0,,
40517849,Brooklyn corner loft! Great views+elevator✌️,1543121914,unconfirmed,Shawn,Brooklyn,Williamsburg,40.70414,-73.93408000000001,United States,US,True,flexible,Entire home/apt,2022,$164 ,$33 ,6,34,7/2/2019,0.72,4,1,76,,
40518401,"Large, sunny apartment with rooftop",34164313719,verified,Hannah And Michael,Brooklyn,Williamsburg,40.71332,-73.95291,United States,US,True,strict,Entire home/apt,2018,$915 ,$183 ,3,1,8/4/2015,0.02,3,1,0,,
40518953,"The large, sunny  two people room. 20 min to city!",34193763540,verified,Barbara & Andrzej,Queens,Sunnyside,40.74824,-73.91360999999999,United States,US,False,strict,Private room,2019,$125 ,$25 ,4,42,7/3/2019,0.89,1,2,1,,
40519506,Light-filled urban cabin,42842439346,unconfirmed,Sean,Brooklyn,Bedford-Stuyvesant,40.68141,-73.95841,United States,US,False,flexible,Entire home/apt,2019,$332 ,$66 ,7,9,1/2/2019,0.2,4,2,365,,
40520058,Beautiful Room in Central Brooklyn House,90959004219,verified,Ben,Brooklyn,Park Slope,40.68049,-73.97662,United States,US,False,strict,Private room,2008,$870 ,$174 ,8,7,9/2/2018,0.15,1,1,11,,
40520610,Quiet bright clean and convenient in 2 Bdroom apt.,49147575411,verified,Ramiro,Brooklyn,Williamsburg,40.708909999999996,-73.94161,United States,US,True,moderate,Private room,2003,$163 ,$33 ,3,8,1/1/2019,0.17,4,2,0,,
40521163,"Zen Oasis: Quiet, Comfortable Bushwick Room",43346459073,unconfirmed,Eric,Brooklyn,Bushwick,40.70414,-73.92888,United States,US,True,strict,Private room,2014,$765 ,$153 ,2,24,5/7/2017,0.58,2,1,0,,
40521715,2 Bedroom in Gramercy,86999906710,unconfirmed,Christina,Manhattan,Gramercy,40.73764,-73.9819,United States,US,True,strict,Entire home/apt,2005,$614 ,$123 ,1,0,,,2,1,0,,
40522267,Chic pad steps from Prospect Park,74982777047,unconfirmed,Cam,Brooklyn,Prospect-Lefferts Gardens,40.66037,-73.95900999999999,United States,US,True,strict,Entire home/apt,2013,$552 ,$110 ,2,7,7/25/2016,0.15,5,1,0,,
40522819,Room in cozy Prime-Williamsburg Apt,63176821681,unconfirmed,Ilinca,Brooklyn,Williamsburg,40.71326,-73.9542,United States,US,False,moderate,Private room,2015,$52 ,$10 ,10,0,,,1,1,0,,
40523372,"130/night, big and cozy, Brooklyn",13406587746,verified,Lary,Brooklyn,Gowanus,40.6798,-73.98231,United States,US,True,moderate,Entire home/apt,2018,$304 ,$61 ,1,4,11/17/2015,0.08,4,1,0,,
40523924,Renovated & Spacious Chelsea Studio,51705912410,verified,Benjamin,Manhattan,Chelsea,40.73925,-74.0,United States,US,True,moderate,Entire home/apt,2010,$752 ,$150 ,3,94,5/25/2019,2.02,3,1,8,,
40524476,BRIGHT & PRIVATE EAST VILLAGE STUDIO APARTMENT,16082647826,verified,Taylor,Manhattan,East Village,40.72528,-73.97882,United States,US,True,moderate,Entire home/apt,2019,$93 ,$19 ,4,38,6/16/2019,0.8,5,1,0,,
40525029,1 bedroom in The East Village,75944013263,verified,Jennie,Manhattan,East Village,40.72361,-73.98395,United States,US,True,strict,Private room,2015,$237 ,$47 ,1,6,8/10/2015,0.12,3,1,0,,
40525581,Stylish garden apartment,56876895160,verified,Gennadiy,Brooklyn,Bedford-Stuyvesant,40.68558,-73.9281,United States,US,False,moderate,Entire home/apt,2020,$314 ,$63 ,3,1,11/2/2015,0.02,4,1,0,,
40526133,Apartment share - Private Bedroom,94515317104,unconfirmed,Robert,Brooklyn,Carroll Gardens,40.67541,-73.99812,United States,US,True,flexible,Private room,2004,$922 ,$184 ,1,0,,,3,1,0,,
40526686,Prospect Heights BK Studio,346401963,unconfirmed,Heidi,Brooklyn,Crown Heights,40.68073,-73.96369,United States,US,True,moderate,Entire home/apt,2018,$360 ,$72 ,2,15,7/20/2016,0.31,1,1,0,,
40527238,Bushwick Artist Haven w Private Yard by JMZ subway,54060143485,verified,Blair,Brooklyn,Bushwick,40.69696,-73.93433,United States,US,True,flexible,Entire home/apt,2021,$660 ,$132 ,5,71,5/24/2019,1.54,3,1,238,,
40527790,"Time Square, New York City Center. Quiet Oasis!",68676606887,unconfirmed,Devin,Manhattan,Hell's Kitchen,40.75864,-73.99056,United States,US,False,moderate,Entire home/apt,2008,$998 ,$200 ,3,149,7/2/2019,3.11,4,1,201,,
40528342,Spacious Chelsea Private Bedroom,71565063488,unconfirmed,Drew,Manhattan,Chelsea,40.74582,-73.99472,United States,US,True,flexible,Private room,2006,$654 ,$131 ,1,0,,,1,1,0,,
40528895,Lovely 2-Bedroom Near Prospect Park,59141649622,verified,Natalie,Brooklyn,South Slope,40.662659999999995,-73.98885,United States,US,True,flexible,Entire home/apt,2016,$595 ,$119 ,3,4,9/30/2017,0.09,5,1,0,,
40529447,"Spacious, private UES room",86041152761,verified,Kaivan,Manhattan,Upper East Side,40.78235,-73.95058,United States,US,False,flexible,Private room,2020,$600 ,$120 ,25,4,7/1/2016,0.08,2,1,0,,
40529999,PH With Big Terrace & City View!!!!,21408964944,verified,Miyako,Brooklyn,Williamsburg,40.71802,-73.95228,United States,US,False,strict,Entire home/apt,2022,$100 ,$20 ,1,1,5/1/2016,0.03,1,1,0,,
40530552,Cozy Comfy Private Room,89757644223,unconfirmed,William,Brooklyn,Bedford-Stuyvesant,40.69127,-73.93983,United States,US,False,flexible,Private room,2008,$978 ,$196 ,1,23,5/7/2019,0.56,4,1,365,,
40531104,Balcony Oasis & Open View - 20 min to Manhattan,67030215717,verified,Nicole,Queens,Astoria,40.766999999999996,-73.93051,United States,US,False,strict,Entire home/apt,2011,$710 ,$142 ,4,1,7/8/2016,0.03,4,1,0,,
40531656,NYC Lavish Studio Apartment Steps from SoHo!,54205940242,verified,Kara,Manhattan,Financial District,40.70862,-74.01408,United States,US,True,flexible,Entire home/apt,2022,$381 ,$76 ,30,3,12/7/2018,0.09,5,121,364,,
40532209,urban cottage,98757975609,unconfirmed,Rosalyn,Queens,Astoria,40.7573,-73.92773000000001,United States,US,False,moderate,Private room,2003,$897 ,$179 ,1,0,,,4,1,0,,
40532761,Times Square luxury elevator doorman alcove studio,38417322329,unconfirmed,Zachary,Manhattan,Hell's Kitchen,40.76432,-73.99396,United States,US,True,flexible,Entire home/apt,2014,$901 ,$180 ,4,19,5/30/2019,0.43,1,1,343,,
40533313,Park Slope Loft,47572030734,verified,Michael & Katherine,Brooklyn,South Slope,40.66707,-73.98994,United States,US,False,flexible,Entire home/apt,2014,$221 ,$44 ,1,4,10/12/2015,0.09,3,1,0,,
40533865,Lower Manhattan Studio Alcove Apt,85780412364,unconfirmed,Jim,Manhattan,Financial District,40.70725,-74.01533,United States,US,True,flexible,Entire home/apt,2003,$987 ,$197 ,1,0,,,3,1,0,,
40534418,Artist's Loft,28897052339,verified,Nanda,Manhattan,East Village,40.72295,-73.98246,United States,US,True,strict,Entire home/apt,2003,$605 ,$121 ,4,4,2/11/2017,0.09,5,1,0,,
40534970,Upper West Side Apt,27764178325,verified,Stacey,Manhattan,Upper West Side,40.7787,-73.98406999999999,United States,US,False,moderate,Entire home/apt,2012,$686 ,$137 ,3,2,12/11/2015,0.05,3,1,0,,
40535522,Massive Bedroom by Prospect Park,70222698511,verified,Thomas,Brooklyn,Flatbush,40.65036,-73.96306,United States,US,False,strict,Private room,2018,$689 ,$138 ,1,0,,,1,2,0,,
40536075,"Spacious, Cozy Upper East Side Apt",73591924591,verified,Lorrin,Manhattan,Upper East Side,40.77673,-73.95078000000001,United States,US,True,moderate,Private room,2018,$819 ,$164 ,1,7,4/11/2017,0.2,3,1,0,,
40536627,Modern & Renovated | Great Location,51239402586,verified,AFI Apartments,Manhattan,Upper East Side,40.77085,-73.95725,United States,US,False,moderate,Entire home/apt,2008,$211 ,$42 ,30,4,4/13/2019,0.11,1,29,315,,
40537179,"3Bdr Artist Apt. (L,M,J,Z trains)",20174274954,unconfirmed,Hui & Jon,Brooklyn,Bushwick,40.69593,-73.92057,United States,US,False,strict,Entire home/apt,2014,$935 ,$187 ,3,135,6/28/2019,2.99,1,2,247,,
40537732,The big little room,35284529243,unconfirmed,Kori,Brooklyn,Crown Heights,40.67804,-73.95411,United States,US,False,moderate,Private room,2007,$862 ,$172 ,1,1,9/24/2017,0.05,2,3,0,,
40538284,The little big room,30568670158,verified,Kori,Brooklyn,Crown Heights,40.67628,-73.95421999999999,United States,US,True,strict,Private room,2015,"$1,056 ",$211 ,1,1,8/19/2017,0.04,4,3,0,,
40538836,Fully equiped room. TV AC,54587440314,verified,Ivan,Brooklyn,Bushwick,40.68949,-73.91190999999999,United States,US,True,flexible,Private room,2012,$674 ,$135 ,5,0,,,4,1,0,,
40539388,Two bedroom with two fold out bed,46695148357,unconfirmed,Damask,Manhattan,East Village,40.726820000000004,-73.97845,United States,US,True,flexible,Entire home/apt,2005,$391 ,$78 ,1,0,,,4,1,0,,
40539941,"Charming cozy bedroom, Downtown",90158048912,verified,Monte,Manhattan,Battery Park City,40.71011,-74.01456999999999,United States,US,False,strict,Private room,2005,$362 ,$72 ,2,31,6/26/2016,0.65,2,1,0,,
40540493,Peaceful and Spacious Brooklyn Gem,21015035003,verified,Jenny,Brooklyn,Midwood,40.62467,-73.96406,United States,US,False,flexible,Entire home/apt,2003,"$1,088 ",$218 ,2,13,9/14/2017,0.37,2,1,0,,
40541045,Modern Apartment in NOHO / SOHO,82999399906,unconfirmed,Bobby,Manhattan,NoHo,40.7256,-73.99555,United States,US,False,strict,Private room,2010,$888 ,$178 ,1,3,9/21/2015,0.06,3,1,0,,
40541598,Gorgeous 1 Bedroom in Bed-Stuy,89002546936,verified,Audra,Brooklyn,Bedford-Stuyvesant,40.68544,-73.93871999999999,United States,US,False,flexible,Entire home/apt,2005,$566 ,$113 ,3,64,6/24/2019,1.38,2,1,296,,
40542150,HUGE room in Sunset Park with AC,89759431224,verified,Caitlin,Brooklyn,Borough Park,40.64305,-73.99959,United States,US,False,moderate,Private room,2016,"$1,061 ",$212 ,2,1,8/9/2015,0.02,5,2,0,,
40542702,Charming sunny studio - Boerum Hill,36343903349,verified,Caroline,Brooklyn,Boerum Hill,40.688520000000004,-73.98697,United States,US,True,strict,Entire home/apt,2020,"$1,018 ",$204 ,5,12,8/21/2017,0.25,2,1,0,,
40543255,Gorgeous 1BR w huge private terrace,52316388703,verified,Ted,Brooklyn,Bedford-Stuyvesant,40.69141,-73.934,United States,US,True,moderate,Entire home/apt,2012,$931 ,$186 ,4,54,4/28/2019,1.14,1,1,0,,
40543807,"Great Room in Bushwick, Brooklyn!",89202575924,unconfirmed,Justin,Brooklyn,Bushwick,40.70512,-73.92187,United States,US,False,flexible,Private room,2012,$783 ,$157 ,3,3,8/20/2015,0.06,3,1,0,,
40544359,Prolonged Traveler's Dream( a month first & more),13700908382,unconfirmed,Ikkyukim,Bronx,Hunts Point,40.81335,-73.8873,United States,US,True,flexible,Private room,2011,$171 ,$34 ,30,15,6/30/2019,0.32,4,6,333,,
40544911,Nice & Sweat Apartment in Manhhatan,18187209531,verified,Alex,Manhattan,Harlem,40.8051,-73.95069000000001,United States,US,True,flexible,Entire home/apt,2010,$463 ,$93 ,2,1,9/3/2015,0.02,3,1,0,,
40545464,Prolonged Traveler's Dream (a month first & more),12352019011,unconfirmed,Ikkyukim,Bronx,Hunts Point,40.81395,-73.88675,United States,US,False,moderate,Private room,2017,$960 ,$192 ,30,21,6/22/2019,0.44,1,6,343,,
40546016,Cozy house in Sunnyside gardens,32418327473,unconfirmed,Fatima Vélez,Queens,Sunnyside,40.74601,-73.9149,United States,US,True,moderate,Entire home/apt,2009,$428 ,$86 ,15,0,,,2,1,18,,
40546568,Beautiful and Convenient,18860334937,unconfirmed,Mirlande,Manhattan,East Harlem,40.81211,-73.9378,United States,US,True,flexible,Private room,2009,$312 ,$62 ,3,134,6/2/2019,2.88,1,1,90,,
40547121,Wild Flower Nice quiet space Queen size bed.,26740509474,verified,Philbert,Brooklyn,Flatbush,40.64935,-73.96485,United States,US,True,strict,Private room,2010,$345 ,$69 ,2,24,7/2/2019,1.48,3,1,175,,
40547673,Great BIG Upper West Side Apartment,29689059381,unconfirmed,Andrew,Manhattan,Upper West Side,40.8012,-73.96382,United States,US,False,strict,Private room,2006,$539 ,$108 ,3,9,9/19/2018,0.19,1,1,0,,
40548225,2 BR modern apartment in historic Harlem,91490922281,verified,Mark,Manhattan,Harlem,40.81095,-73.9443,United States,US,False,flexible,Entire home/apt,2016,$426 ,$85 ,2,12,5/21/2018,0.65,1,1,0,,
40548778,Cozy Small Bedroom w/Bathroom. Balcony & Open Bar.,21467067262,unconfirmed,Keisher,Brooklyn,Bushwick,40.68496,-73.91107,United States,US,True,flexible,Private room,2022,$901 ,$180 ,14,15,7/10/2018,0.48,5,1,0,,
40549330,Historic WoHo Townhouse,35175984171,verified,Rip,Manhattan,SoHo,40.72547,-74.01,United States,US,True,flexible,Private room,2012,"$1,031 ",$206 ,7,51,1/5/2018,1.11,3,2,156,,
40549882,Ft. Greene cozy & modern studio!,9061984273,verified,Ingrid,Brooklyn,Fort Greene,40.68799,-73.97314,United States,US,True,flexible,Entire home/apt,2011,$98 ,$20 ,2,19,7/7/2019,0.4,1,1,1,,
40550434,Charming Top Floor Apartment w/ Roof Patio,41795066912,verified,Cole,Brooklyn,Williamsburg,40.71477,-73.94761,United States,US,False,flexible,Private room,2009,$971 ,$194 ,5,5,7/10/2016,0.11,3,1,0,,
40550987,Heart of Williamsburg w/Backyard,20837005118,unconfirmed,Sandy,Brooklyn,Williamsburg,40.71733,-73.95566,United States,US,False,moderate,Entire home/apt,2012,$66 ,$13 ,6,0,,,5,1,0,,
40551539,A True Brooklyn experience,21450482448,verified,Ricky,Brooklyn,Williamsburg,40.70884,-73.95742,United States,US,False,strict,Private room,2010,$843 ,$169 ,1,3,8/24/2015,0.06,1,1,0,,
40552091,Master Bedroom w/ private bathroom,84006456416,verified,Melissa,Brooklyn,Williamsburg,40.717040000000004,-73.94509000000001,United States,US,True,strict,Private room,2005,$128 ,$26 ,1,0,,,1,1,0,,
40552644,"1 Bedroom, Bushwick, Brooklyn",25402125236,verified,Patrick,Brooklyn,Bushwick,40.70192,-73.92928,United States,US,True,moderate,Private room,2017,$938 ,$188 ,1,7,12/5/2015,0.15,3,1,0,,
40553196,"Clean private room, 20min from City",38126525181,verified,Noel,Brooklyn,Crown Heights,40.67065,-73.93544,United States,US,True,flexible,Private room,2022,$112 ,$22 ,8,1,8/9/2015,0.02,3,1,0,,
40553748,A charming Parisian style apartment,43896080400,verified,Chris,Manhattan,Chelsea,40.7394,-73.99838000000001,United States,US,True,moderate,Entire home/apt,2004,$819 ,$164 ,1,10,1/1/2019,0.22,5,1,6,,
40554301,Modern 1 Bedroom in Dumbo / Vinegar Hill,97893222510,verified,John,Brooklyn,Vinegar Hill,40.70146,-73.98188,United States,US,False,strict,Entire home/apt,2021,"$1,028 ",$206 ,30,23,6/11/2019,0.49,1,1,268,,
40554853,Bedroom in Midtown Apartment,46416845446,verified,Chisom,Manhattan,Midtown,40.75737,-73.96916,United States,US,True,strict,Private room,2014,"$1,144 ",$229 ,1,1,8/24/2015,0.02,5,1,0,,
40555405,Super Cute Brooklyn Loft,57756486705,verified,Jasmine,Brooklyn,Clinton Hill,40.69188,-73.9607,United States,US,False,moderate,Private room,2010,"$1,131 ",$226 ,5,0,,,2,1,0,,
40555957,"Cute, Eclectic, & Family Friendly",82786854298,verified,Sara,Manhattan,Washington Heights,40.8327,-73.94485999999999,United States,US,True,flexible,Entire home/apt,2022,$905 ,$181 ,1,3,9/19/2015,0.06,4,1,0,,
40556510,"13 Essex St, 202",25412691629,unconfirmed,文立,Manhattan,Chinatown,40.716120000000004,-73.99121,United States,US,False,flexible,Entire home/apt,2011,$738 ,$148 ,1,0,,,3,1,0,,
40557062,Comfy room (only) in my apt - UWS,13155252762,verified,Travis,Manhattan,Upper West Side,40.77778,-73.9781,United States,US,False,strict,Private room,2015,$546 ,$109 ,2,183,7/1/2019,3.9,4,1,263,,
40557614,Large light-filled master bedroom.,81080364536,verified,Julia,Manhattan,Harlem,40.803129999999996,-73.95742,United States,US,True,flexible,Private room,2022,$699 ,$140 ,2,1,7/25/2015,0.02,4,1,0,,
40558167,Spacious Bedroom in Central Harlem,94411003041,verified,Elizabeth,Manhattan,Harlem,40.811890000000005,-73.94148,United States,US,True,moderate,Private room,2006,$220 ,$44 ,2,20,12/9/2018,0.42,1,1,0,,
40558719,"Small & Cozy Bedroom, L.E.S",96678799628,unconfirmed,Sade,Manhattan,Lower East Side,40.71289,-73.98877,United States,US,True,flexible,Private room,2004,$779 ,$156 ,3,27,6/21/2019,0.56,1,2,261,,
40559271,"Small One Bedroom, Brooklyn Apt",28760023403,verified,Mike,Brooklyn,Bedford-Stuyvesant,40.68887,-73.95393,United States,US,True,strict,Private room,2012,$178 ,$36 ,1,2,9/3/2015,0.04,1,1,0,,
40559824,Studio in the Heart of Wall Street,53874024057,verified,Jen,Manhattan,Financial District,40.70552,-74.00841,United States,US,True,strict,Entire home/apt,2013,$947 ,$189 ,1,3,7/25/2015,0.06,5,1,0,,
40560376,Garden apt with private entrance,59533361104,unconfirmed,Brian,Brooklyn,Park Slope,40.668890000000005,-73.97617,United States,US,True,moderate,Entire home/apt,2014,"$1,087 ",$217 ,2,60,10/28/2018,1.26,3,1,0,,
40560928,2 BR in Times Sq: The heart of NYC,78644773470,unconfirmed,Layka,Manhattan,Hell's Kitchen,40.7603,-73.99221999999999,United States,US,True,flexible,Entire home/apt,2007,$379 ,$76 ,3,203,6/29/2019,4.27,2,1,271,,
40561480,Upper East Side private bedroom near Central Park,34171073551,verified,Jen,Manhattan,East Harlem,40.790420000000005,-73.94641,United States,US,False,moderate,Private room,2012,$428 ,$86 ,4,37,3/4/2017,0.77,2,1,0,,
40562033,"Big, bright loft in Williamsburg",82123702582,unconfirmed,Laura,Brooklyn,Williamsburg,40.7129,-73.95565,United States,US,False,strict,Entire home/apt,2016,$604 ,$121 ,14,2,8/5/2015,0.04,2,1,0,,
40562585,"Private room, shared bathroom.",60624604960,verified,Craig,Manhattan,Harlem,40.82034,-73.94345,United States,US,False,moderate,Private room,2007,$188 ,$38 ,1,0,,,4,1,0,,
40563137,Cozy room in sunny BK apt,60026616283,unconfirmed,Lindsay,Brooklyn,Gowanus,40.67758,-73.98519,United States,US,True,flexible,Private room,2014,$860 ,$172 ,2,96,7/3/2019,2.07,4,1,41,,
40563690,Beautiful treeline BK apartment!,11798424379,verified,Bettina,Brooklyn,Greenpoint,40.72402,-73.9415,United States,US,True,flexible,Entire home/apt,2018,$410 ,$82 ,5,2,10/14/2016,0.04,1,1,0,,
40564242,Cozy Brooklyn Apartment,70283435541,unconfirmed,Lila (Eli),Brooklyn,Prospect-Lefferts Gardens,40.65736,-73.96094000000001,United States,US,False,moderate,Private room,2016,$231 ,$46 ,1,107,6/23/2019,2.22,3,2,46,,
40564794,Room in Upper West Side Manhattan,3857260504,unconfirmed,Eugene,Manhattan,Upper West Side,40.79452,-73.97065,United States,US,True,moderate,Private room,2021,$265 ,$53 ,1,12,2/19/2017,0.27,3,1,0,,
40565347,Triplex with private garden,91886583348,verified,B,Manhattan,Harlem,40.80772,-73.95100000000001,United States,US,True,flexible,Entire home/apt,2019,"$1,123 ",$225 ,2,1,8/12/2015,0.02,2,1,0,,
40565899,Cool 1 Bdrm Apt in Lower East Side,94034067121,unconfirmed,Arthur,Manhattan,Lower East Side,40.71281,-73.98705,United States,US,True,moderate,Entire home/apt,2016,$453 ,$91 ,4,68,5/27/2019,2.54,1,1,44,,
40566451,Perfect UWS Studio Sanctuary!,67799073026,verified,Jasmine,Manhattan,Upper West Side,40.79955,-73.96369,United States,US,False,flexible,Entire home/apt,2015,$460 ,$92 ,2,7,10/23/2016,0.15,2,1,0,,
40567003,Private room in hip & historic area,53049466912,unconfirmed,Ilean,Brooklyn,Bedford-Stuyvesant,40.68346,-73.95551,United States,US,False,moderate,Private room,2017,"$1,200 ",$240 ,2,30,4/30/2019,1.97,1,1,0,,
40567556,Charming 1 Bedroom Apt - Midtown East,50533629997,unconfirmed,Morgan,Manhattan,Upper East Side,40.7631,-73.96393,United States,US,False,strict,Entire home/apt,2020,$793 ,$159 ,3,19,6/26/2017,0.41,2,1,0,,
40568108,Light Filled Studio Apartment,21550337381,verified,Jennifer,Manhattan,Inwood,40.86464,-73.92768000000001,United States,US,False,strict,Entire home/apt,2007,$562 ,$112 ,14,7,9/8/2018,0.15,5,1,21,,
40568660,Edgecombe Ave Room,5221255368,unconfirmed,Adam,Manhattan,Harlem,40.825990000000004,-73.94238,United States,US,True,flexible,Private room,2003,"$1,191 ",$238 ,1,0,,,4,1,0,,
40569213,Charming West Village Studio,54388667970,unconfirmed,Marcello,Manhattan,West Village,40.73764,-73.99887,United States,US,True,flexible,Entire home/apt,2007,$205 ,$41 ,3,4,9/18/2015,0.08,1,1,0,,
40569765,Modern In Classic Brownstone,15899071559,unconfirmed,Francesco,Brooklyn,Crown Heights,40.67215,-73.94126,United States,US,False,flexible,Entire home/apt,2005,$492 ,$98 ,2,63,10/25/2018,1.41,3,1,0,,
40570317,"Quaint, Quiet East Village 1 BR",37861104316,unconfirmed,T.,Manhattan,East Village,40.729620000000004,-73.98931999999999,United States,US,True,strict,Private room,2022,$329 ,$66 ,16,9,4/18/2019,0.19,3,1,23,,
40570870,Adorable Brooklyn Apartment,18027360671,unconfirmed,Lila (Eli),Brooklyn,Prospect-Lefferts Gardens,40.65845,-73.96064,United States,US,True,moderate,Private room,2015,$592 ,$118 ,1,140,6/24/2019,4.0,4,2,40,,
40571422,Greenwich Village: BEST Block,74961531875,verified,Paul,Manhattan,Greenwich Village,40.735279999999996,-73.99744,United States,US,False,moderate,Entire home/apt,2022,"$1,084 ",$217 ,2,193,7/1/2019,4.13,2,1,169,,
40571974,"ENTIRE, SUNNY APT IN HEART OF LIC",90072720173,verified,Nicole,Queens,Long Island City,40.7432,-73.95565,United States,US,False,strict,Entire home/apt,2010,$664 ,$133 ,2,6,1/3/2016,0.13,1,1,0,,
40572526,Lovely 2 Bedroom in Upper West Side,85392611035,verified,Sara,Manhattan,Upper West Side,40.79045,-73.97361,United States,US,True,flexible,Entire home/apt,2008,$636 ,$127 ,5,12,6/16/2018,0.26,4,1,0,,
40573079,Clean White Room overlooking Bridge & River,8052163297,unconfirmed,Graham,Manhattan,Harlem,40.82652,-73.95304,United States,US,False,moderate,Private room,2010,$462 ,$92 ,1,151,5/30/2019,3.17,4,1,0,,
40573631,Fort Greene Sanctuary,53999690850,unconfirmed,Benjamin,Brooklyn,Fort Greene,40.688959999999994,-73.97737,United States,US,True,moderate,Entire home/apt,2003,$684 ,$137 ,30,7,3/9/2019,0.19,1,21,342,,
40574183,Sunny Room in Harlem,71658461587,unconfirmed,,Manhattan,Harlem,40.82929,-73.94181999999999,United States,US,False,moderate,Private room,2007,$549 ,$110 ,1,1,8/1/2015,0.02,1,1,0,,
40574736,Garden Facing Quiet Retreat,96870689887,verified,Benjamin,Brooklyn,Boerum Hill,40.68857,-73.98668,United States,US,False,moderate,Entire home/apt,2004,$140 ,$28 ,30,7,5/5/2018,0.15,4,21,360,,
40575288,Top Floor Brownstone - Park Slope,53054291915,verified,Kyle,Brooklyn,South Slope,40.666709999999995,-73.98172,United States,US,True,strict,Private room,2017,$623 ,$125 ,2,5,7/24/2018,0.1,5,3,0,,
40575840,Bright & Charming 2bdrm Minutes to Manhattan,84528230900,unconfirmed,Roula,Queens,Ditmars Steinway,40.776720000000005,-73.91956,United States,US,True,flexible,Entire home/apt,2020,$879 ,$176 ,3,109,7/3/2019,2.34,3,1,271,,
40576393,Christmas in New York,15694699311,unconfirmed,Pauline,Manhattan,Midtown,40.76372,-73.98080999999999,United States,US,True,moderate,Entire home/apt,2021,$614 ,$123 ,7,0,,,1,1,0,,
40576945,Upper West Side Studio Near All NYC,67649951436,verified,Moran,Manhattan,Upper West Side,40.794000000000004,-73.97632,United States,US,True,strict,Entire home/apt,2019,$466 ,$93 ,5,16,8/8/2017,0.34,1,1,0,,
40577497,Beautiful 1BR in upper Manhattan- close to subway!,91327512379,unconfirmed,Sarah And Mike,Manhattan,Washington Heights,40.833529999999996,-73.94393000000001,United States,US,True,flexible,Private room,2020,$203 ,$41 ,4,45,6/17/2019,2.23,3,1,59,,
40578049,Perfect Brooklyn Loft Studio,81243919723,verified,Puja,Brooklyn,Williamsburg,40.70641,-73.96800999999999,United States,US,True,strict,Entire home/apt,2007,$401 ,$80 ,1,0,,,3,1,0,,
40578602,"Williamsburg Studio, oudoor patio",14402348073,unconfirmed,Maura,Brooklyn,Williamsburg,40.712720000000004,-73.96632,United States,US,False,flexible,Entire home/apt,2009,$242 ,$48 ,1,0,,,3,1,0,,
40579154,"Beautiful, private 1BR in large shared apartment.",3884201263,unconfirmed,Samantha,Queens,Astoria,40.76254,-73.91415,United States,US,True,moderate,Private room,2008,$195 ,$39 ,2,7,6/9/2019,0.15,5,2,0,,
40579706,Private room in modern Bushwick Apt,72427131830,unconfirmed,Peter,Brooklyn,Bushwick,40.69095,-73.92385999999999,United States,US,False,moderate,Private room,2006,"$1,080 ",$216 ,4,8,8/30/2017,0.17,2,1,0,,
40580259,CHARMING ROOM W/ ROOF DECK ACCESS 2 :),49724699928,unconfirmed,Graham And Ben,Brooklyn,Clinton Hill,40.69342,-73.9611,United States,US,False,strict,Private room,2022,"$1,124 ",$225 ,30,20,8/19/2018,0.42,4,11,249,,
40580811,SUNNY COZY ROOM FOR 1 :),34316825853,unconfirmed,Graham And Ben,Brooklyn,Clinton Hill,40.694109999999995,-73.96151,United States,US,True,moderate,Private room,2016,$822 ,$164 ,30,31,10/10/2018,0.66,2,11,314,,
40581363,Cozy Large Studio - Yankee Stadium,18290724851,unconfirmed,John,Bronx,Concourse,40.823809999999995,-73.92725,United States,US,False,strict,Entire home/apt,2016,$130 ,$26 ,1,1,8/8/2015,0.02,1,1,0,,
40581916,Large and sunny 1br in Harlem!,17628547905,verified,Sophia,Manhattan,Harlem,40.82112,-73.94962,United States,US,True,moderate,Entire home/apt,2008,$315 ,$63 ,1,7,10/30/2016,0.15,1,1,10,,
40582468,No better place than Prospect Place,90826411492,unconfirmed,Mareike,Brooklyn,Crown Heights,40.67552,-73.96041,United States,US,True,flexible,Entire home/apt,2007,$591 ,$118 ,5,4,12/31/2018,0.09,5,1,10,,
40583020,Classic 1BR Brownstone w/ Backyard,58743139542,verified,Marlene,Brooklyn,Bedford-Stuyvesant,40.68338,-73.92071999999999,United States,US,False,flexible,Entire home/apt,2011,$386 ,$77 ,3,125,6/25/2019,2.66,4,1,315,,
40583572,Renovated 2 Rooms with balcony and ensuite bath,30052010457,verified,Izabel,Brooklyn,Windsor Terrace,40.64813,-73.97237,United States,US,True,strict,Private room,2003,$599 ,$120 ,1,66,7/1/2019,1.38,1,3,228,,
40584125,Great private room open for Aug!!,24371914163,verified,Jackie,Brooklyn,Williamsburg,40.708890000000004,-73.94113,United States,US,True,flexible,Private room,2015,$553 ,$111 ,1,1,8/4/2015,0.02,3,1,0,,
40584677,"Small Studio Private Suite by the Park近公園新小套房,鬧中取靜",29601455544,unconfirmed,A,Queens,Flushing,40.74823,-73.8084,United States,US,True,strict,Private room,2022,$927 ,$185 ,1,158,6/23/2019,3.35,4,2,355,,
40585229,Apartment in Chelsea btwn 6th-7th Aves,38555550614,unconfirmed,Mackenzie,Manhattan,Chelsea,40.744659999999996,-73.99504,United States,US,True,flexible,Entire home/apt,2008,$918 ,$184 ,2,4,9/22/2016,0.09,3,1,0,,
40585782,Spacious Studio in Midtown East,18857796481,verified,Ron,Manhattan,Midtown,40.75176,-73.96921,United States,US,False,strict,Entire home/apt,2017,$209 ,$42 ,1,1,8/26/2015,0.02,5,1,0,,
40586334,Cosy Master bedroom in Midtown West,86148996426,verified,Ali,Manhattan,Hell's Kitchen,40.76548,-73.99155,United States,US,False,flexible,Private room,2022,$310 ,$62 ,1,0,,,1,1,0,,
40586886,Charming one bedroom NYC treasure! #10268,97566931392,unconfirmed,Avantika,Manhattan,Chinatown,40.71379,-73.99112,United States,US,True,flexible,Entire home/apt,2019,$934 ,$187 ,3,39,7/3/2019,0.85,3,1,19,,
40587439,Comfortable cool -  Manhattan - up to 2 guests,70965729153,verified,Ana,Manhattan,Hell's Kitchen,40.75894,-73.9915,United States,US,False,strict,Private room,2006,$771 ,$154 ,1,142,6/21/2019,3.1,4,5,164,,
40587991,Lovely 2 bedroom prime location,70194916013,verified,Andrew,Brooklyn,Prospect Heights,40.67505,-73.96710999999999,United States,US,True,strict,Entire home/apt,2009,$239 ,$48 ,2,5,9/18/2016,0.11,1,1,0,,
40588543,Large 2.5 BR Apt In Park Slope,93467566771,unconfirmed,Jonathan,Brooklyn,South Slope,40.662929999999996,-73.9838,United States,US,True,moderate,Entire home/apt,2009,$269 ,$54 ,1,3,12/31/2015,0.06,1,1,0,,
40589095,"Cozy, clean in Greenpoint Brooklyn!",45434090124,unconfirmed,Kaya,Brooklyn,Greenpoint,40.72961,-73.95656,United States,US,False,flexible,Entire home/apt,2009,"$1,159 ",$232 ,1,0,,,2,1,0,,
40589648,Great NYC Apartment,82263672206,unconfirmed,Sam,Manhattan,Upper West Side,40.79397,-73.97376,United States,US,False,flexible,Entire home/apt,2022,$215 ,$43 ,3,1,8/14/2015,0.02,2,1,0,,
40590200,"Private, renovated & furnished room",86296792668,verified,Melanie,Brooklyn,Prospect-Lefferts Gardens,40.65591,-73.95866,United States,US,True,moderate,Private room,2012,$515 ,$103 ,15,2,11/28/2015,0.04,4,1,0,,
40590752,Furnished Columbia Apartment,25779281671,unconfirmed,Tom,Manhattan,Morningside Heights,40.806740000000005,-73.96141,United States,US,False,strict,Private room,2017,$120 ,$24 ,1,0,,,4,1,0,,
40591305,"Family-friendly, cozy guest room",86471031279,verified,Quami,Brooklyn,Bedford-Stuyvesant,40.683659999999996,-73.9247,United States,US,True,flexible,Private room,2006,$549 ,$110 ,2,186,6/5/2019,3.89,4,1,6,,
40591857,Charming West Village Full Bed Apt,30806419466,verified,Lauren,Manhattan,Greenwich Village,40.73049,-74.00111,United States,US,False,moderate,Private room,2018,$88 ,$18 ,2,0,,,2,1,0,,
40592409,"Private Modern room, stained glass view",93222179404,verified,Amanda,Manhattan,Harlem,40.80256,-73.94524,United States,US,False,strict,Private room,2006,$644 ,$129 ,30,27,12/31/2018,0.61,5,1,0,,
40592962,1 Large Bedroom plus 2nd bed,5190596175,verified,Carly,Brooklyn,Boerum Hill,40.68234,-73.98088,United States,US,False,moderate,Private room,2006,$485 ,$97 ,3,0,,,2,1,0,,
40593514,Sunny NYC studio in prime location,71172410751,unconfirmed,Elle,Manhattan,Upper West Side,40.783229999999996,-73.97721,United States,US,True,strict,Entire home/apt,2008,"$1,153 ",$231 ,3,1,8/7/2015,0.02,1,1,0,,
40594066,Bright & Stylish Studio in the LES,60212506059,unconfirmed,Hester,Manhattan,Lower East Side,40.71767,-73.99004000000001,United States,US,True,strict,Entire home/apt,2006,$547 ,$109 ,1,26,12/31/2016,0.54,5,1,0,,
40594618,Room in Spacious Williamsburg Loft,19788882248,unconfirmed,Ronald,Brooklyn,Williamsburg,40.704609999999995,-73.93845,United States,US,False,flexible,Private room,2010,$934 ,$187 ,21,16,10/31/2016,0.34,4,1,0,,
40595171,Spacious 2 Bedroom Apt,56621433235,unconfirmed,Tal,Manhattan,Harlem,40.81208,-73.95097,United States,US,True,flexible,Entire home/apt,2004,$114 ,$23 ,3,1,10/14/2016,0.03,5,1,0,,
40595723,SOHO LUXURIOUS LOFTED STUDIO,84877909404,verified,Judd,Manhattan,SoHo,40.72487,-73.99858,United States,US,False,strict,Entire home/apt,2018,"$1,002 ",$200 ,1,0,,,5,1,0,,
40596275,1000 square feet of Luxury!,88615498268,unconfirmed,Jeremy,Manhattan,Financial District,40.70406,-74.01227,United States,US,False,moderate,Entire home/apt,2017,$651 ,$130 ,1,0,,,5,1,0,,
40596828,Lovely Clinton Hill Bedroom,9397619287,verified,Kyle,Brooklyn,Clinton Hill,40.68973,-73.96073,United States,US,False,flexible,Private room,2010,"$1,033 ",$207 ,2,2,8/16/2015,0.04,2,1,0,,
40597380,Gorgeous 1 bedroom apt West Village,38566960879,unconfirmed,Marine,Manhattan,West Village,40.73453,-74.00656,United States,US,False,moderate,Entire home/apt,2004,$650 ,$130 ,1,0,,,3,1,0,,
40597932,Charming large room ...,33487598772,verified,Jing,Manhattan,Upper West Side,40.80089,-73.96752,United States,US,True,flexible,Shared room,2004,$632 ,$126 ,1,0,,,5,1,0,,
40598485,Cute & Cozy Short or Long Term Stay!,3462677123,verified,Chris,Queens,Jamaica,40.68692,-73.78022,United States,US,False,strict,Private room,2003,"$1,092 ",$218 ,1,63,11/1/2018,1.34,2,2,250,,
40599037,Sunny & stylish 1 BR in Greenpoint,43158416481,verified,Matt & Alex,Brooklyn,Greenpoint,40.72717,-73.94697,United States,US,True,strict,Entire home/apt,2022,$984 ,$197 ,2,21,10/3/2016,0.45,1,1,188,,
40599589,Brand new 2bed/2bath garden apt steps from train,62328354191,verified,Easton,Brooklyn,Bushwick,40.68902,-73.9156,United States,US,False,strict,Entire home/apt,2017,$954 ,$191 ,2,172,6/17/2019,3.6,1,5,136,,
40600141,Big Cozy Apt w/ lrg outdoor space!,20199591073,unconfirmed,Kenny,Queens,Ridgewood,40.69962,-73.90439,United States,US,True,strict,Entire home/apt,2003,$820 ,$164 ,2,108,6/16/2019,2.28,5,1,321,,
40600694,UES - Private Studio with Kitchen,78358025399,unconfirmed,Sabrina,Manhattan,Upper East Side,40.77459,-73.9476,United States,US,True,strict,Private room,2022,$217 ,$43 ,2,18,2/15/2016,0.38,1,1,0,,
