id,NAME,host id,host_identity_verified,host name,neighbourhood group,neighbourhood,lat,long,country,country code,instant_bookable,cancellation_policy,room type,Construction year,price,service fee,minimum nights,number of reviews,last review,reviews per month,review rate number,calculated host listings count,availability 365,house_rules,license
31322606,Private Queen Bed Apartment w Outside Space,48692971496,verified,Robert,Brooklyn,Park Slope,40.67086,-73.98746,United States,US,True,moderate,Entire home/apt,2022,$870 ,$174 ,2.0,82,2/10/2022,1.09,4,1,37,,
31323158,"Stylish & Inviting Brownstone Apt, Close to Subway",80849400045,verified,Jennifer And Kenneth,Manhattan,East Harlem,40.8081,-73.93853,United States,US,False,strict,Entire home/apt,2006,$470 ,$94 ,30.0,154,2/10/2022,2.09,5,1,143,,
31323711,521 West 48-Studio Near Times Square,12170783760,unconfirmed,Jeniffer,Manhattan,Hell's Kitchen,40.764109999999995,-73.99371,United States,US,True,strict,Entire home/apt,2020,$110 ,$22 ,30.0,12,2/10/2022,0.18,3,186,278,,
31324263,Luxurious SOHO 1 Bedroom,1517988460,verified,Stay With Vibe,Manhattan,Little Italy,40.71902,-73.99571999999999,United States,US,True,strict,Entire home/apt,2003,"$1,148 ",$230 ,30.0,21,2/10/2022,0.29,4,108,267,,
31324815,Private Room in Artsy Lower Manhattan Apartment,97638723412,unconfirmed,Mil,Manhattan,Chinatown,40.71328,-73.99600000000001,United States,US,False,flexible,Private room,2021,"$1,027 ",$205 ,30.0,30,2/10/2022,0.44,3,1,106,,
31325368,Luxurious and Sunny 2 bed/2 bath home (1100 sqft),40905896780,verified,Navlyn,Brooklyn,Williamsburg,40.71542,-73.9486,United States,US,True,flexible,Entire home/apt,2016,$946 ,$189 ,7.0,82,2/10/2022,1.26,4,2,0,,
31325920,Brooklyn Brownstone Serenity,72872954473,verified,Tali,Brooklyn,Bedford-Stuyvesant,40.68477,-73.92768000000001,United States,US,True,flexible,Entire home/apt,2015,"$1,182 ",$236 ,30.0,74,2/10/2022,1.16,5,1,56,,
31326472,GORGEOUS LARGE BDR CLOSE TO MANHATTAN,36907081136,unconfirmed,Shuly,Queens,Ditmars Steinway,40.772529999999996,-73.90472,United States,US,False,flexible,Private room,2022,$80 ,$16 ,2.0,134,2/10/2022,2.38,3,6,346,,
31327024,Cozy Studio with Private Entrance,25670646255,verified,Linda,Staten Island,Clifton,40.61391,-74.08556999999999,United States,US,True,flexible,Entire home/apt,2021,"$1,194 ",$239 ,2.0,240,2/10/2022,5.91,2,1,305,,
31327577,Beautiful Bronx Garden Apartment,4473155080,verified,Mariangelica,Bronx,Concourse,40.82185,-73.92841,United States,US,True,moderate,Entire home/apt,2016,"$1,185 ",$237 ,3.0,24,2/10/2022,4.14,2,1,35,,
31328129,2 Bedroom Brooklyn Apt Minutes from NYC Landmarks,32643037057,unconfirmed,Bashiri,Brooklyn,Bedford-Stuyvesant,40.68438,-73.95832,United States,US,True,flexible,Entire home/apt,2015,$409 ,$82 ,2.0,121,2/10/2022,2.49,5,1,294,,
31328681,Luxury Townhouse w Balcony in West Village / Soho,95281197501,unconfirmed,Gabriella,Manhattan,West Village,40.729420000000005,-74.00426,United States,US,True,moderate,Entire home/apt,2009,$286 ,$57 ,5.0,129,2/10/2022,2.66,3,1,179,,
31329234,Rm#4 Private Room Full Size Bed 1 Guest Only,32479586541,verified,Sharon & Erika,Bronx,Schuylerville,40.83603,-73.83328,United States,US,False,flexible,Private room,2011,$517 ,$103 ,1.0,63,2/10/2022,1.48,4,6,336,,
31329786,"**Stylish, Quiet, Centrally Located (9th & 52nd)",10930865378,unconfirmed,Jordan,Manhattan,Hell's Kitchen,40.765057,-73.989037,United States,US,True,moderate,Private room,2008,$131 ,$26 ,4.0,45,2/10/2022,1.51,2,1,53,,
31330338,Manhattan-Bronx Large Studio Apt in Mott Haven,3653590311,verified,Yizhak,Bronx,Port Morris,40.80912,-73.93095,United States,US,True,strict,Entire home/apt,2011,$278 ,$56 ,1.0,199,2/10/2022,4.82,3,1,257,,
31330891,Cozy 1 bedroom apt in Brooklyn,15964120468,verified,Maurice,Brooklyn,Brownsville,40.65493,-73.91201,United States,US,True,flexible,Entire home/apt,2004,$709 ,$142 ,,64,2/10/2022,1.71,2,1,226,,
31331443,Spacious Studio Home in Landmark Townhouse,24428798003,verified,Robert,Manhattan,Upper West Side,40.800979999999996,-73.96911,United States,US,False,moderate,Entire home/apt,2005,"$1,197 ",$239 ,,46,2/10/2022,1.19,3,1,92,,
31331995,Brooklyn stylish studio apartment!,57184837892,unconfirmed,James And Laureta,Brooklyn,Bedford-Stuyvesant,40.68567,-73.95318,United States,US,True,moderate,Entire home/apt,2022,$159 ,$32 ,,124,2/10/2022,3.49,5,7,208,,
31332547,"Cozy, Confortable and Nice place in Bay Ridge",92074507309,verified,Stefany,Brooklyn,Bay Ridge,40.63088,-74.02465,United States,US,True,strict,Private room,2011,"$1,163 ",$233 ,,121,2/10/2022,3.32,4,1,100,,
31333100,New 5 Bed 2 Bath Spacious Apartment.,71196935092,verified,Philip,Brooklyn,Crown Heights,40.66653,-73.92971,United States,US,False,flexible,Entire home/apt,2022,"$1,120 ",$224 ,,51,2/10/2022,1.53,5,4,174,,
31333652,City Gem 15 minutes from Midtown Manhattan,44684097287,unconfirmed,Dharamdeo,Queens,Long Island City,40.757659999999994,-73.93599,United States,US,True,moderate,Entire home/apt,2018,$989 ,$198 ,,57,2/10/2022,1.74,5,1,95,,
31334204,One bedroom Masterpiece,69844974328,verified,Martha,Queens,Forest Hills,40.73381,-73.85453000000001,United States,US,True,flexible,Entire home/apt,2017,$952 ,$190 ,,12,2/10/2022,1.95,3,3,350,,
31334757,"Minimalist Studio in cool Bed-Stuy, Brooklyn",3102471752,verified,Adam,Brooklyn,Bedford-Stuyvesant,40.68764,-73.95362,United States,US,False,strict,Entire home/apt,2014,$412 ,$82 ,,129,2/10/2022,4.23,3,1,77,,
31335309,The Rosedale Studio Retreat (Queens NY),31194689053,unconfirmed,Blackfoot,Queens,Rosedale,40.657309999999995,-73.72959,United States,US,True,flexible,Entire home/apt,2010,"$1,145 ",$229 ,,50,2/10/2022,1.74,4,1,193,,
31335861,"A place for peace, In the heart of the city!",7370128480,unconfirmed,Lamont,Manhattan,Harlem,40.826409999999996,-73.93978,United States,US,False,moderate,Entire home/apt,2005,$438 ,$88 ,1.0,17,2/10/2022,0.58,5,1,129,,
31336414,Quiet Zen Garden Get-away in Historic East Village,1770954308,verified,Ruth,Manhattan,East Village,40.72833,-73.98404000000001,United States,US,False,moderate,Entire home/apt,2006,$902 ,$180 ,28.0,9,2/10/2022,0.34,5,1,161,,
31336966,"Hotel 32 32, Queen Studio with Balcony",4683096060,unconfirmed,Hotel 32 32,Manhattan,Midtown,40.74522,-73.98284,United States,US,False,strict,Private room,2014,$678 ,$136 ,1.0,165,2/10/2022,8.13,4,11,295,,
31337518,Spacious Rooms in Brooklyn,75679098333,verified,Uchenna,Brooklyn,East Flatbush,40.65229,-73.94556,United States,US,True,flexible,Private room,2004,"$1,116 ",$223 ,30.0,3,2/10/2022,0.11,5,4,360,,
31338070,"Beautiful, Renovated, Elevator Apt",28522539497,unconfirmed,Gabrielle,Brooklyn,Bedford-Stuyvesant,40.686690000000006,-73.95799,United States,US,False,strict,Entire home/apt,2016,"$1,104 ",$221 ,3.0,20,2/10/2022,0.73,4,1,134,,
31338623,Ana Karla's Sweet Home,23065926498,unconfirmed,Ana Karla,Queens,East Elmhurst,40.76628,-73.86635,United States,US,True,moderate,Entire home/apt,2008,$619 ,$124 ,1.0,80,2/10/2022,3.02,4,1,339,,
31339175,138 Bowery-Classic King Studio,82628811710,unconfirmed,Jeniffer,Manhattan,Nolita,40.72032,-73.99548,United States,US,True,strict,Entire home/apt,2015,$878 ,$176 ,15.0,11,2/10/2022,0.77,4,51,48,,
31339727,Top full size bed in shared  space FEMALES ONLY,96502958176,unconfirmed,Ricky,Bronx,North Riverdale,40.91685,-73.90136,United States,US,False,strict,Shared room,2020,$174 ,$35 ,3.0,9,2/10/2022,0.46,2,2,302,,
31340280,Stunning KING Apt with Views,65475088888,verified,Stay With Vibe,Manhattan,Kips Bay,40.74277,-73.97809000000001,United States,US,False,strict,Entire home/apt,2017,"$1,176 ",$235 ,30.0,6,2/10/2022,0.53,3,108,339,,
31340832,Midtown Living Room-Bunk Bed,14592041546,unconfirmed,Ian,Manhattan,Chelsea,40.747679999999995,-73.98997,United States,US,False,flexible,Shared room,2009,"$1,025 ",$205 ,3.0,44,2/10/2022,3.44,4,4,17,,
31341384,Center of the city for 3 people,34241487705,unconfirmed,Val,Manhattan,Chelsea,40.74954,-73.99301,United States,US,False,moderate,Entire home/apt,2017,$605 ,$121 ,1.0,45,2/10/2022,2.71,5,6,322,,
31341937,"Room 6mins by foot Roosevelt Ave, Jackson Heights",69005927957,verified,Kaz,Queens,Woodside,40.74288,-73.89286,United States,US,True,flexible,Private room,2006,"$1,136 ",$227 ,30.0,6,2/10/2022,0.65,3,161,346,,
31342489,A+ Location Studio (Apt Selected at Check-in) #3,14357684666,unconfirmed,Nomad,Manhattan,Midtown,40.74823,-73.98722,United States,US,True,flexible,Private room,2019,$870 ,$174 ,1.0,31,2/10/2022,2.18,2,53,156,,
31343041,Empire States Building! Entire Space in Manhattan,62297358914,verified,AnnaMarie,Manhattan,Murray Hill,40.74853,-73.97632,United States,US,True,flexible,Private room,2015,$703 ,$141 ,1.0,23,2/10/2022,1.55,3,5,326,,
31343593,Hotel Room King Bed,75199486392,unconfirmed,Michelle,Manhattan,Chelsea,40.74758,-73.99238000000001,United States,US,False,moderate,Private room,2020,"$1,043 ",$209 ,1.0,38,2/10/2022,2.95,3,50,28,,
31344146,Hotel Room Queen/Queen Beds Chelsea,54254229274,unconfirmed,Michelle,Manhattan,Chelsea,40.74695,-73.99061999999999,United States,US,False,flexible,Private room,2012,$620 ,$124 ,1.0,27,2/10/2022,2.31,2,50,23,,
31344698,Charming garden level 2BR in the heart of BK,43514072787,verified,Sammi,Brooklyn,Crown Heights,40.67368,-73.9547,United States,US,True,moderate,Entire home/apt,2020,$515 ,$103 ,5.0,9,2/10/2022,1.91,2,1,40,,
31345250,Nice Private Room in Williamsburg,20447584219,verified,Sharon &,Brooklyn,Williamsburg,40.71043,-73.96571,United States,US,False,strict,Private room,2003,"$1,177 ",$235 ,2.0,21,2/10/2022,2.5,3,4,337,,
31345803,"Bright comfortable room + bathroom,  Brooklyn",32861174824,unconfirmed,Oksana,Brooklyn,Sheepshead Bay,40.58344,-73.95085,United States,US,True,strict,Private room,2020,$224 ,$45 ,3.0,10,2/10/2022,1.22,5,7,20,,
31346355,Bushwick Room w/Private Bath in Vintage Loft,21381446224,unconfirmed,Darina,Brooklyn,Bushwick,40.70045,-73.91861,United States,US,False,flexible,Private room,2011,$895 ,$179 ,2.0,21,2/10/2022,2.53,2,10,347,,
31346907,3 Bedroom Duplex Garden Apartment in Brownstone,92355412204,verified,Carme,Brooklyn,Bedford-Stuyvesant,40.69174,-73.94107,United States,US,True,flexible,Entire home/apt,2016,$600 ,$120 ,7.0,25,2/10/2022,2.74,5,1,0,,
31347460,Library in Park Slope,64083085040,unconfirmed,Nina,Brooklyn,Park Slope,40.671409999999995,-73.98015,United States,US,True,moderate,Entire home/apt,2003,$929 ,$186 ,3.0,19,2/10/2022,3.0,5,4,40,,
31348012,Comfy room in the center of Times Square,46412296080,unconfirmed,Millennium Broadway,Manhattan,Theater District,40.75789,-73.9841,United States,US,False,strict,Private room,2010,$215 ,$43 ,1.0,8,2/10/2022,1.73,2,8,302,,
31348564,Elegant Bohemian Royale - Private Small Studio,53438107353,unconfirmed,Lillybeth & Crystal,Manhattan,Harlem,40.80811,-73.95064,United States,US,False,flexible,Private room,2021,$986 ,$197 ,1.0,11,2/10/2022,2.36,4,3,274,,
31349116,Midtown west Hotel NYC (queen),79455746376,unconfirmed,Joe,Manhattan,Chelsea,40.75108,-73.99601,United States,US,False,moderate,Private room,2011,$462 ,$92 ,1.0,24,2/10/2022,4.16,5,23,73,,
31349669,Manhattan Suite Private Bathroom 20%Off Homeoffice,97303450142,verified,Marcia,Manhattan,Harlem,40.81451,-73.9446,United States,US,True,strict,Private room,2009,$544 ,$109 ,3.0,10,2/10/2022,2.27,5,2,67,,
31350221,"Mid size room in Hollis, Queens.",51521619708,verified,Ahmed,Queens,Hollis,40.71512,-73.76083,United States,US,False,strict,Private room,2013,"$1,154 ",$231 ,30.0,1,2/10/2022,1.0,5,4,116,,
31350773,Attractive Charming n Modern Townhouse w/ backyard,65027094850,unconfirmed,Angi,Bronx,Mott Haven,40.8098,-73.92101,United States,US,False,moderate,Private room,2018,"$1,162 ",$232 ,1.0,4,2/10/2022,2.45,3,8,289,,
31351326,Beautiful room at BKLYN 2 min from Subway Station,38059085303,verified,Carlos,Brooklyn,Bedford-Stuyvesant,40.67938,-73.90957,United States,US,False,moderate,Private room,2004,$743 ,$149 ,1.0,4,2/10/2022,1.88,5,8,364,,
31351878,Great Private Room - 2 Beds With Laundry in Unit,88743141418,unconfirmed,Sharon And Ivy,Brooklyn,Williamsburg,40.70898,-73.96497,United States,US,True,flexible,Private room,2016,$495 ,$99 ,1.0,5,2/10/2022,1.79,3,4,350,,
31352430,C & P Home Away From Home,19880021704,verified,Chris And Precious,Queens,Jamaica,40.68741,-73.78841,United States,US,True,strict,Entire home/apt,2019,$314 ,$63 ,1.0,4,2/10/2022,2.07,5,1,343,,
31352983,"Elegant, Charming n Modern townhouse with backyard",35639495268,verified,Angi,Bronx,Mott Haven,40.81158,-73.92123000000001,United States,US,False,strict,Private room,2010,"$1,011 ",$202 ,1.0,7,2/10/2022,3.09,2,8,218,,
31353535,Private bedroom in shared apartment in Brooklyn,23022070614,unconfirmed,Afolabi,Brooklyn,Prospect-Lefferts Gardens,40.65887,-73.95605,United States,US,True,strict,Private room,2017,"$1,192 ",$238 ,1.0,7,2/10/2022,3.13,3,3,353,,
31354087,"Luxury NYC Loft - 20 min from Manhattan, JFK & LGA",22528959432,unconfirmed,Alyssa,Queens,Ridgewood,40.69978,-73.90502,United States,US,True,strict,Entire home/apt,2004,$775 ,$155 ,2.0,1,2/10/2022,1.0,4,1,314,,
31354639,"New Listing, Lovely and cozy bedroom in Astoria",28039143001,verified,Daniel,Queens,Astoria,40.7604,-73.9132,United States,US,True,strict,Private room,2019,$398 ,$80 ,1.0,1,2/10/2022,1.0,3,5,49,,
31355192,Unique & spacious 1 bedroom in the east village!,89107540243,unconfirmed,Victoria,Manhattan,East Village,40.72656,-73.97629,United States,US,False,strict,Entire home/apt,2011,$833 ,$167 ,1.0,1,2/10/2022,1.0,2,3,284,,
31355744,Middle Of Manhattan Apartment for FIVE People # 53,88935382377,unconfirmed,Alberto,Manhattan,Midtown,40.74638,-73.98713000000001,United States,US,True,moderate,Entire home/apt,2018,$969 ,$194 ,1.0,1,2/10/2022,1.0,2,4,257,,
31356296,Lovely Room to Stay in Astoria Next to Subway!,10359273060,verified,David,Queens,Ditmars Steinway,40.77409,-73.91686,United States,US,True,moderate,Private room,2006,$517 ,$103 ,1.0,2,2/10/2022,2.0,5,11,364,,
31356849,COZY BEDROOM IN BROOKLYN,28937763100,unconfirmed,Shon,Brooklyn,Crown Heights,40.66966,-73.91963,United States,US,True,flexible,Private room,2009,$380 ,$76 ,1.0,3,2/10/2022,2.2,5,3,73,,
31357401,small room with full loft bed and park view,29141750634,unconfirmed,Javier,Brooklyn,Sunset Park,40.645379999999996,-74.0039,United States,US,False,moderate,Private room,2005,$998 ,$200 ,2.0,3,2/10/2022,2.43,3,4,59,,
31357953,A+ Location! 4BR 10 mins walk to Central Park!,28053646880,unconfirmed,Joymee Ann,Manhattan,Upper East Side,40.764559999999996,-73.96800999999999,United States,US,True,strict,Entire home/apt,2008,"$1,054 ",$211 ,2.0,2,2/10/2022,1.3,2,1,341,,
31358506,Cozy one- bedroom apartment mins from Manhattan!,98114637157,verified,Tasha,Queens,Astoria,40.7683,-73.9256,United States,US,False,strict,Entire home/apt,2013,$152 ,$30 ,1.0,1,2/10/2022,1.0,2,1,2,,
31359058,"COZY ROOM, PERFECT LOCATION",44151059496,verified,Brenda,Queens,Ditmars Steinway,40.773559999999996,-73.91639,United States,US,True,moderate,Private room,2014,$531 ,$106 ,1.0,2,2/10/2022,2.0,5,28,365,,
31359610,"Lovely Room 2 in BEST AREA; Legal Rental, Spotless",19666987871,unconfirmed,Laurie,Brooklyn,South Slope,40.666920000000005,-73.98980999999999,United States,US,False,flexible,Private room,2009,$436 ,$87 ,4.0,201,2/9/2022,1.33,2,3,359,,
31360162,PRIVATE BATH/TONS OF SUNLIGHT/SAFE,82399361744,verified,Enrique,Bronx,Allerton,40.85796,-73.87134,United States,US,False,moderate,Entire home/apt,2016,$428 ,$86 ,1.0,311,2/9/2022,2.73,5,4,274,,
31360715,Painters Paradise / Greenpoint,25066418409,unconfirmed,Painter,Brooklyn,Greenpoint,40.73292,-73.95515999999999,United States,US,False,strict,Entire home/apt,2016,$182 ,$36 ,7.0,195,2/9/2022,1.86,4,1,229,,
31361267,Prime Union Square! Large 1BR~Great value,37804049579,verified,Eran,Manhattan,Gramercy,40.73353,-73.98722,United States,US,False,flexible,Entire home/apt,2019,$560 ,$112 ,30.0,13,2/9/2022,0.16,4,33,302,,
31361819,Elegant Private Studio - Town House,43735589886,unconfirmed,Lillybeth & Crystal,Manhattan,Harlem,40.806129999999996,-73.95033000000001,United States,US,True,moderate,Private room,2022,$624 ,$125 ,1.0,288,2/9/2022,4.33,2,3,216,,
31362372,"Quiet charming oasis.
Steps away from the park",82571812332,verified,Ryan,Manhattan,Harlem,40.80502,-73.95808000000001,United States,US,True,strict,Entire home/apt,2007,$730 ,$146 ,30.0,10,2/9/2022,0.36,2,1,53,,
31362924,Chic Studio Apartment in Bed Stuy,97688636550,verified,Jason,Brooklyn,Bedford-Stuyvesant,40.68589,-73.93335,United States,US,False,flexible,Entire home/apt,2010,$377 ,$75 ,3.0,173,2/9/2022,2.17,5,2,73,,
31363476,Location Divana (rail road room) only female,98104642512,unconfirmed,Petya,Queens,Astoria,40.75797,-73.91221,United States,US,True,strict,Private room,2003,$788 ,$158 ,30.0,4,2/9/2022,0.06,3,19,364,,
31364029,Unique Duplex Loft - Huge Private Roof with Garden,42480383214,verified,Lindsee And Peter,Manhattan,Nolita,40.72274,-73.99453000000001,United States,US,True,flexible,Entire home/apt,2004,$423 ,$85 ,10.0,53,2/9/2022,0.78,5,1,82,,
31364581,Casa E 3B,75057345619,unconfirmed,Nia,Queens,Long Island City,40.74629,-73.94493,United States,US,False,moderate,Private room,2021,$988 ,$198 ,30.0,134,2/9/2022,1.77,5,3,70,,
31365133,Garden Apartment in Carroll Gardens,5132219202,unconfirmed,Samaa,Brooklyn,Carroll Gardens,40.67992,-73.99486,United States,US,False,strict,Entire home/apt,2006,"$1,170 ",$234 ,4.0,72,2/9/2022,0.99,3,1,168,,
31365685,Comfy & Spacious King Bedroom,52960252973,unconfirmed,Mrs. Alabi,Brooklyn,Crown Heights,40.674490000000006,-73.92699,United States,US,False,strict,Private room,2019,"$1,074 ",$215 ,2.0,230,2/9/2022,3.23,4,2,30,,
31366238,"Great Studio Apartment, 15-20mins from Downtown,",53486543678,verified,Katrina,Manhattan,Washington Heights,40.83699,-73.94113,United States,US,True,flexible,Entire home/apt,2021,$609 ,$122 ,3.0,76,2/9/2022,1.14,2,2,248,,
31366790,Space & Light One Bedroom in East Village,7780396229,unconfirmed,Shalom,Manhattan,East Village,40.726729999999996,-73.98302,United States,US,True,moderate,Entire home/apt,2016,$127 ,$25 ,30.0,3,2/9/2022,0.33,4,1,267,,
31367342,"Simple, Cozy Private Room Near Beach & Subway",97675668504,unconfirmed,Anna,Queens,Arverne,40.59154,-73.79115999999999,United States,US,False,strict,Private room,2019,$766 ,$153 ,1.0,45,2/9/2022,0.71,5,4,169,,
31367895,Quiet comfortable clean renovated 15m to Manhattan,53772435751,verified,Lucky,Queens,Sunnyside,40.74559,-73.91814000000001,United States,US,True,moderate,Private room,2014,$280 ,$56 ,5.0,154,2/9/2022,2.77,5,2,82,,
31368447,Spacious Studio - NYC! First Responders Welcome!,37818683218,verified,Amir,Manhattan,Upper East Side,40.777809999999995,-73.95156,United States,US,False,strict,Entire home/apt,2012,$295 ,$59 ,30.0,82,2/9/2022,1.52,4,1,3,,
31368999,Cozy Room in the Heart of NYC,98570596092,verified,Elliot,Manhattan,Kips Bay,40.74113,-73.9815,United States,US,True,moderate,Private room,2008,$354 ,$71 ,1.0,212,2/9/2022,4.0,4,2,33,,
31369552,"Spacious, Clean 1 Bedroom + Office",78461608661,unconfirmed,Erin,Brooklyn,Brooklyn Heights,40.69978,-73.99457,United States,US,True,strict,Entire home/apt,2015,$475 ,$95 ,7.0,65,2/9/2022,1.25,3,1,296,,
31370104,Nice Penthouse very close to Manhattan and airport,12992189028,verified,Anibal,Queens,Sunnyside,40.74192,-73.91214000000001,United States,US,True,moderate,Private room,2020,$994 ,$199 ,1.0,69,2/9/2022,1.38,4,3,361,,
31370656,NO CLEANING FEE: Private Room Bronx Hostel Vibe,35431087888,unconfirmed,Shera,Bronx,Woodlawn,40.89866,-73.8627,United States,US,True,strict,Private room,2004,$739 ,$148 ,1.0,224,2/9/2022,4.59,2,6,11,,
31371208,Special discount - Cozy NY Apartment in Brooklyn,17240988801,unconfirmed,Rhonda,Brooklyn,Cypress Hills,40.67617,-73.89339,United States,US,True,flexible,Entire home/apt,2017,$838 ,$168 ,3.0,104,2/9/2022,2.23,3,3,279,,
31371761,Spacious room with all amenities.,41287298681,verified,Ira,Brooklyn,Midwood,40.62223,-73.95626,United States,US,True,strict,Private room,2003,"$1,199 ",$240 ,2.0,8,2/9/2022,1.64,4,1,145,,
31372313,Peace and Happiness In Park Slope,24474704920,verified,Nina,Brooklyn,Park Slope,40.66995,-73.97994,United States,US,False,flexible,Entire home/apt,2006,$728 ,$146 ,2.0,137,2/9/2022,3.17,2,4,32,,
31372865,HIGH END QUEEN BED -EXPOSED BRICK IN WILLIAMSBURG,25212793713,verified,Drew And Cherri,Brooklyn,Williamsburg,40.71111,-73.96481999999999,United States,US,False,flexible,Private room,2007,$312 ,$62 ,3.0,93,2/9/2022,2.11,2,2,347,,
31373418,Bayhouse - Two bedroom home on B92nd St!,81378997163,verified,Jessica,Queens,Rockaway Beach,40.58866,-73.81553000000001,United States,US,False,strict,Entire home/apt,2021,$469 ,$94 ,2.0,68,2/9/2022,2.73,3,1,323,,
31373970,Stylish Duplex Apartment with Private Back Yard!,33444711605,verified,Bryan,Brooklyn,Bushwick,40.69447,-73.91389000000001,United States,US,False,flexible,Entire home/apt,2008,$167 ,$33 ,3.0,67,2/9/2022,1.66,2,1,331,,
31374522,Private guest suite on magnificent Brooklyn block,92872785683,unconfirmed,Reuven,Brooklyn,Crown Heights,40.66838,-73.94601,United States,US,False,flexible,Entire home/apt,2011,$955 ,$191 ,3.0,45,2/9/2022,1.2,3,2,349,,
31375075,Huge Bedroom w/bathroom next to Columbia U!,18727806117,verified,Ludina,Manhattan,Harlem,40.80735,-73.95546,United States,US,False,strict,Private room,2019,$186 ,$37 ,1.0,118,2/9/2022,3.51,2,2,187,,
31375627,Comfy room close to M train. 18mins to Manhattan,92222862432,verified,Carmen,Queens,Ridgewood,40.70329,-73.90668000000001,United States,US,False,moderate,Private room,2015,$658 ,$132 ,7.0,19,2/9/2022,0.68,3,2,178,,
31376179,"Nolitan Hotel, Balcony Room",10976643413,unconfirmed,Nolitan,Manhattan,Little Italy,40.71999,-73.99629,United States,US,True,moderate,Private room,2004,$584 ,$117 ,1.0,74,2/9/2022,4.12,4,3,214,,
31376731,(2RW) Perfect Chelsea Studio In Flower District,37452124943,unconfirmed,Isaac,Manhattan,Chelsea,40.74684,-73.99207,United States,US,False,moderate,Entire home/apt,2018,$334 ,$67 ,30.0,5,2/9/2022,0.31,2,14,324,,
31377284,In the heart of brooklyn,74091943617,verified,Celestino,Brooklyn,East New York,40.66245,-73.89806999999999,United States,US,True,strict,Entire home/apt,2012,$148 ,$30 ,3.0,43,2/9/2022,1.52,2,2,365,,
31377836,"Modern, high End Apt- Hudson Yards&Penn Station",44216790489,verified,Matt,Manhattan,Chelsea,40.75264,-73.9956,United States,US,True,strict,Entire home/apt,2022,$745 ,$149 ,3.0,71,2/9/2022,2.72,2,1,85,,
31378388,Well-appointed studio apt in Shopping district,60337460160,verified,Adam,Manhattan,Midtown,40.761959999999995,-73.97021,United States,US,True,flexible,Entire home/apt,2006,$590 ,$118 ,3.0,85,2/9/2022,3.24,3,4,15,,
31378941,Spacious Manhattan Room Near Columbia University,75160390319,unconfirmed,Yuan,Manhattan,Harlem,40.828140000000005,-73.94794,United States,US,True,moderate,Private room,2016,$887 ,$177 ,1.0,37,2/9/2022,2.07,2,3,113,,
31379493,Super Luxury Upper East Side STUDIO ~W&D in unit~,578749921,unconfirmed,Jt,Manhattan,Upper East Side,40.773270000000004,-73.94802,United States,US,False,flexible,Entire home/apt,2020,"$1,127 ",$225 ,30.0,4,2/9/2022,0.28,5,59,127,,
31380045,Manhattan Executive Suite,88229428321,verified,Don,Manhattan,Hell's Kitchen,40.76226,-73.997,United States,US,False,moderate,Entire home/apt,2020,$867 ,$173 ,1.0,27,2/9/2022,1.96,3,2,8,,
31380598,Mini Condo/VIP/Lounge Yacht,67410847922,unconfirmed,Michael,Queens,Arverne,40.596109999999996,-73.78868,United States,US,True,flexible,Entire home/apt,2021,$764 ,$153 ,1.0,23,2/9/2022,1.64,4,1,358,,
31381150,Suite Dreams in Brooklyn,26537909490,unconfirmed,Makenzie,Brooklyn,Bushwick,40.688340000000004,-73.90868,United States,US,True,strict,Private room,2003,$111 ,$22 ,1.0,77,2/9/2022,5.46,4,3,89,,
31381702,Central Park Apartments Furnished Rental 20,11550242975,verified,JRAC Manhattan Realty,Manhattan,Upper West Side,40.7976,-73.96189,United States,US,True,flexible,Entire home/apt,2019,$363 ,$73 ,30.0,4,2/9/2022,0.42,4,34,109,,
31382254,(G1/A) Bushwick Garden Share,37314733924,unconfirmed,Linda,Brooklyn,Bedford-Stuyvesant,40.691829999999996,-73.93082,United States,US,True,strict,Shared room,2015,$515 ,$103 ,4.0,4,2/9/2022,0.47,3,4,23,,
31382807,Central Park Apt's -Furnished Full bed studio  28,51179408136,unconfirmed,JRAC Manhattan Realty,Manhattan,Upper West Side,40.79787,-73.96333,United States,US,True,strict,Entire home/apt,2008,"$1,055 ",$211 ,30.0,4,2/9/2022,0.65,5,34,144,,
31383359,Private Room in Historic House with Yard,61048935712,verified,Steve,Brooklyn,Bushwick,40.70002,-73.92011,United States,US,False,flexible,Private room,2009,$266 ,$53 ,1.0,34,2/9/2022,4.0,3,5,87,,
31383911,"Cozy SoHo Duplex 2br/2ba, Sleeps 8, Best Area!",845297289,unconfirmed,Andy,Manhattan,East Village,40.72317,-73.98915,United States,US,False,moderate,Entire home/apt,2012,$946 ,$189 ,1.0,20,2/9/2022,3.09,5,1,293,,
31384464,Hudson Yards 2BR Luxury (VIEWS),51508886138,verified,New York,Manhattan,Chelsea,40.75329,-74.00192,United States,US,True,moderate,Entire home/apt,2005,$459 ,$92 ,1.0,13,2/9/2022,2.06,5,7,322,,
31385016,"Bedroom in Hudson Yards, 63F2",98221905362,verified,Hudson,Manhattan,Hell's Kitchen,40.75608,-73.99813,United States,US,False,moderate,Private room,2008,$533 ,$107 ,30.0,3,2/9/2022,0.52,3,22,90,,
31385568,Private bedroom with walk in closet& working space,60079748379,verified,Yvette,Queens,Long Island City,40.74576,-73.95432,United States,US,True,flexible,Private room,2005,"$1,134 ",$227 ,3.0,11,2/9/2022,1.75,4,3,73,,
31386121,Lovely room in lively Crown Heights,27012151587,unconfirmed,Rio,Brooklyn,Crown Heights,40.67238,-73.95331,United States,US,False,moderate,Private room,2016,$786 ,$157 ,1.0,15,2/9/2022,3.54,2,3,72,,
31386673,Lovely NYC Apt‚òÖLaGuardia Airport 15 min |‚ôõKing Bed,67813517946,verified,Opulence Oasis,Manhattan,East Harlem,40.80037,-73.94338,United States,US,False,flexible,Entire home/apt,2014,$963 ,$193 ,1.0,27,2/9/2022,4.68,2,2,352,,
31387225,100 Years Old  New York Traditional Townhouse,28853293632,verified,Huan (Rose),Queens,Woodhaven,40.69481,-73.85539,United States,US,False,moderate,Entire home/apt,2009,$497 ,$99 ,1.0,2,2/9/2022,0.57,2,5,146,,
31387777,Lovely one bedroom in Queens,35744843951,unconfirmed,Karen,Queens,Astoria,40.76659,-73.92543,United States,US,False,moderate,Private room,2015,$883 ,$177 ,1.0,16,2/9/2022,3.58,3,17,265,,
31388330,Beautifully & Chic Midtown-East Studio with Patio,7078127578,verified,Michelle,Manhattan,Midtown,40.75029,-73.97129,United States,US,True,flexible,Entire home/apt,2021,$679 ,$136 ,1.0,8,2/9/2022,2.79,3,9,23,,
31388882,Fully Furnished 1 BR Apartment in Columbus Circle,52455638084,unconfirmed,Avi,Manhattan,Midtown,40.76533,-73.98373000000001,United States,US,False,strict,Entire home/apt,2011,$353 ,$71 ,30.0,1,2/9/2022,1.0,2,63,248,,
31389434,Leslie,45339458589,verified,Julio,Queens,Rosedale,40.655440000000006,-73.72142,United States,US,False,moderate,Private room,2011,$745 ,$149 ,1.0,1,2/9/2022,1.0,5,2,365,,
31389987,1 furnished cozy bedroom casa with free parking,62994224568,unconfirmed,Asumoh,Bronx,Baychester,40.875479999999996,-73.8441,United States,US,False,strict,Private room,2014,$314 ,$63 ,2.0,13,2/9/2022,5.2,2,2,359,,
31390539,3 Bedroom Apartment,55717903977,verified,Kerlly,Brooklyn,Sunset Park,40.66126,-73.99709,United States,US,False,flexible,Entire home/apt,2004,"$1,104 ",$221 ,2.0,2,2/9/2022,1.36,3,2,23,,
31391091,Snug & Cozy Room || Park Slope,41502028208,verified,Sayra,Brooklyn,Sunset Park,40.65943,-73.99019,United States,US,False,strict,Private room,2009,$797 ,$159 ,1.0,3,2/9/2022,1.41,4,5,152,,
31391644,West Village LUXURY Apartment,65456331149,verified,Alex,Manhattan,West Village,40.73898,-74.00133000000001,United States,US,True,moderate,Entire home/apt,2004,"$1,007 ",$201 ,2.0,2,2/9/2022,0.98,4,1,168,,
31392196,Studio basement apt,38659324109,unconfirmed,Kervin,Bronx,Throgs Neck,40.827290000000005,-73.82451,United States,US,False,strict,Entire home/apt,2005,$475 ,$95 ,1.0,3,2/9/2022,1.96,5,1,193,,
31392748,Amazing 1bedroom in a 2 bedroom apartment brooklyn,6852692874,verified,Conor,Brooklyn,Crown Heights,40.67411,-73.95132,United States,US,False,flexible,Private room,2015,$798 ,$160 ,1.0,1,2/9/2022,1.0,5,1,355,,
31393300,Extravagant‚≠êÔ∏è Luxury Bedroom Villa FREE PARKING NYC,29892156725,verified,Pree,Brooklyn,East Flatbush,40.6441,-73.95101,United States,US,True,moderate,Entire home/apt,2006,$903 ,$181 ,1.0,1,2/9/2022,1.0,2,3,361,,
31393853,Lovely Cozy Room Near Prospect Park Brooklyn NYC,86135900225,unconfirmed,Carol,Brooklyn,Prospect-Lefferts Gardens,40.66039,-73.94263000000001,United States,US,True,flexible,Private room,2014,$492 ,$98 ,1.0,1,2/9/2022,1.0,3,17,363,,
31394405,Cozy Garden Apartment  in Williamsburg,43218619249,verified,Adrienne,Brooklyn,Williamsburg,40.71516,-73.96448000000001,United States,US,True,strict,Entire home/apt,2015,$563 ,$113 ,30.0,73,2/8/2022,0.54,4,1,37,,
31394957,Style in Stuyvesant Heights,53118078912,verified,Roberta,Brooklyn,Bedford-Stuyvesant,40.68462,-73.92895,United States,US,True,flexible,Entire home/apt,2004,$496 ,$99 ,30.0,87,2/8/2022,0.69,3,1,260,,
31395510,Boerum Hill Brownstone Garden Duplx,27761608827,unconfirmed,Tiffany,Brooklyn,Boerum Hill,40.68607,-73.98074,United States,US,True,flexible,Entire home/apt,2004,$753 ,$151 ,3.0,201,2/8/2022,1.7,4,1,3,,
31396062,Downtown Manhattan Luxury 1 Bedroom,29548683323,verified,Justin,Manhattan,Chelsea,40.7423,-73.99472,United States,US,False,moderate,Entire home/apt,2013,$241 ,$48 ,30.0,6,2/8/2022,0.08,5,1,33,,
31396614,Charming Parlor Apt off Bleecker,41222518534,verified,Evelyn,Manhattan,West Village,40.731,-74.00346,United States,US,True,strict,Entire home/apt,2017,$453 ,$91 ,1.0,213,2/8/2022,2.15,3,5,61,,
31397167,Large Private BR in Hell's Kitchen,8716121796,unconfirmed,Pat,Manhattan,Hell's Kitchen,40.76316,-73.99135,United States,US,False,strict,Private room,2006,$243 ,$49 ,5.0,194,2/8/2022,2.06,5,2,81,,
31397719,Times Square Area Quiet + Private Guest Studio,70021241659,unconfirmed,Michal,Manhattan,Hell's Kitchen,40.759370000000004,-73.99161,United States,US,False,moderate,Entire home/apt,2007,$903 ,$181 ,3.0,127,2/8/2022,2.38,5,3,140,,
31398271,Classic Brownstone Apartment,35655492664,unconfirmed,Julia,Manhattan,Harlem,40.80988,-73.94403,United States,US,False,flexible,Entire home/apt,2017,$764 ,$153 ,2.0,281,2/8/2022,3.44,3,1,200,,
31398823,Backyard Private Dog Oasis & Boho Chic 1 Bedroom,30734134657,verified,Mark,Brooklyn,Clinton Hill,40.68316,-73.96092,United States,US,False,moderate,Entire home/apt,2020,$978 ,$196 ,30.0,2,2/8/2022,0.13,3,1,52,,
31399376,Strawberry Fields,91665668287,verified,Kenneth,Manhattan,Upper West Side,40.77929,-73.98068,United States,US,False,moderate,Entire home/apt,2015,$641 ,$128 ,4.0,124,2/8/2022,1.49,5,1,105,,
31399928,A beautiful and friendly beach area,98048815369,unconfirmed,Oleg,Brooklyn,Manhattan Beach,40.57817,-73.95277,United States,US,False,strict,Entire home/apt,2011,$831 ,$166 ,5.0,86,2/8/2022,1.08,3,1,171,,
31400480,Sunny and Roomy Hell's Kitchen Studio - LOCATION!,96864094806,unconfirmed,Rachel,Manhattan,Hell's Kitchen,40.76582,-73.98495,United States,US,False,moderate,Entire home/apt,2004,"$1,066 ",$213 ,30.0,29,2/8/2022,0.36,3,1,44,,
31401033,Sunny family-friendly Brooklyn 2-br with parking,43708757099,unconfirmed,Michal,Brooklyn,Gowanus,40.670770000000005,-73.98919000000001,United States,US,False,strict,Entire home/apt,2016,$514 ,$103 ,30.0,221,2/8/2022,2.75,4,1,207,,
31401585,Library BnB by the Park  - Upper West Side,72318423116,verified,MaElena,Manhattan,Upper West Side,40.80122,-73.96207,United States,US,False,moderate,Private room,2014,$773 ,$155 ,2.0,94,2/8/2022,1.38,4,2,326,,
31402137,"Bright 2 bedroom aparment, Bushwick",50726700290,unconfirmed,Raquel,Brooklyn,Bushwick,40.69528,-73.92184,United States,US,True,moderate,Entire home/apt,2007,$77 ,$15 ,5.0,110,2/8/2022,1.54,2,2,334,,
31402690,FILM & PHOTOGRAPHY LOCATION ONLY,87213388575,verified,Steed,Manhattan,Harlem,40.83115,-73.94824,United States,US,True,flexible,Entire home/apt,2006,"$1,086 ",$217 ,2.0,5,2/8/2022,0.07,2,5,364,,
31403242,nice apt condo w/ parking,75453795376,unconfirmed,Gerald,Staten Island,Concord,40.60944,-74.0869,United States,US,False,strict,Private room,2010,"$1,030 ",$206 ,5.0,54,2/8/2022,0.8,4,1,345,,
31403794,Private whole apartment- 10 min from Manhattan!,54845569880,verified,Caroline,Queens,East Elmhurst,40.75741,-73.89471999999999,United States,US,False,moderate,Entire home/apt,2019,$816 ,$163 ,3.0,163,2/8/2022,2.44,4,3,285,,
31404346,Bright Loft Room in a Charming Brooklyn Apartment,57242142070,verified,Aracelis,Brooklyn,Williamsburg,40.71293,-73.93972,United States,US,True,strict,Private room,2018,$744 ,$149 ,4.0,73,2/8/2022,1.11,2,5,253,,
31404899,Townhouse Suite Overlooking Private Gardens,58528607965,verified,Diane And Ward,Manhattan,Upper East Side,40.76643,-73.96124,United States,US,False,moderate,Entire home/apt,2021,"$1,081 ",$216 ,3.0,126,2/8/2022,1.97,5,2,0,,
31405451,Sunny private room in Homecrest Ave Brooklyn,84518350661,verified,Sam,Brooklyn,Sheepshead Bay,40.59453,-73.95732,United States,US,True,flexible,Private room,2016,"$1,151 ",$230 ,2.0,111,2/8/2022,1.8,2,3,40,,
31406003,Cozy Brownstone Apartment in South Harlem,24217485750,verified,Doron,Manhattan,Harlem,40.80567,-73.94971,United States,US,True,flexible,Entire home/apt,2012,$700 ,$140 ,30.0,13,2/8/2022,0.26,2,3,182,,
31406556,Your Own Private & Safe Social Distancing Space,35977050979,verified,Patricia & Marc,Brooklyn,Bushwick,40.69486,-73.92305999999999,United States,US,False,strict,Entire home/apt,2016,$60 ,$12 ,27.0,38,2/8/2022,0.75,4,1,195,,
31407108,Private Room on Greene,90986284702,verified,Nate,Brooklyn,Bedford-Stuyvesant,40.69102,-73.93308,United States,US,False,moderate,Private room,2011,$537 ,$107 ,2.0,68,2/8/2022,1.34,4,6,363,,
31407660,"Private basement suite on Striver's Row, Harlem",96450721672,verified,Jake,Manhattan,Harlem,40.81738,-73.94317,United States,US,True,moderate,Entire home/apt,2016,"$1,068 ",$214 ,30.0,58,2/8/2022,1.24,4,1,180,,
31408213,BEST DEAL in NYC - Cute and Cozy Room Times Square,1473619954,unconfirmed,Prav,Manhattan,Hell's Kitchen,40.75727,-73.98994,United States,US,False,moderate,Private room,2016,$996 ,$199 ,3.0,182,2/8/2022,4.01,3,3,149,,
31408765,Charming spacious garden level apt,94408079597,unconfirmed,Sarah,Brooklyn,Flatbush,40.64045,-73.9534,United States,US,True,moderate,Entire home/apt,2010,"$1,027 ",$205 ,30.0,95,2/8/2022,2.18,2,2,269,,
31409317,KING Room w Private Entrance - Times Square,45621205553,unconfirmed,Prav,Manhattan,Hell's Kitchen,40.7592,-73.99125,United States,US,False,moderate,Private room,2017,$968 ,$194 ,3.0,169,2/8/2022,3.96,5,3,169,,
31409869,Elegant 4 Bedroom 2.5 Bath with Contemporary Charm,9725859218,unconfirmed,Charmine,Brooklyn,Crown Heights,40.672270000000005,-73.93549,United States,US,False,flexible,Entire home/apt,2022,$117 ,$23 ,4.0,30,2/8/2022,0.71,5,3,83,,
31410422,Queens home in quiet neighborhood Room 2,7411047000,unconfirmed,Maria,Queens,St. Albans,40.70609,-73.76185,United States,US,False,moderate,Private room,2012,$384 ,$77 ,2.0,23,2/8/2022,0.56,4,2,269,,
31410974,Heart of Cobble Hill Duplex Apartment,73070940911,verified,Jon,Brooklyn,Cobble Hill,40.68736,-73.99224,United States,US,False,flexible,Entire home/apt,2006,$292 ,$58 ,4.0,7,2/8/2022,0.17,2,2,24,,
31411526,Prime West Village Boutique Apartment,75297846537,verified,Perry,Manhattan,West Village,40.73632,-74.00672,United States,US,False,strict,Entire home/apt,2003,$958 ,$192 ,30.0,19,2/8/2022,0.52,4,1,187,,
31412079,üåüüè†‚ù§Ô∏è Entire Cozy Apartment in a Private House  ‚ù§Ô∏è üóΩüåü,35060890267,verified,Jonathan,Bronx,Mount Hope,40.845240000000004,-73.90798000000001,United States,US,False,flexible,Entire home/apt,2015,$309 ,$62 ,25.0,13,2/8/2022,0.43,3,2,178,,
31412631,Spacious room with easy commute to Grand Central!,202177513,verified,Kaz,Queens,Woodside,40.74527,-73.90885,United States,US,False,flexible,Private room,2010,$989 ,$198 ,30.0,5,2/8/2022,0.18,5,161,356,,
31413183,Oceanfront Beach Bungalow,48320388714,unconfirmed,Samantha,Queens,Rockaway Beach,40.58323,-73.81456999999999,United States,US,False,moderate,Entire home/apt,2011,$321 ,$64 ,7.0,54,2/8/2022,1.5,3,2,152,,
31413736,Sunny Artist's Loft,26242624716,verified,Sancar,Brooklyn,Clinton Hill,40.69106,-73.96077,United States,US,True,strict,Entire home/apt,2020,$535 ,$107 ,30.0,9,2/8/2022,0.26,2,1,187,,
31414288,"Cozy Private Room, Walking Distance From LGA, Rm 4",4536282427,verified,Zahir,Queens,East Elmhurst,40.769420000000004,-73.87321999999999,United States,US,False,flexible,Private room,2003,$489 ,$98 ,1.0,156,2/8/2022,4.37,2,8,167,,
31414840,üåøCozy guest quartersüåæshared green yogi-palaceüçÉ,90088026023,unconfirmed,Haffro,Manhattan,East Village,40.72331,-73.98431,United States,US,False,strict,Private room,2014,$912 ,$182 ,2.0,65,2/8/2022,1.83,2,8,133,,
31415392,"BRIGHT, STUNNING ROOM WITH AMAZING VIEWS.",31247976911,unconfirmed,Clemente,Manhattan,Upper East Side,40.76205,-73.96478,United States,US,False,strict,Private room,2012,$859 ,$172 ,5.0,14,2/8/2022,0.4,4,1,83,,
31415945,Sunlit Design Loft 2bdroom,71887784604,verified,Jesse,Brooklyn,Williamsburg,40.705870000000004,-73.95515,United States,US,False,flexible,Entire home/apt,2009,$596 ,$119 ,3.0,97,2/8/2022,3.01,4,1,331,,
31416497,Artsy Guestroom in Harlem,148467235,verified,Stephanie,Manhattan,Harlem,40.79896,-73.95373000000001,United States,US,False,strict,Private room,2004,"$1,127 ",$225 ,3.0,57,2/8/2022,1.89,5,2,190,,
31417049,Teddy's Studios at 175,34149135664,unconfirmed,Amanda And Tanya,Bronx,City Island,40.85658,-73.79095,United States,US,True,moderate,Entire home/apt,2020,$930 ,$186 ,5.0,27,2/8/2022,0.96,2,1,114,,
31417602,Cozy apartment in Ozone Park (Queens) near JFK,37740205512,unconfirmed,Badal,Queens,Ozone Park,40.67373,-73.84479,United States,US,True,moderate,Entire home/apt,2022,$736 ,$147 ,3.0,27,2/8/2022,1.01,3,2,165,,
31418154,Clean quiet and nice Manhattan 25min,22598493261,unconfirmed,Dadrine,Brooklyn,East Flatbush,40.65597,-73.91668,United States,US,False,strict,Private room,2020,$584 ,$117 ,30.0,6,2/8/2022,0.32,2,17,339,,
31418706,Near Gramercy Park/ Private Entrance,14266407967,verified,H,Manhattan,Gramercy,40.734120000000004,-73.98862,United States,US,True,moderate,Private room,2005,"$1,100 ",$220 ,2.0,82,2/8/2022,3.49,4,1,68,,
31419259,Panoramic views of NYC in luxury. Travel or WFH!,8380489947,verified,Becky,Manhattan,Hell's Kitchen,40.758959999999995,-73.9959,United States,US,True,moderate,Entire home/apt,2022,$60 ,$12 ,30.0,6,2/8/2022,0.37,2,1,35,,
31419811,Historic Brooklyn Duplex with Modern Flair,97491188669,unconfirmed,Glenda,Brooklyn,Crown Heights,40.672109999999996,-73.93949,United States,US,False,strict,Entire home/apt,2004,$200 ,$40 ,3.0,16,2/8/2022,1.21,3,1,59,,
31420363,Golden,65154541541,unconfirmed,Ainsley,Brooklyn,Crown Heights,40.67564,-73.94371,United States,US,False,strict,Entire home/apt,2010,"$1,106 ",$221 ,2.0,32,2/8/2022,2.06,4,2,0,,
31420915,Cozy Bedroom in hip Hell's Kitchen  neighborhood.,12301514871,verified,Lourdes,Manhattan,Hell's Kitchen,40.763729999999995,-73.98934,United States,US,True,strict,Private room,2013,$765 ,$153 ,30.0,3,2/8/2022,0.27,2,5,248,,
31421468,Cozy twin bed & lots of natural light,17987921937,verified,Raphael,Manhattan,Upper West Side,40.80154,-73.96809,United States,US,False,moderate,Private room,2021,$841 ,$168 ,1.0,34,2/8/2022,3.05,5,2,9,,
31422020,Magnificent place in a heart of Midtown,65354673349,verified,Victoria,Manhattan,Theater District,40.759159999999994,-73.98532,United States,US,True,flexible,Entire home/apt,2016,$693 ,$139 ,30.0,5,2/8/2022,0.46,5,1,0,,
31422572,Green Room and Lounge,42134381286,verified,James,Manhattan,Upper West Side,40.80005,-73.96138,United States,US,False,moderate,Private room,2008,"$1,127 ",$225 ,2.0,19,2/8/2022,1.52,2,2,314,,
31423125,Charming boutique apt 15 min from Manhattan,1911592322,unconfirmed,Francis,Queens,Astoria,40.757709999999996,-73.92666,United States,US,False,strict,Entire home/apt,2008,"$1,007 ",$201 ,3.0,8,2/8/2022,1.28,3,1,7,,
31423677,Convenient and Close to Everything. - 13,19190275500,verified,Richard,Manhattan,Upper West Side,40.79956,-73.96502,United States,US,True,flexible,Private room,2015,$801 ,$160 ,2.0,21,2/8/2022,2.58,4,56,189,,
31424229,Renovated 2 1/2 Bedroom 1 Bath in Trendy Brooklyn,14354435612,verified,Gretchen,Brooklyn,Bedford-Stuyvesant,40.68807,-73.94144,United States,US,False,flexible,Entire home/apt,2020,$430 ,$86 ,14.0,6,2/8/2022,0.9,2,1,149,,
31424782,Fully equipped flat close to Times Square,96987693040,verified,Manuel Ricardo,Manhattan,Midtown,40.74667,-73.98899,United States,US,True,strict,Entire home/apt,2022,$951 ,$190 ,1.0,24,2/8/2022,3.33,5,3,67,,
31425334,UWS Brown stone apartment with private patio,78812825605,unconfirmed,Patricia,Manhattan,Upper West Side,40.79167,-73.96981,United States,US,False,flexible,Entire home/apt,2012,$417 ,$83 ,2.0,4,2/8/2022,0.56,4,2,116,,
31425886,Cozy Studio in Midtown Manhattan (Murray Hill),82752510729,unconfirmed,Andres,Manhattan,Murray Hill,40.746970000000005,-73.97504,United States,US,False,flexible,Entire home/apt,2012,"$1,041 ",$208 ,2.0,13,2/8/2022,2.15,2,1,6,,
31426438,"CoZy En-suite bath near F, G trains.",58644849750,unconfirmed,Chida,Brooklyn,Kensington,40.64165,-73.97976,United States,US,True,strict,Private room,2015,$525 ,$105 ,5.0,5,2/8/2022,0.93,5,4,69,,
31426991,Sonder Duane Street | Queen Room,28190481058,unconfirmed,Sonder (NYC),Manhattan,Tribeca,40.71513,-74.00808,United States,US,True,moderate,Private room,2011,$551 ,$110 ,2.0,5,2/8/2022,1.07,5,54,339,,
31427543,Spacious Private Bedroom in Sheepshead Bay,19115036949,verified,Alena,Brooklyn,Sheepshead Bay,40.583259999999996,-73.95683299999999,United States,US,False,moderate,Private room,2011,$335 ,$67 ,1.0,16,2/8/2022,2.57,2,1,85,,
31428095,Upgraded 1 bed room with beach view and Led lights,23120520285,verified,Joseph,Queens,Far Rockaway,40.59514,-73.763,United States,US,True,strict,Private room,2010,$993 ,$199 ,1.0,10,2/8/2022,1.96,3,1,180,,
31428648,Chic Spacious Manhattan Apartment with Fireplace,91725064486,unconfirmed,Brandyce,Manhattan,Harlem,40.81613,-73.93566,United States,US,False,moderate,Entire home/apt,2005,$857 ,$171 ,2.0,14,2/8/2022,2.88,4,2,339,,
31429200,Modern King room,5023238900,unconfirmed,Michael,Queens,Long Island City,40.75815,-73.93946,United States,US,True,strict,Private room,2006,"$1,137 ",$227 ,1.0,12,2/8/2022,2.71,3,6,364,,
31429752,Lovely Modern 2 Bed Duplex (UES),69222444432,verified,Thi Van Anh,Manhattan,Upper East Side,40.76895,-73.96144,United States,US,True,flexible,Entire home/apt,2018,$764 ,$153 ,2.0,8,2/8/2022,2.16,2,1,194,,
31430305,Cheerful top Floor (Townhouse) in Bushwick,31478318988,unconfirmed,Taryn,Brooklyn,Bushwick,40.6893,-73.90998,United States,US,True,strict,Entire home/apt,2006,$553 ,$111 ,2.0,5,2/8/2022,1.18,3,1,163,,
31430857,Charm with a view‚Ä¶,76846611531,verified,Christopher,Brooklyn,Greenpoint,40.73575,-73.95846,United States,US,True,moderate,Entire home/apt,2003,$711 ,$142 ,1.0,10,2/8/2022,2.68,2,1,119,,
31431409,Sun-Drenched 1BR w/PRIVATE BALCONY (Williamsburg!),68937733771,unconfirmed,Michael,Brooklyn,Williamsburg,40.71228,-73.96428,United States,US,False,flexible,Entire home/apt,2018,$612 ,$122 ,2.0,6,2/8/2022,1.38,5,2,0,,
31431961,The Little Paradise - New Owner,30707196587,verified,Nidal,Staten Island,Concord,40.605309999999996,-74.0827,United States,US,True,flexible,Private room,2019,$850 ,$170 ,1.0,5,2/8/2022,1.65,5,1,88,,
31432514,Spacious Loft Apartment in South Williamsburg,41694138204,verified,Vanessa,Brooklyn,Bedford-Stuyvesant,40.69882,-73.95116,United States,US,False,flexible,Entire home/apt,2003,$469 ,$94 ,5.0,2,2/8/2022,0.82,2,1,0,,
31433066,<B3> Bushwick Shared Room,76931329996,unconfirmed,Grace,Brooklyn,Bedford-Stuyvesant,40.69135776,-73.92586276,United States,US,True,strict,Shared room,2019,$743 ,$149 ,4.0,4,2/8/2022,1.46,5,6,166,,
31433618,Spacious Private Bedroom in Shared Apartment,78472007182,verified,Muhammed,Bronx,East Morrisania,40.83509,-73.88591,United States,US,False,moderate,Private room,2017,$460 ,$92 ,4.0,2,2/8/2022,1.71,4,2,330,,
31434171,Large Bedroom with Private Bath in East Flatbush,59797191689,verified,Stephon,Brooklyn,East Flatbush,40.64863,-73.92921,United States,US,False,strict,Private room,2017,$165 ,$33 ,30.0,1,2/8/2022,1.0,3,2,273,,
31434723,* ORIGINAL BROOKLYN LOFT *,64510706735,verified,James,Brooklyn,Williamsburg,40.70348,-73.93621,United States,US,False,flexible,Entire home/apt,2004,$938 ,$188 ,1.0,128,2/7/2022,0.86,4,1,150,,
31435275,"Chic, quiet 1BR with patio (steps from the subway)",23730606697,verified,Becky,Brooklyn,Crown Heights,40.671170000000004,-73.95716999999999,United States,US,False,flexible,Entire home/apt,2022,$284 ,$57 ,4.0,155,2/7/2022,1.4,2,1,177,,
31435828,Greenwich Village Townhouse Apt,77899361856,verified,Linda,Manhattan,West Village,40.73196,-74.00076,United States,US,True,strict,Entire home/apt,2009,$626 ,$125 ,30.0,120,2/7/2022,1.12,2,1,294,,
31436380,Fresh and modern 1BR in Bed-Stuy,8247146822,unconfirmed,Shaila & Alex,Brooklyn,Bedford-Stuyvesant,40.68589,-73.92974,United States,US,True,moderate,Entire home/apt,2018,$155 ,$31 ,2.0,261,2/7/2022,2.44,3,1,132,,
31436932,Amazing Spacious Room,44297423387,unconfirmed,Lord Daniel,Brooklyn,Bedford-Stuyvesant,40.68768,-73.95262,United States,US,True,flexible,Private room,2005,"$1,095 ",$219 ,10.0,77,2/7/2022,0.75,2,5,11,,
31437484,Central Park beauty,69583607168,unconfirmed,Stanton,Manhattan,Upper West Side,40.79071,-73.96779000000001,United States,US,False,moderate,Entire home/apt,2008,"$1,033 ",$207 ,90.0,29,2/7/2022,0.31,4,4,294,,
31438037,Sunny West Village Apartment on MacDougal Street,54222570841,unconfirmed,,Manhattan,Greenwich Village,40.730579999999996,-74.0007,United States,US,True,strict,Entire home/apt,2003,$995 ,$199 ,30.0,50,2/7/2022,0.52,3,1,87,,
31438589,Spacious Studio in my new smart house,10088665494,unconfirmed,Dorina,Queens,Middle Village,40.715579999999996,-73.88233000000001,United States,US,False,strict,Entire home/apt,2022,"$1,025 ",$205 ,4.0,234,2/7/2022,2.52,2,2,305,,
31439141,Studio loft - Williamsburg/Bushwick,20084636630,unconfirmed,Enrico,Brooklyn,Williamsburg,40.713359999999994,-73.93696,United States,US,False,flexible,Entire home/apt,2007,$421 ,$84 ,2.0,200,2/7/2022,2.35,2,2,302,,
31439694,Sunny & Modern 1-BR | Central Park/ROOMBA CLEANER,63707648069,unconfirmed,AFI Apartments,Manhattan,Upper East Side,40.77288,-73.95711,United States,US,False,flexible,Entire home/apt,2012,$992 ,$198 ,30.0,10,2/7/2022,0.12,4,30,228,,
31440246,"Bright & New Reno, Quiet Block",20035033146,unconfirmed,Benjamin,Brooklyn,Clinton Hill,40.68362,-73.96014,United States,US,False,moderate,Entire home/apt,2008,$869 ,$174 ,30.0,16,2/7/2022,0.18,2,19,193,,
31440798,...New lower rates for low season!!,25099925844,unconfirmed,Angelo,Queens,Ditmars Steinway,40.77364,-73.91986999999999,United States,US,True,strict,Private room,2019,"$1,183 ",$237 ,1.0,252,2/7/2022,2.74,4,4,322,,
31441351,Entire 2BR APT (not a railroad),38498896655,verified,Amanda,Brooklyn,Williamsburg,40.70832,-73.95588000000001,United States,US,False,flexible,Entire home/apt,2009,$72 ,$14 ,2.0,218,2/7/2022,2.77,5,1,32,,
31441903,Livin' La Vida Brooklyn (w/ Backyard!),2515323010,verified,Bellamy,Brooklyn,Bedford-Stuyvesant,40.69073,-73.94072,United States,US,False,flexible,Entire home/apt,2005,"$1,066 ",$213 ,2.0,171,2/7/2022,3.34,4,1,126,,
31442455,Charming Furnished Private Room,70218376781,verified,Rosa,Brooklyn,Greenpoint,40.72998,-73.95375,United States,US,True,flexible,Private room,2011,$836 ,$167 ,3.0,129,2/7/2022,1.58,5,2,182,,
31443007,Upper East Cozy studio close to NYC Hospitals,63602042930,unconfirmed,The Local Stay,Manhattan,Upper East Side,40.775040000000004,-73.95357,United States,US,True,strict,Entire home/apt,2012,$447 ,$89 ,30.0,20,2/7/2022,0.24,2,48,281,,
31443560,Manhattan Columbia Sunny & Peaceful Studio Aprtmt,3697955457,verified,Tom,Manhattan,Harlem,40.80832,-73.95533,United States,US,True,flexible,Entire home/apt,2009,$346 ,$69 ,4.0,128,2/7/2022,2.02,2,4,91,,
31444112,Sunny Room W/ PRIVATE BATH,61170546559,verified,Chao,Brooklyn,Bedford-Stuyvesant,40.68744,-73.93659,United States,US,False,strict,Private room,2004,$874 ,$175 ,3.0,127,2/7/2022,1.54,5,1,57,,
31444664,Brand NEW built luxury Apartment (No extra fees),11422966491,verified,Gregory,Queens,Astoria,40.76385,-73.92604,United States,US,True,moderate,Entire home/apt,2012,$346 ,$69 ,2.0,32,2/7/2022,0.39,3,1,365,,
31445217,Affordable Luxury Minutes to Manhattan,17184475261,unconfirmed,Ayman,Staten Island,West Brighton,40.62872,-74.12154,United States,US,False,strict,Entire home/apt,2021,"$1,135 ",$227 ,3.0,196,2/7/2022,2.51,2,1,325,,
31445769,Peaceful Bohemian Studio,78461328103,unconfirmed,Saadia,Manhattan,Harlem,40.79855,-73.9532,United States,US,False,strict,Entire home/apt,2021,"$1,120 ",$224 ,30.0,41,2/7/2022,0.56,5,1,291,,
31446321,Deluxe Brooklyn Loft,33541935935,unconfirmed,Henry Norman,Brooklyn,Greenpoint,40.72858,-73.94534,United States,US,False,flexible,Entire home/apt,2008,$666 ,$133 ,3.0,28,2/7/2022,0.37,2,14,282,,
31446874,Private studio apartment,45151560161,unconfirmed,Raquel,Brooklyn,Bushwick,40.69343,-73.92257,United States,US,True,flexible,Entire home/apt,2003,$757 ,$151 ,5.0,148,2/7/2022,2.04,5,2,326,,
31447426,"Charming 1-Bed Apt, Brooklyn",68403705210,verified,Valerie Lynn-McDonough,Brooklyn,Bay Ridge,40.6342,-74.02396999999999,United States,US,True,strict,Entire home/apt,2014,$763 ,$153 ,30.0,11,2/7/2022,0.16,5,1,255,,
31447978,The Brooklyn RedStone,31946590634,unconfirmed,Terrie,Brooklyn,Bedford-Stuyvesant,40.68638,-73.92924000000001,United States,US,True,flexible,Entire home/apt,2017,$881 ,$176 ,3.0,74,2/7/2022,1.92,2,1,14,,
31448530,Cozy and close to Manhattan,57899392377,verified,Vytaute,Queens,Ridgewood,40.700790000000005,-73.90319000000001,United States,US,False,flexible,Entire home/apt,2022,$840 ,$168 ,30.0,151,2/7/2022,2.26,4,1,169,,
31449083,Large UWS Apt close to Central Park,19425783521,verified,Jenny,Manhattan,Upper West Side,40.80062,-73.96219,United States,US,False,moderate,Private room,2016,$664 ,$133 ,7.0,78,2/7/2022,1.29,2,2,249,,
31449635,Charming 2BR--20 min to Manhattan,74608205090,verified,Dorion,Brooklyn,Bushwick,40.683640000000004,-73.90698,United States,US,True,moderate,Entire home/apt,2017,"$1,090 ",$218 ,4.0,174,2/7/2022,2.7,4,1,36,,
31450187,Airy and Bright Double Room,26192195125,verified,Juan,Bronx,Parkchester,40.82931,-73.87684,United States,US,False,flexible,Private room,2005,"$1,055 ",$211 ,2.0,140,2/7/2022,2.38,3,4,22,,
31450740,Modern Beautiful Duplex - Central Park North,21690901786,verified,Alex,Manhattan,Harlem,40.808040000000005,-73.95228,United States,US,False,flexible,Entire home/apt,2016,"$1,007 ",$201 ,21.0,55,2/7/2022,0.97,5,1,1,,
31451292,Modern and Private Duplex Apartment,63680068383,unconfirmed,Robert,Brooklyn,Gowanus,40.68099,-73.99146999999999,United States,US,True,flexible,Entire home/apt,2022,$478 ,$96 ,30.0,70,2/7/2022,1.32,5,1,137,,
31451844,Cozy 1BR APT in the heart of Astoria,38260945614,verified,Rhita,Queens,Astoria,40.76597,-73.92489,United States,US,False,strict,Private room,2008,$210 ,$42 ,1.0,290,2/7/2022,5.33,2,1,179,,
31452397,Quaint Studio Space,97001748581,verified,Niecia,Brooklyn,East New York,40.66923,-73.88367,United States,US,True,moderate,Entire home/apt,2009,$850 ,$170 ,1.0,138,2/7/2022,3.06,5,1,180,,
31452949,Great private  room available in Prospect Heights!,22964627422,verified,Andre,Brooklyn,Crown Heights,40.67498,-73.96007,United States,US,True,moderate,Private room,2012,$207 ,$41 ,3.0,11,2/7/2022,1.15,4,1,277,,
31453501,Room 6 - Comfy Bed in Historic Victorian Home,59954237441,unconfirmed,Elizabeth,Brooklyn,Flatbush,40.64439,-73.96869000000001,United States,US,True,strict,Private room,2017,$194 ,$39 ,3.0,114,2/7/2022,2.46,5,5,63,,
31454053,Brooklyn Home convenient to everywhere,94448038808,verified,Jian,Brooklyn,Sunset Park,40.638940000000005,-74.0088,United States,US,False,flexible,Private room,2009,$165 ,$33 ,3.0,36,2/7/2022,0.83,3,2,126,,
31454606,"Beautifull Large 1bd Apartm, 15 min to Manhattan.",18924393895,unconfirmed,Sammy,Queens,Sunnyside,40.744409999999995,-73.92341,United States,US,True,strict,Entire home/apt,2015,$381 ,$76 ,2.0,137,2/7/2022,3.28,5,1,136,,
31455158,Your home away from home!!,6003136138,unconfirmed,Wendy,Brooklyn,Crown Heights,40.675909999999995,-73.93908,United States,US,True,strict,Entire home/apt,2011,$308 ,$62 ,30.0,76,2/7/2022,1.83,5,1,219,,
31455710,Beautiful 1.5 bedroom in Bed Stuy Brownstone.,66140917286,unconfirmed,Vida,Brooklyn,Bedford-Stuyvesant,40.686009999999996,-73.93455,United States,US,True,moderate,Entire home/apt,2005,$321 ,$64 ,30.0,77,2/7/2022,1.86,3,1,71,,
31456263,Private Large New 1 br w/soaking tub   Brownstone,21847200273,unconfirmed,Ali,Brooklyn,Bedford-Stuyvesant,40.68502,-73.94318,United States,US,False,flexible,Entire home/apt,2019,$245 ,$49 ,4.0,21,2/7/2022,0.53,4,1,0,,
31456815,Brooklyn modern studio apartment!,33720817678,verified,James And Laureta,Brooklyn,Bedford-Stuyvesant,40.68355,-73.95401,United States,US,False,flexible,Entire home/apt,2018,$427 ,$85 ,1.0,135,2/7/2022,3.8,5,7,209,,
31457367,New Family friendly home  in Staten island!,53707348677,unconfirmed,Arkady,Staten Island,Grymes Hill,40.61483,-74.08846,United States,US,True,flexible,Entire home/apt,2016,$966 ,$193 ,5.0,21,2/7/2022,0.62,4,1,129,,
31457920,Mid Century modern room  1 minute to Subway,26686479007,verified,Patnaree,Brooklyn,Bedford-Stuyvesant,40.68809,-73.95651,United States,US,False,moderate,Private room,2010,$547 ,$109 ,2.0,95,2/7/2022,2.83,4,7,272,,
31458472,"Boutique Bedstuy Oasis, Bed & Bistro",22847571015,unconfirmed,Hadiza,Brooklyn,Bedford-Stuyvesant,40.68869,-73.94618,United States,US,True,flexible,Entire home/apt,2004,"$1,150 ",$230 ,2.0,25,2/7/2022,0.92,4,1,119,,
31459024,1 bedroom sanctuary in Brooklyn,93167699876,unconfirmed,Claire,Brooklyn,Crown Heights,40.674609999999994,-73.96244,United States,US,True,strict,Entire home/apt,2007,"$1,199 ",$240 ,4.0,8,2/7/2022,0.55,5,1,32,,
31459576,"Nolitan Hotel, Neighborhood Room",68819854347,verified,Nolitan,Manhattan,Little Italy,40.71965,-73.99644,United States,US,True,flexible,Private room,2003,$773 ,$155 ,1.0,45,2/7/2022,2.44,4,3,302,,
31460129,Sweet Sunny Apt in prime Park Slope  Location,652208764,verified,Jo-Ann,Brooklyn,Park Slope,40.674409999999995,-73.98326,United States,US,False,moderate,Entire home/apt,2014,$475 ,$95 ,30.0,33,2/7/2022,1.01,3,1,203,,
31460681,little Oasis in New York artistic best Bushwick,50039076564,unconfirmed,Marc,Brooklyn,Bushwick,40.700359999999996,-73.92452,United States,US,False,flexible,Entire home/apt,2006,$817 ,$163 ,30.0,35,2/7/2022,1.11,2,4,305,,
31461233,PRIVATE CLEAN ROOM IN BAYRIDGE 4,94510954934,verified,Sam,Brooklyn,Bay Ridge,40.62364,-74.02114,United States,US,True,moderate,Private room,2017,$778 ,$156 ,2.0,87,2/7/2022,2.85,5,5,84,,
31461786,,73244505272,unconfirmed,Felipe,Queens,Elmhurst,40.73529,-73.87755,United States,US,True,moderate,Private room,2008,$242 ,$48 ,2.0,75,2/7/2022,2.52,2,1,59,,
31462338,Harlem 420 Marijuana Consumption Room @ Castle 351,15841617563,verified,Sidney,Manhattan,Harlem,40.80858,-73.9555,United States,US,False,strict,Private room,2012,$175 ,$35 ,2.0,5,2/7/2022,0.19,3,3,89,,
31462890,Clean and cozy apartment,47235406391,unconfirmed,Julie Ann,Staten Island,Grymes Hill,40.6102,-74.09121999999999,United States,US,True,moderate,Entire home/apt,2003,"$1,151 ",$230 ,2.0,65,2/7/2022,2.41,4,1,119,,
31463443,Sonder at One Platt | One-Bedroom Apartment,30591070672,verified,Sonder (NYC),Manhattan,Financial District,40.70797,-74.00681999999999,United States,US,True,flexible,Entire home/apt,2007,$555 ,$111 ,2.0,14,2/7/2022,0.53,2,54,347,,
31463995,Midtown Executive Apt Grand Central,69391897612,unconfirmed,Stay With Vibe,Manhattan,Murray Hill,40.75112,-73.9786,United States,US,False,strict,Entire home/apt,2014,"$1,143 ",$229 ,30.0,4,2/7/2022,0.17,2,108,343,,
31464547,A+ Location Deluxe Queen Studio(2 Beds & Futon) #5,67540419120,unconfirmed,Nomad,Manhattan,Midtown,40.74836,-73.98676999999999,United States,US,False,flexible,Entire home/apt,2015,$833 ,$167 ,1.0,42,2/7/2022,2.04,3,53,153,,
31465099,Newly Reno studio Gramercy~ W/D in unit~Best Value,30751234159,unconfirmed,Eran,Manhattan,Kips Bay,40.73813,-73.98133,United States,US,False,flexible,Entire home/apt,2022,$964 ,$193 ,30.0,4,2/7/2022,0.22,5,62,217,,
31465652,Cozy independent Room close to Manhattan,53863522145,verified,Rony,Bronx,Morris Heights,40.8531,-73.91942,United States,US,False,strict,Entire home/apt,2022,$784 ,$157 ,2.0,27,2/7/2022,1.38,5,4,162,,
31466204,,36877860757,verified,Fernando,Manhattan,Chelsea,40.74127,-74.00121,United States,US,True,moderate,Private room,2016,$949 ,$190 ,2.0,70,2/7/2022,3.57,5,2,89,,
31466756,Quiet Room at walking distance to Central Park!,2785969671,unconfirmed,Reine,Manhattan,Harlem,40.81667,-73.94253,United States,US,False,strict,Private room,2016,$258 ,$52 ,1.0,94,2/7/2022,4.79,5,1,352,,
31467309,"Delightful, Pristine 2 Bedroom Apt in East Village",72077069555,verified,Marla,Manhattan,East Village,40.723729999999996,-73.98385,United States,US,False,flexible,Entire home/apt,2022,"$1,092 ",$218 ,6.0,42,2/7/2022,2.68,2,1,316,,
31467861,,36366551136,verified,Alejandra,Manhattan,Lower East Side,40.71937,-73.98248000000001,United States,US,True,moderate,Entire home/apt,2008,$963 ,$193 ,6.0,29,2/7/2022,1.55,5,1,282,,
31468413,Spacious comfortable clean room By Times Square,2562014097,unconfirmed,Ebul,Manhattan,Hell's Kitchen,40.762859999999996,-73.99103000000001,United States,US,False,flexible,Private room,2007,$662 ,$132 ,5.0,31,2/7/2022,1.75,5,1,41,,
31468966,Stunning Brooklyn Brownstone with all the extras,80706736700,verified,Elle,Brooklyn,Bay Ridge,40.63134,-74.02325,United States,US,True,strict,Entire home/apt,2008,$744 ,$149 ,2.0,63,2/7/2022,3.78,4,3,135,,
31469518,Modern River view  bedroom in New York .,98645811731,unconfirmed,Bel And Camila,Manhattan,Roosevelt Island,40.761390000000006,-73.95127,United States,US,True,strict,Private room,2010,"$1,160 ",$232 ,1.0,18,2/7/2022,2.13,4,1,347,,
31470070,NYC Boho King Bed wParking 25m to Penn Station/MSG,57694096686,unconfirmed,Rob,Queens,Bayside,40.762159999999994,-73.77561,United States,US,True,flexible,Entire home/apt,2017,$874 ,$175 ,3.0,34,2/7/2022,3.39,5,2,171,,
31470622,Entire 1 Bedroom Apartment Gorgeous,85862468627,unconfirmed,Marc,Brooklyn,Sheepshead Bay,40.60031,-73.95353,United States,US,False,moderate,Entire home/apt,2004,$693 ,$139 ,3.0,30,2/7/2022,2.28,5,2,354,,
31471175,"Area in Queens, SPACIOUS and modern room",69597414874,unconfirmed,Tania,Queens,Jackson Heights,40.7508,-73.86577,United States,US,False,strict,Private room,2021,"$1,197 ",$239 ,2.0,59,2/7/2022,4.61,4,1,125,,
31471727,407 West 51-Furnished Studio in Midtown West,42969297341,unconfirmed,Jeniffer,Manhattan,Hell's Kitchen,40.763329999999996,-73.98779,United States,US,True,strict,Entire home/apt,2019,$994 ,$199 ,30.0,6,2/7/2022,0.52,3,186,227,,
31472279,,921632841,verified,Jourdain,Brooklyn,Bushwick,40.69278,-73.91561,United States,US,False,flexible,Private room,2011,$259 ,$52 ,3.0,8,2/7/2022,0.92,2,2,352,,
31472832,Sonder City Hall Park | One-Bedroom Apartment,135403219,verified,Sonder (NYC),Manhattan,Financial District,40.70903,-74.00981999999999,United States,US,False,flexible,Entire home/apt,2017,$805 ,$161 ,2.0,21,2/7/2022,2.09,3,54,360,,
31473384,Sonder City Hall Park | Studio Apartment w/ Peloton,26535473075,verified,Sonder (NYC),Manhattan,Financial District,40.70898,-74.0094,United States,US,False,moderate,Entire home/apt,2014,"$1,116 ",$223 ,2.0,6,2/7/2022,0.99,4,54,344,,
31473936,AWESOME PRIVATE ROOM BY 3 METROS IN WILLIAMSBURG,79493797914,unconfirmed,Nova & Marianne,Brooklyn,Williamsburg,40.70986,-73.94345,United States,US,True,moderate,Private room,2008,$134 ,$27 ,2.0,36,2/7/2022,3.41,2,5,341,,
31474489,"Central Park, Sunny 1BR  w/ Gym+Courtyard",30926333255,verified,Nice Stay,Manhattan,Hell's Kitchen,40.76742,-73.98486,United States,US,True,flexible,Entire home/apt,2019,$968 ,$194 ,30.0,4,2/7/2022,0.44,2,12,28,,
31475041,Private room 2 with shared common area,76609807933,unconfirmed,Ivy,Brooklyn,Bushwick,40.698170000000005,-73.9292,United States,US,False,moderate,Private room,2015,"$1,181 ",$236 ,3.0,29,2/7/2022,3.09,4,1,107,,
31475593,"Fresh, Spacious 1Br Curated for An Enjoyable Stay",64562326464,unconfirmed,Csj,Manhattan,East Harlem,40.815329999999996,-73.93524000000001,United States,US,True,flexible,Entire home/apt,2016,"$1,141 ",$228 ,1.0,39,2/7/2022,4.45,5,1,127,,
31476145,"Stylish, Comfortable Loft Near Subway in Bed-Stuy",48170967497,unconfirmed,Amy,Brooklyn,Bedford-Stuyvesant,40.6918,-73.95267,United States,US,False,flexible,Entire home/apt,2009,$438 ,$88 ,30.0,4,2/7/2022,1.06,4,1,144,,
31476698,Conveniently located BK House With Lots Of Charm!!,54607218483,unconfirmed,Kwadwo,Brooklyn,Canarsie,40.638290000000005,-73.90111999999999,United States,US,True,moderate,Entire home/apt,2006,"$1,191 ",$238 ,3.0,21,2/7/2022,2.59,4,1,355,,
31477250,Arverne by the Sea Far Rockaway,97726116641,unconfirmed,Charles,Queens,Arverne,40.5911,-73.79805,United States,US,False,moderate,Private room,2022,$390 ,$78 ,1.0,22,2/7/2022,2.68,4,1,353,,
31477802,2BR@ Queens! Enjoy with your family/Friends‚ô™,3657787656,unconfirmed,Momoyo,Queens,Elmhurst,40.73915,-73.8757,United States,US,True,strict,Entire home/apt,2016,$352 ,$70 ,1.0,16,2/7/2022,1.97,2,126,9,,
31478355,Cloud Suite with Queen Bed and Huge Patio!,25473181222,verified,Manuel,Brooklyn,Bedford-Stuyvesant,40.69048,-73.93276999999999,United States,US,False,strict,Private room,2007,$95 ,$19 ,1.0,8,2/7/2022,1.09,2,2,349,,
31478907,Lovely 2 bedroom Apartment,54171168613,verified,Kerlly,Brooklyn,Sunset Park,40.661359999999995,-73.99526999999999,United States,US,False,flexible,Entire home/apt,2020,$117 ,$23 ,2.0,33,2/7/2022,4.07,5,2,16,,
31479459,Beautifully  1Br in the Amazing East Village,28898439095,unconfirmed,Raanan,Manhattan,East Village,40.72968,-73.98515,United States,US,True,strict,Entire home/apt,2010,$825 ,$165 ,30.0,1,2/7/2022,1.0,3,10,81,,
31480012,Cozy GetAway In Broadway 443,46291608881,unconfirmed,Raquel,Manhattan,Midtown,40.746109999999994,-73.98875,United States,US,True,moderate,Private room,2004,$277 ,$55 ,1.0,13,2/7/2022,1.76,3,53,24,,
31480564,PRIVATE STUDIO w PRIVATE BATHROOM n ENTRANCE,48434137560,verified,Caroline,Queens,East Elmhurst,40.7554,-73.89416,United States,US,False,flexible,Entire home/apt,2013,$297 ,$59 ,2.0,26,2/7/2022,3.59,3,3,320,,
31481116,Spacious & Authentic NYC Apt - PERFECT location,30032909686,verified,Riley,Manhattan,Chelsea,40.74519,-74.0,United States,US,False,strict,Entire home/apt,2008,$279 ,$56 ,5.0,5,2/7/2022,0.79,4,1,228,,
31481668,Queen Bedroom with large closet & Work station,81566784898,verified,Yvette,Queens,Long Island City,40.74757,-73.95451,United States,US,True,moderate,Private room,2013,$447 ,$89 ,3.0,10,2/7/2022,1.61,4,3,64,,
31482221,Brand new 1BR prime UES~WD in unit~BEST VALUE,26309487040,unconfirmed,Eran,Manhattan,Upper East Side,40.77151,-73.95543,United States,US,False,moderate,Entire home/apt,2003,$846 ,$169 ,30.0,2,2/7/2022,0.48,2,62,300,,
31482773,Petite flat in Grand central Station,31636208428,verified,Paz,Manhattan,Midtown,40.748090000000005,-73.9875,United States,US,True,strict,Entire home/apt,2016,$223 ,$45 ,1.0,12,2/7/2022,1.83,5,3,151,,
31483325,Luxury + Spacious 1 BR Apt near LGA -10 mins walk,61753541831,verified,Elizabeth,Queens,East Elmhurst,40.766911,-73.86895,United States,US,True,strict,Entire home/apt,2003,$513 ,$103 ,3.0,10,2/7/2022,2.17,4,1,76,,
31483878,Private Room in Bushwick NY - Aberdeen St. A,31357525085,unconfirmed,Clean,Brooklyn,Bushwick,40.68249,-73.90739,United States,US,False,moderate,Private room,2017,$293 ,$59 ,1.0,22,2/7/2022,3.49,5,7,160,,
31484430,Stylish 2BR Astoria Haven (+WFH),15416827933,verified,Danielle,Queens,Astoria,40.76742,-73.93025,United States,US,True,flexible,Entire home/apt,2010,$559 ,$112 ,2.0,15,2/7/2022,2.57,4,1,118,,
31484982,Family Studio Near  Empire  State  Buiding,27297196097,verified,Hansem Stay,Manhattan,Midtown,40.74647,-73.98898,United States,US,False,moderate,Entire home/apt,2003,$877 ,$175 ,4.0,15,2/7/2022,3.33,2,4,145,,
31485535,Penthouse w/ Private Balcony | Lower East Side,76937786456,verified,Blue Moon,Manhattan,Lower East Side,40.71805,-73.99061,United States,US,True,strict,Entire home/apt,2020,$79 ,$16 ,1.0,11,2/7/2022,2.29,5,27,323,,
31486087,The Gardens Inn,53169935907,unconfirmed,Jimmy,Queens,Springfield Gardens,40.66916,-73.76456999999999,United States,US,True,flexible,Entire home/apt,2012,$769 ,$154 ,1.0,21,2/7/2022,3.94,3,1,307,,
31486639,"Bedstuy Baby 
2 Bedroom apartment",79429629294,verified,Donna,Brooklyn,Bedford-Stuyvesant,40.682359999999996,-73.92845,United States,US,True,moderate,Entire home/apt,2008,$149 ,$30 ,3.0,11,2/7/2022,2.32,4,1,333,,
31487191,Artsy Williamsburg Oasis | 3BR One Min To Bedford!,70918204136,unconfirmed,The Williamsburg Apartment,Brooklyn,Williamsburg,40.71685,-73.95612,United States,US,False,moderate,Entire home/apt,2020,$606 ,$121 ,4.0,6,2/7/2022,1.73,2,3,40,,
31487744,Modern Queen Suite | close to NYC | Parking | Gym,87694178234,unconfirmed,Global Luxury Suites,Bronx,Port Morris,40.80911,-73.9296,United States,US,False,strict,Entire home/apt,2018,"$1,120 ",$224 ,5.0,19,2/7/2022,4.32,3,58,364,,
