id,NAME,host id,host_identity_verified,host name,neighbourhood group,neighbourhood,lat,long,country,country code,instant_bookable,cancellation_policy,room type,Construction year,price,service fee,minimum nights,number of reviews,last review,reviews per month,review rate number,calculated host listings count,availability 365,house_rules,license
2823926,Sunny Midtown NYC Room,83799854684,verified,Joseph,Manhattan,Upper West Side,40.77021,-73.98721,United States,US,False,flexible,Private room,2013,$408 ,$82 ,1,157,6/28/2019,2.49,3,1,257,,
2824478,Adorable Apt on Prospect Park!,31834060343,verified,Isabel,Brooklyn,Windsor Terrace,40.65899,-73.97771,United States,US,False,strict,Entire home/apt,2017,$401 ,$80 ,15,0,,,5,1,419,,
2825031,Exposed Brick Wall Bedroom,16173727204,unconfirmed,Eva,Manhattan,SoHo,40.72493,-74.00193,United States,US,True,strict,Private room,2020,$978 ,$196 ,2,191,6/23/2019,2.81,5,1,-10,#NAME?,
2825583,AMAZING ONE BEDROOM IN MANHATTAN,5510810150,unconfirmed,Tammy,Manhattan,Harlem,40.81381,-73.94166,United States,US,False,moderate,Entire home/apt,2003,$495 ,$99 ,30,19,7/5/2019,0.3,5,1,259,,
2826135,Loft Bedroom in Duplex 3BR & Private Roof,75787204659,verified,Brad,Manhattan,Greenwich Village,40.727959999999996,-73.99761,United States,US,True,flexible,Private room,2013,$479 ,$96 ,2,7,12/2/2017,0.12,3,1,44,"- Please keep the house exactly like you found it. Please don't leave a mess. Please don't leave things dirty. - If you use the bathroom, clean or wipe things down (there will be a cloth to wipe off excess water, etc.) - If you use the kitchen, please clean dishes and wipe things down as well - No guest allowed - you can meet friends at other venues - Shoes off in the apartment - please leave by the door. If you would like please bring some slippers. - Please keep things quiet after 10pm - If you smoke, you must go outside! NO smoking inside! - If you cook, turn the fan on above the stove - If you watch TV, turn it off when you are done. - Please use your common sense, and if you are not sure, ask... - Remember, this is my house - so try to treat it with respect. - if the parking pass is not returned, you will be charged the full amount of the deposit",
2826688,Fantastic Williamsburg Waterfront!,31507085739,unconfirmed,Katie,Brooklyn,Williamsburg,40.70978,-73.96854,United States,US,False,strict,Private room,2003,$473 ,$95 ,3,15,6/4/2019,0.24,2,1,361,,
2827240,Luxury studio,16221344059,unconfirmed,Marie,Manhattan,Chelsea,40.74163,-73.99857,United States,US,True,moderate,Entire home/apt,2008,$197 ,$39 ,3,9,5/13/2019,0.87,1,1,172,Please leave the room as it was when you first came.,
2827792,Huge Loft with Private Entrance,32537810527,verified,Josh,Manhattan,East Village,40.728229999999996,-73.98933000000001,United States,US,True,flexible,Entire home/apt,2018,$723 ,$145 ,1,20,8/20/2015,0.39,2,1,13,"No smoking or drugs. We try to keep the house clean, so we take off our shoes when we come in. We all work or go to grad school, so we like to keep the house clean and quiet. Absolutely no smokers, even if you smoke outside. We'd rather not have anyone in the house who brings back in the smell of smoke.",
2828344,East Village Studio Super location,17947869288,verified,Sam,Manhattan,East Village,40.72679,-73.98598,United States,US,False,flexible,Entire home/apt,2019,"$1,133 ",$227 ,1,73,1/1/2019,1.07,1,1,70,Can use kitchen and either bathroom. Roommates will be at the house as well but will not be using the living during your stay. No guests permitted without prior notice and agreement. No shoes in the house and please wash all dishes promptly after use.,
2828897,Bedroom in East Williamsburg,30547069207,unconfirmed,Hannah,Brooklyn,Williamsburg,40.70608,-73.94269,United States,US,False,strict,Private room,2018,"$1,149 ",$230 ,4,3,9/30/2014,0.05,3,2,126,"Professionally and to respect the artwork. This is an apartment for mature travelers, not backpackers.",
2829449,Authentic Factory 1BR w/City View,37324480503,unconfirmed,Vida,Brooklyn,Greenpoint,40.725390000000004,-73.94074,United States,US,True,flexible,Entire home/apt,2008,$216 ,$43 ,30,7,5/4/2018,0.11,3,52,275,"Guest should do there dishes and clean after themselves. No alcohol, No drugs, No party's and most important Don't Disturb other guests!",
2830001,East Village Duplex Penthouse,52042743835,unconfirmed,Rachel,Manhattan,East Village,40.7282,-73.98615,United States,US,False,moderate,Entire home/apt,2005,$891 ,$178 ,10,59,5/21/2019,0.87,2,1,335,Treat the apt as you would your own. No parties or large gatherings.,
2830554,Cozy duplex on the Upper East side!,73212037595,unconfirmed,Nora,Manhattan,Upper East Side,40.76838,-73.95481,United States,US,False,moderate,Private room,2013,$382 ,$76 ,1,1,1/2/2014,0.01,5,1,291,Please do not smoke and be respectful of other guests.,
2831106,Best Central Park/NYC View Apt,53760955959,verified,Jason,Manhattan,Upper West Side,40.78468,-73.97137,United States,US,False,flexible,Entire home/apt,2018,$938 ,$188 ,1,0,,,2,1,120,,
2831658,Bright & Budget Friendly,84893965933,verified,Nancy,Brooklyn,Canarsie,40.64605,-73.89381999999999,United States,US,True,strict,Private room,2003,$193 ,$39 ,5,84,6/27/2019,1.25,1,5,44,"Guest should do there dishes and clean after themselves. No alcohol, No drugs, No party's and most important Don't Disturb other guests!",
2832211,1 BR  in a luxury apt bldg,86968711649,verified,Mary Elizabeth,Brooklyn,Park Slope,40.67122,-73.98618,United States,US,True,moderate,Entire home/apt,2018,$460 ,$92 ,1,0,,,1,1,157,"Please expect to share the apartment with guests having various backgrounds. Be respectful and decent, also enjoy interacting with each other. Please dress descently in the house especially in and out of the shower.",
2832763,Best of the East Village Cozy 2 Bedroom,91796336195,unconfirmed,Katya,Manhattan,East Village,40.72862,-73.98885,United States,US,False,flexible,Entire home/apt,2022,$134 ,$27 ,1,214,7/5/2019,3.17,4,1,335,,
2833315,Spacious 1 bed near train!,11351887844,verified,Terry & Kristen,Queens,Ditmars Steinway,40.77906,-73.91265,United States,US,False,moderate,Entire home/apt,2004,$257 ,$51 ,3,38,7/2/2019,0.62,4,1,393,"Please pick up after yourself (remove hair after taking a shower/shaving, etc.), and make sure things are left tidy after you used bathrooms. Keep toilet seat closed so cat can't get to water. Please avoid morning rush between 6am and 10 am and take shower at night (unless you shower is literally 2 min or less). Additional toilet/sink on the first floor. Always wipe off toothpaste from sink and faucet as a courtesy to others.  Immediately notify me if something was broken or out of order or you forgot to wash a plate. Don't leave any food in your room. Proper trash disposal: recycling is very important. Rinse containers before placing into collection; all food leftovers must go inside kitchen sink for disposal. Avoid bringing in plastic bags, but if you must occasionally, please place into recycling for bags under the sink. Please tidy up  your room after departure and take care of dirty dishes. Departure after check out time billed one hundred dollars Mailing address is NOT TO be shar",
2833867,Loft 15 - 20 minutes to Manhattan,85974191849,unconfirmed,Giovani,Brooklyn,Bushwick,40.69937,-73.91463,United States,US,True,strict,Entire home/apt,2003,$69 ,$14 ,3,164,1/5/2019,2.45,2,1,422,"Quiet and clean Responsible person No bad habits Just don't steal or break anything and we are good. I would also advise not to play extremely loud music after 9pm because my roommate gets mad.  Moderately loud should be ok. -Please do not drink the alcohol and don't eat the food in the bedroom, although you are welcome to use all of the appliances including the Keurig. This is our home when we are not traveling, respect it as your own. -Strictly no smoking or parties.",
2834420,Loft 402 : Photo Studio : Brooklyn,78935014607,verified,Harry,Brooklyn,Williamsburg,40.718709999999994,-73.96455999999999,United States,US,True,flexible,Entire home/apt,2003,$471 ,$94 ,5,0,,,4,1,221,,
2834972,1 Bedroom Apartment Lefferts Garden,90240407872,unconfirmed,Ester,Brooklyn,Prospect-Lefferts Gardens,40.66362,-73.94926,United States,US,True,strict,Entire home/apt,2021,$783 ,$157 ,5,19,8/18/2018,0.28,5,1,295,,
2835524,1BR near Columbia / Central Park,17868468428,unconfirmed,Jose,Manhattan,Upper West Side,40.798590000000004,-73.96078,United States,US,True,flexible,Private room,2010,$932 ,$186 ,3,38,6/26/2019,0.59,4,1,358,"House Rules 1. Check-in is 4 pm local time. If the unit is ready earlier, we’ll let you know. Check-out is normally 11 am local time, but we’d be happy to extend it as long as we don’t have a cleaning scheduled. Just let us know.  2. All bookings require a security deposit of at least $300, which will be refunded within 7 days of your check-out. 3. For security measures we require all guests to provide proof of identification through ID verification on our own website. In order to check in we'll need a photo of your ID.  4. Our cancellation policy is as shown on our ad and defined by the site you are booking through.  5. Don’t let $300 go up in smoke. There's no smoking allowed in any Flatbook and a $300 fine for breaking this rule.  6. Unfortunately we don’t allow pets in any of our apartments. 7. Unless you’re staying in one of our specialty apartments, we don’t allow parties or excessive noise. 8. If we find the place very messy, we have to charge an extra $40 for every extra hour o",
2836077,A Cozy Creative Room for Nomads,78945258186,unconfirmed,Kalae,Manhattan,Upper West Side,40.80168,-73.96253,United States,US,False,strict,Private room,2021,$946 ,$189 ,2,272,6/16/2019,4.02,2,3,198,Keep the apartment clean,
2836629,Spacious Bright 1 Bedroom East Village Apartment,89998896575,unconfirmed,S & G,Manhattan,East Village,40.727540000000005,-73.98555,United States,US,True,moderate,Entire home/apt,2007,$954 ,$191 ,3,12,1/2/2019,0.19,5,2,102,,
2837181,Big Cozy Studio,34968274435,unconfirmed,Zeynep,Manhattan,Upper East Side,40.77556,-73.9483,United States,US,False,strict,Entire home/apt,2011,$871 ,$174 ,2,2,5/8/2015,0.03,4,1,385,"House Rules 1. Check-in is 4 pm local time. If the unit is ready earlier, we’ll let you know. Check-out is normally 11 am local time, but we’d be happy to extend it as long as we don’t have a cleaning scheduled. Just let us know.  2. All bookings require a security deposit of at least $300, which will be refunded within 7 days of your check-out. 3. For security measures we require all guests to provide proof of identification through ID verification on our own website. In order to check in we'll need a photo of your ID.  4. Our cancellation policy is as shown on our ad and defined by the site you are booking through.  5. Don’t let $300 go up in smoke. There's no smoking allowed in any Flatbook and a $300 fine for breaking this rule.  6. Unfortunately we don’t allow pets in any of our apartments. 7. Unless you’re staying in one of our specialty apartments, we don’t allow parties or excessive noise. 8. If we find the place very messy, we have to charge an extra $40 for every extra hour o",
2837734,Comfortable Brown Stone apartment,24980926384,unconfirmed,Joyce,Brooklyn,Crown Heights,40.67468,-73.94184,United States,US,False,moderate,Entire home/apt,2014,$533 ,$107 ,2,43,4/27/2019,0.64,4,1,409,"No Smoking No Loud Parties No Pets Please be respectful of noises especially at night Check-in Time: 4PM Check-out Time: 10AM Please review the guest booklet in the living room of the condo, during your arrive for detailed policy information.",
2838286,Large Light Filled Apartment,31443391785,unconfirmed,Jessica,Brooklyn,Crown Heights,40.671479999999995,-73.95698,United States,US,True,strict,Private room,2018,$415 ,$83 ,5,3,1/3/2019,0.16,3,1,255,We except you to clean up after yourself and generally be respectful. Smoking should happen outside the house. Also please do not tap on the glass terrarium or play with the ball python. It is very timid and mostly wants to sleep.,
2838838,"Williamsburg, prime loction, Brooklyn private room",5677864921,verified,Christina,Brooklyn,Williamsburg,40.71971,-73.95998,United States,US,False,moderate,Private room,2018,"$1,067 ",$213 ,3,176,6/21/2019,2.63,5,1,307,Please take off your shoes at the front door. Pick up your hair after your shower. The kitchen is not shared. You shall speak either English or Chinese.,
2839390,nice room in bedstuy A,1868000458,unconfirmed,Randy,Brooklyn,Bedford-Stuyvesant,40.68248,-73.95149,United States,US,False,flexible,Private room,2004,$305 ,$61 ,1,93,4/22/2019,1.38,3,15,197,,
2839943,Home Sweet Room-HOMEY-Queens NYC!!,40190636551,unconfirmed,Jacqueline & Tyas,Queens,Elmhurst,40.73943,-73.87475,United States,US,False,moderate,Private room,2006,$908 ,$182 ,3,49,4/25/2019,0.77,4,3,365,,
2840495,1BD Upper West Side NYC,80206125707,verified,Jordan,Manhattan,Upper West Side,40.78918,-73.97927,United States,US,False,flexible,Entire home/apt,2012,$52 ,$10 ,2,5,1/1/2016,0.07,2,1,310,,
2841047,3 Bedroom Apt. in Washington Height,76106009642,unconfirmed,Lauren,Manhattan,Washington Heights,40.84082,-73.93896,United States,US,False,flexible,Entire home/apt,2008,"$1,039 ",$208 ,3,1,1/2/2014,0.01,1,1,46,,
2841600,Family Friendly Apt in Quiet Building,24749617705,unconfirmed,Rachel,Manhattan,Harlem,40.81402,-73.94358000000001,United States,US,True,moderate,Entire home/apt,2014,$711 ,$142 ,3,136,7/2/2019,2.0,4,1,18,"Thank you for your reservation. By placing your reservation online you indicated that you accepted the terms and conditions which have been printed below.  Please review your reservation summary as below - then print, sign and return the agreement to:  (EMAIL HIDDEN) or fax it to (PHONE NUMBER HIDDEN) or  mail it to: Spare Suite, Inc., 119 Braintree Street, Suite 510, Boston, MA 02134, USA Upon receipt, we will send you the welcome document with check in instructions and how to get your keys. Terms of the Agreement: BOOKING AND REFUND POLICY Once booked your reservation is guaranteed for the check in and check out times and dates specified. All reservations must be paid in advance, in full for the entire period of stay.  All reservations are final, and NON REFUNDABLE UNDER ANY CIRCUMSTANCES.  If you feel you may need to cancel once booked, you may consider trip insurance through AAA or other reputable provider like (URL HIDDEN) POLICY ON CHILDREN: This property is not ""KID FRIENDLY"" al",
2842152,1br Near Everything in East Village,59148780419,verified,Heidi,Manhattan,East Village,40.72886,-73.98036,United States,US,False,strict,Entire home/apt,2019,$784 ,$157 ,7,6,3/25/2016,0.11,1,1,161,I am renting my apartment for the Marathon weekend and you will be a guest in my home. No smoking or pets please.,
2842704,Luxury 4 BD NYC Times Sq Apartment,62170336435,unconfirmed,Patrick,Manhattan,Midtown,40.76316,-73.98109000000001,United States,US,False,moderate,Entire home/apt,2016,$694 ,$139 ,1,0,,,2,1,328,"When you arrive, my place will be clean, neat, organized & very cozy. All I ask is you leave it the same way upon departing.  Also check out time is 11am & check-in time is 4pm. For those arriving, you may check in early & leave your bags / luggage. I will just need to finish cleaning / setting the place up for you just so before handing the place to you. For those departing: 11am check-out time is strict although you may leave your bags / luggage in the apt if you are doing any last minute sight seeing / activities. Otherwise, enjoy the Allston / Boston area,  a great little neighborhood / city combination.",
2843257,Cozy & Nice Bedroom in an Apt/NYC.,97467172856,verified,Cesar,Manhattan,East Harlem,40.788129999999995,-73.94495,United States,US,True,flexible,Private room,2011,"$1,014 ",$203 ,4,37,6/30/2019,0.97,3,1,353,,
2843809,Bushwick House,60524603233,verified,Angelo,Brooklyn,Bushwick,40.706179999999996,-73.91669,United States,US,False,moderate,Entire home/apt,2003,$841 ,$168 ,3,0,,,5,1,397,"100% no smoking in the condo itself or in the building. This is a non-smoking building. No pets, no parties of more than four, and no additional overnight guests unless as agreed. Please be respectful of our neighbors and keep the noise low at night.",
2844361,Spring and Summer in New York - Near Central Park,38142738514,verified,Nadia,Manhattan,Midtown,40.76663,-73.98069,United States,US,False,strict,Entire home/apt,2009,$755 ,$151 ,5,19,6/12/2019,0.33,5,1,348,"When you arrive, my place will be clean, neat, organized & very cozy. All I ask is you leave it the same way upon departing.  Also check out time is 11am & check-in time is 4pm. For those arriving, you may check in early & leave your bags / luggage. I will just need to finish cleaning / setting the place up for you just so before handing the place to you. For those departing: 11am check-out time is strict although you may leave your bags / luggage in the apt if you are doing any last minute sight seeing / activities. Otherwise, enjoy the Allston / Boston area,  a great little neighborhood / city combination.",
2844913,luxury bldg for the coming holiday,29024380467,unconfirmed,Uri,Manhattan,Roosevelt Island,40.77,-73.94285,United States,US,True,strict,Entire home/apt,2014,$169 ,$34 ,1,0,,,5,1,148,,
2845466,Luxury Doorman 1BR  Best part of NY,61689931454,unconfirmed,Pedro,Manhattan,Hell's Kitchen,40.76485,-73.98751999999999,United States,US,False,strict,Entire home/apt,2006,$211 ,$42 ,5,7,6/16/2019,0.32,5,1,10,,
2846018,Winter Fun in Brooklyn!!!,9086192484,verified,Shari,Brooklyn,Crown Heights,40.67497,-73.95879000000001,United States,US,True,strict,Entire home/apt,2012,$616 ,$123 ,4,2,12/31/2014,0.03,2,1,355,You will see a piece of paper on my kitchen table about my house rules.  No parties please :),
2846570,"Bright, serene apt in Fort Greene/Clinton Hill",38737283385,verified,Amanda,Brooklyn,Clinton Hill,40.69025,-73.96704,United States,US,False,moderate,Entire home/apt,2004,"$1,065 ",$213 ,2,15,4/21/2019,0.41,5,1,425,1) No Smoking in property!!!  2) Do not slam doors!!! Close lightly Please!!! 3) No Shoes in house (except slippers) 4) Quiet down AFTER 10PM.,
2847123,Nice & cozy -  15min to Times Square-,62582611975,verified,Regina,Manhattan,Upper East Side,40.7838,-73.9482,United States,US,False,moderate,Private room,2014,$187 ,$37 ,3,97,7/1/2019,2.39,5,3,134,,
2847675,3BR in a classic 1925 BK Limestone,84283430937,unconfirmed,Marietta,Brooklyn,Crown Heights,40.66952,-73.94377,United States,US,False,strict,Entire home/apt,2015,$957 ,$191 ,3,154,6/24/2019,2.27,4,1,262,,
2848227,Cute brick wall apt. 2BR,39201185027,unconfirmed,Michael,Brooklyn,Williamsburg,40.71002,-73.95801999999999,United States,US,True,strict,Entire home/apt,2009,$439 ,$88 ,4,42,6/11/2019,0.62,1,2,376,,
2848780,NEW YORK CITY HOME in MANHATTAN,63833297853,verified,Chris,Manhattan,Inwood,40.8639,-73.92808000000001,United States,US,True,moderate,Entire home/apt,2014,$140 ,$28 ,3,127,6/8/2019,1.89,5,3,251,,
2849332,UWS MANHATTAN APT FOR SUPERBOWL WE,18381556623,verified,Edouard,Manhattan,Upper West Side,40.793209999999995,-73.9694,United States,US,True,moderate,Entire home/apt,2006,$206 ,$41 ,1,0,,,1,1,338,,
2849884,Sunny Filled Room in Williamsburg,5577012774,verified,Barbara,Brooklyn,Williamsburg,40.710440000000006,-73.93987,United States,US,True,strict,Private room,2006,$59 ,$12 ,30,4,1/2/2019,0.08,3,2,247,"- Non-smoker only - Cologne/perfumed sprays not allowed - Cat in the house - Do not share mailing address with anyone, and if you do it, you will pay $200 - Please take off street shoes and place them on the rack - Slippers can be provided but please bring your own if you can - Recycle all trash, we will help you to understand it - Food may not be left in your room - No eating in bed - No disturbance: please walk slowly when using stairs and very softly close all doors",
2850436,Large 1 Bedroom Apt in Park Slope,78991320647,unconfirmed,Whitney,Brooklyn,South Slope,40.66928,-73.98662,United States,US,True,moderate,Entire home/apt,2013,$516 ,$103 ,1,3,8/1/2014,0.04,2,1,59,#NAME?,
2850989,Private: The Grey Room,88157491360,unconfirmed,Thomas,Manhattan,Upper East Side,40.76273,-73.95866,United States,US,True,flexible,Private room,2013,$954 ,$191 ,1,12,9/22/2016,0.19,2,2,386,No smoking and no party allowed. We don't want the neighbor to complain.,
2851541,Private Studio in Private Home,93725521782,verified,Dianne,Bronx,North Riverdale,40.90804,-73.90005,United States,US,True,strict,Private room,2012,$303 ,$61 ,2,143,6/30/2019,2.13,2,1,351,,
2852093,Sunny and spacious 2 BR apartment,78285321256,verified,Yolanda,Brooklyn,Flatbush,40.63524,-73.96602,United States,US,True,flexible,Entire home/apt,2005,$476 ,$95 ,30,4,1/15/2016,0.07,4,1,364,"No smoking inside the house.  No loud parties or disturbing the peace or public nuisance allowed. This is a strictly residential rental NOT commercial.  If holding parties you must first seek owner's permission before inviting anyone other than immediate family.   This is a peaceful family neighborhood and I like to keep it that way.  Clean after yourself, clean the stove and oven and all the appliances.  Leave everything exactly in the condition it is in when you first arrived.  Treat this house as if it is your own with the proper respect and courtesy.  No pets allowed.  Check in is 4PM, Check out 10AM.  On Check out date please leave all the dirty sheets, towels, linens by the washer for the maid.  Please leave the outside trash container for the garbage truck on the night before it arrives.",
2852646,Amazing Williamsburg/Greenpoint Apt w/ 2 Terraces!,13192867637,verified,Beto,Brooklyn,Williamsburg,40.71861,-73.94362,United States,US,True,flexible,Shared room,2010,$600 ,$120 ,1,7,11/26/2016,0.1,1,1,304,"Non-smoker, no smoking in/out of home No cologne/perfume/sprays. Scent-free house Microwave for light use (not cooking) Respect quiet environment No visitors at any time, one room per person Remove outdoor shoes by the entrance inside, slippers available if you need Ask permission before giving this address to anyone Mailing address may only be used only for personal post (family, friends) No bank, no school, no memberships of any kind, no subscriptions If you break this rule, first charge is $200, and after that,  Each commercial letter that arrives after you depart will be charged $5 life time",
2853198,Gorgeous 1BR brownstone,30243065228,unconfirmed,Daniel,Manhattan,Harlem,40.8083,-73.9439,United States,US,True,flexible,Entire home/apt,2005,$547 ,$109 ,1,5,8/19/2015,0.08,2,1,369,,
2853750,West Village Charm and Quiet!,9367318559,verified,Brenton,Manhattan,SoHo,40.727779999999996,-74.0086,United States,US,False,strict,Entire home/apt,2015,$728 ,$146 ,2,18,6/22/2019,0.26,3,1,108,,
2854303,STAYING IN MANHATTAN,64147740252,unconfirmed,Anne,Manhattan,Morningside Heights,40.80446,-73.96366,United States,US,False,strict,Private room,2011,$515 ,$103 ,4,9,10/13/2018,0.13,5,1,336,1) No Smoking in property!!!  2) Do not slam doors!!! Close lightly Please!!! 3) No Shoes in house (except slippers) 4) Quiet down AFTER 10PM.,
2854855,"Spacious haven near Riverside park, subway, and CU",88731683522,unconfirmed,Nicole,Manhattan,Morningside Heights,40.81615,-73.96155999999999,United States,US,False,flexible,Private room,2020,$294 ,$59 ,2,19,1/8/2018,0.79,4,2,225,,
2855407,Amazing Downtown With Rooftop,33793379130,verified,Jake,Manhattan,Chinatown,40.71695,-73.99178,United States,US,False,moderate,Entire home/apt,2006,$565 ,$113 ,5,221,6/13/2019,3.27,2,2,295,,
2855959,Thanksgiving in Manhattan Luxury Suite,52946323205,unconfirmed,Xander,Manhattan,Midtown,40.76542,-73.98080999999999,United States,US,True,moderate,Entire home/apt,2019,$498 ,$100 ,2,4,11/25/2018,0.12,5,1,137,#NAME?,
2856512,"LOVELY 1 BEDROOM APT, BATH + KIT+ LIVING ROOM",27149898818,verified,Rosa,Queens,Ridgewood,40.70493,-73.90795,United States,US,False,moderate,Entire home/apt,2010,$996 ,$199 ,30,64,11/2/2015,0.95,4,1,303,,
2857064,Magic Manhattan with Rooftop,46508788694,unconfirmed,Jake,Manhattan,Lower East Side,40.71914,-73.99174000000001,United States,US,False,flexible,Entire home/apt,2009,$809 ,$162 ,5,220,6/23/2019,3.25,2,2,69,,
2857616,Studio Apt. on Upper West Side,68798208574,unconfirmed,Molly,Manhattan,Upper West Side,40.78021,-73.9805,United States,US,True,flexible,Entire home/apt,2018,$665 ,$133 ,2,7,10/10/2016,0.18,2,1,381,,
2858169,Private room in Manhattan,13342145732,unconfirmed,Dany,Manhattan,Inwood,40.86888,-73.92059,United States,US,False,flexible,Private room,2011,"$1,130 ",$226 ,2,36,6/11/2016,0.57,1,2,345,,
2858721,Cozy 2BD APT close to subway,90510492705,unconfirmed,Jennifer,Brooklyn,Bedford-Stuyvesant,40.68631,-73.95575,United States,US,True,flexible,Entire home/apt,2021,"$1,051 ",$210 ,2,237,7/6/2019,3.7,5,1,337,,
2859273,Wonderful bright Brooklyn apt,83016494606,verified,Lydia,Brooklyn,Clinton Hill,40.6841,-73.96691,United States,US,False,flexible,Entire home/apt,2012,$970 ,$194 ,5,9,1/6/2016,0.13,1,1,319,,
2859826,Cozy Private room in Brooklyn,90207873306,verified,Kenny And Christine,Brooklyn,Bushwick,40.69641,-73.90994,United States,US,True,moderate,Private room,2016,$617 ,$123 ,1,13,12/1/2018,0.49,1,2,224,,
2860378,W Village Luxury Apt. (Super Bowl),27910848863,unconfirmed,Sirous,Manhattan,West Village,40.739670000000004,-74.00933,United States,US,True,flexible,Entire home/apt,2009,$797 ,$159 ,3,0,,,4,1,294,"Check in 3pm Check out 12pm (Flexible upon requests.) No smoking, No drug, No party in the house. I don't guarantee parking lot. Sorry",
2860930,☆ DESIGN Spacious ☆ 1 BR Sleeps 4 Brooklyn Museum,44326881193,unconfirmed,Monica,Brooklyn,Crown Heights,40.66687,-73.95619,United States,US,True,moderate,Entire home/apt,2011,$86 ,$17 ,5,68,7/1/2019,1.07,2,1,419,,
2861482,Front Studio in Loft Apartment - Steiner Studios,88892605741,unconfirmed,Bradley,Brooklyn,Clinton Hill,40.69594,-73.96715,United States,US,True,flexible,Entire home/apt,2020,$703 ,$141 ,2,100,7/3/2019,1.49,1,1,68,Please do not smoke and be respectful of other guests.,
2862035,Beautiful Furnished 1 Bedroom apt; Wash Hts,9871996941,verified,Todd,Manhattan,Inwood,40.863170000000004,-73.92873,United States,US,True,strict,Entire home/apt,2014,$63 ,$13 ,1,78,6/21/2019,1.81,5,1,309,,
2862587,2 BR apt in East Village w private patio,61916576719,verified,Michael,Manhattan,East Village,40.73003,-73.98576,United States,US,True,strict,Entire home/apt,2003,$608 ,$122 ,2,17,1/2/2019,0.55,5,2,16,,
2863139,Cozy Apt in the heart of Manhattan!,92602691544,verified,Danny,Manhattan,Midtown,40.74873,-73.98827,United States,US,True,moderate,Entire home/apt,2016,$662 ,$132 ,7,0,,,2,1,199,"Please treat my place as your own. Turn off the lights, AC, fan, etc when you leave the apartment, and wash any kitchenware and dishes that you've used. Put used towels on the floor, so that I now they've been used.",
2863692,Midtown Manhattan Apt,94518347879,unconfirmed,Rick,Manhattan,Midtown,40.74897,-73.98265,United States,US,True,moderate,Private room,2015,$890 ,$178 ,5,0,,,2,1,319,,
2864244,Room in Manhattan! 15min=TimeSquare,41029084833,unconfirmed,Jack Andrew,Manhattan,Harlem,40.82475,-73.94842,United States,US,False,flexible,Private room,2005,$130 ,$26 ,12,26,4/26/2019,0.42,3,3,77,"- Non-smoker - No perfume/cologne use - Microwave for light use, not cooking - Very light and fast food prep - Mailing address not to be shared with anyone but family and friends - Take is seriously: If  any of yours not personal mail comes to this mail box, you will be charged $200 and $5 for each letter after that indefinitely - Guest agrees not to write reviews for areas not on amenities list",
2864796,UES,31816010837,verified,Allison,Manhattan,Upper East Side,40.780809999999995,-73.95045,United States,US,True,moderate,Entire home/apt,2004,$166 ,$33 ,1,0,,,5,1,138,No smoking. Please respect our neighbors.,
2865349,Sunny Duplex on Prospect Park,8175551616,unconfirmed,Paul,Brooklyn,Windsor Terrace,40.653909999999996,-73.97400999999999,United States,US,False,strict,Entire home/apt,2007,$117 ,$23 ,4,20,12/31/2018,0.3,2,1,69,#NAME?,
2865901,Elegant 1BR @ Columbus Circle,6167291800,unconfirmed,Raees,Manhattan,Hell's Kitchen,40.76709,-73.98577,United States,US,False,strict,Entire home/apt,2008,"$1,080 ",$216 ,3,16,10/15/2016,0.24,2,1,129,,
2866453,Artistic n Funky 1BD by the Park!,54089674008,unconfirmed,Andrew And Katie,Manhattan,East Harlem,40.78605,-73.95087,United States,US,False,flexible,Entire home/apt,2009,$73 ,$15 ,6,4,4/9/2016,0.06,5,1,74,Let's talk to get to know each other !,
2867005,Charming bedroom on the Upper West,7971462633,unconfirmed,Deda,Manhattan,Upper West Side,40.800340000000006,-73.96638,United States,US,True,moderate,Private room,2009,$676 ,$135 ,1,31,6/22/2019,0.46,3,2,277,Female first please. Please keep the space quiet and clean.,
2867558,Beautiful king-size 1-bedroom with balcony,58516167783,unconfirmed,Mary,Queens,Astoria,40.7577,-73.91981,United States,US,True,strict,Entire home/apt,2019,$773 ,$155 ,3,1,1/1/2018,0.05,3,1,225,"Non-smokers, no smoking in or out of home No perfume/cologne use, no other sprays  Deodorant/antiperspirant is OK but not sprays  Recycling, reusable shopping bags No mailing address sharing: first offense $200, and $5 per letter after that LIFE TIME Please don't use ""single use disposable"" plastic bags Mailing address MAY NOT be shared with anyone accept delivery. Reusable foldeable shopping bag (provided, and you may take it with you) Plates, cup, utensils are only in space between refrigerator and sink Please don't keep dirty dishes in your room, but if you must, tide them in plastic bag (green kind, find in bathroom basket) Please keep your room at least reasonably tidy Host may enter the room to collect the trash or fix things if needed All your things are safe in your room Take off street shoes when indoor Washed slippers provided if you don't have your own  Please be respectful, considered, and aware what is left behind you when you are in common areas, and how it will impact th",
2868110,Charming East Village One Bedroom,15576524404,verified,Joyce,Manhattan,East Village,40.72977,-73.98713000000001,United States,US,True,strict,Entire home/apt,2014,$852 ,$170 ,4,0,,,4,1,271,"This is an old house which was built in the 1900s, and may not be sparkingly clean and modern, but we appreciate it if you can clean after yourself, and put things back to where they belong. Garbage day is on Friday, you can simply put your trash into the dumpster and we'll take care of the rest. Please be respectful to other tenants on the second floor. Thank you.",
2868662,Fab Williamsburg Brooklyn Apt.,50588668571,unconfirmed,Anthony,Brooklyn,Greenpoint,40.72,-73.95433,United States,US,True,strict,Entire home/apt,2006,$857 ,$171 ,5,0,,,2,1,130,,
2869215,Sunny Village Studio: Long Stays,27137023508,verified,Matt,Manhattan,East Village,40.7282,-73.9834,United States,US,True,flexible,Entire home/apt,2007,$896 ,$179 ,5,0,,,5,1,246,1) No Smoking in property!!!  2) Do not slam doors!!! Close lightly Please!!! 3) No Shoes in house (except slippers) 4) Quiet down AFTER 10PM.,
2869767,1BD Modern Contemporary in Williamsburg,62639866668,verified,Helene & Michael,Brooklyn,Williamsburg,40.714909999999996,-73.94864,United States,US,True,flexible,Private room,2012,$590 ,$118 ,2,7,5/31/2018,0.11,1,1,307,House rules will be provided upon booking.,
2870319,Luxurious Chelsea Apt with Terrace,40654465835,unconfirmed,Yonathan,Manhattan,Chelsea,40.73985,-74.00138000000001,United States,US,True,moderate,Entire home/apt,2019,$586 ,$117 ,30,24,12/7/2018,0.36,2,1,373,Respectful of the apartment,
2870872,"Entire studio with backyard, Close to subway!!!",15552261995,unconfirmed,Mirlet,Queens,Astoria,40.7582,-73.92811,United States,US,False,strict,Entire home/apt,2006,$384 ,$77 ,3,19,7/7/2019,0.56,5,2,113,"Please treat it like your own place and leave it the way you found it! Please clean up prior to leaving.  No smoking indoors, no late night parties.",
2871424,"Soho Penthouse Loft, Terrace & View",33348918505,unconfirmed,Nisian,Manhattan,SoHo,40.723290000000006,-73.9981,United States,US,True,strict,Entire home/apt,2015,$842 ,$168 ,3,1,7/23/2015,0.02,5,1,299,#NAME?,
2871976,Sunny Private Studio With Backyard Close 2 Subway!,89576426248,verified,Mirlet,Queens,Long Island City,40.75832,-73.92874,United States,US,False,moderate,Private room,2003,$946 ,$189 ,3,26,3/14/2019,0.41,1,2,55,"-Our one golden rule is: Please treat our space with respect (i.e. Clean up after yourself, be sure to lock the door when you leave, etc.)  -Absolutely NO SMOKING!!!! -We are fun-loving people, so we dont mind you having some friends over, but the above rule applies twofold in that scenario. -You're welcome to use dishes, appliances, etc in the kitchen, but we ask that you buy your own food/drinks rather than use ours. -No pets allowed (not our rule, our landlord's) -Upon checkout, please turn A/C units and lights off before leaving. -Feel free to ask us about the area-- we know it well and love to recommend!",
2872528,"SB 2014/Winter in NYC, PH, 860 sf!!",39742962016,verified,Scott,Manhattan,Harlem,40.82486,-73.93993,United States,US,True,strict,Entire home/apt,2022,$707 ,$141 ,3,0,,,1,1,133,"Please note that we are a no smoking environment, and pets are only accepted in certain room types that have direct access to the outside. Please call ahead to make arrangements.",
2873081,1BR in HARLEM...SUNNY & SPACIOUS,56546113818,unconfirmed,Brooklyn,Manhattan,Harlem,40.816390000000006,-73.94085,United States,US,False,strict,Entire home/apt,2007,$518 ,$104 ,7,57,5/25/2019,0.89,4,1,294,"Please note that we are a no smoking environment, and pets are only accepted in certain room types that have direct access to the outside. Please call ahead to make arrangements. ",
2873633,Art Boutique 2BR Suite at JFK Airport,39652644495,unconfirmed,Jay,Queens,St. Albans,40.700390000000006,-73.75233,United States,US,False,moderate,Entire home/apt,2019,$987 ,$197 ,3,82,1/1/2019,1.37,5,2,225,"1.  No loud music. 2. No parties. 3. No removal of items from the apartment unless expressly allowed by the host. 4.  Security deposit shall be claimed in the event of the following:   a. Damaged or soiled sheets, to the extent that they require replacement     b. Theft of items kept on and about the premises.    c. Unreturned keys.    d. Damage to the apartment or any part or item within and without the premises.    e. The presence of pets in the apartment, due to intent or negligence on the part of the guest and their party.    d. The presence of illicit or illegal substances, or illicit or illegal activities, on or about the premises",
2874185,Room B,32519667577,unconfirmed,Susan,Brooklyn,Sunset Park,40.64532,-74.02063000000001,United States,US,True,flexible,Private room,2009,$340 ,$68 ,1,111,4/20/2019,1.7,2,5,236,,
2874738,Big Private Sunny Room in UWS Duplex w/ Terrace,43676643345,unconfirmed,Susana,Manhattan,Upper West Side,40.79675,-73.96916,United States,US,True,moderate,Private room,2021,$581 ,$116 ,3,11,6/7/2016,0.16,3,1,82,,
2875290,2-br Apartment in Manhattan,74940671129,unconfirmed,Igor,Manhattan,Harlem,40.81858,-73.9559,United States,US,True,strict,Entire home/apt,2008,$245 ,$49 ,4,12,1/1/2018,0.2,2,1,217,"Please note that we are a no smoking environment, and pets are only accepted in certain room types that have direct access to the outside. Please call ahead to make arrangements. ",
2875842,"Boutique Hip Hotel Feel, WiFi, NetFlix, Private",14025050162,unconfirmed,Marvin,Manhattan,Harlem,40.81728,-73.94583,United States,US,True,flexible,Entire home/apt,2013,$560 ,$112 ,4,72,5/19/2019,1.1,5,1,318,,
2876395,East Village 2 Bed 2 Floor Luxury Apartment,21045462836,verified,Rafael,Manhattan,East Village,40.72635,-73.97595,United States,US,True,moderate,Entire home/apt,2021,$487 ,$97 ,1,114,10/7/2018,1.71,1,1,61,"- Please keep the house exactly like you found it. Please don't leave a mess. Please don't leave things dirty. - If you use the bathroom, clean or wipe things down (there will be a cloth to wipe off excess water, etc.) - If you use the kitchen, please clean dishes and wipe things down as well - No guest allowed - you can meet friends at other venues - Shoes off in the apartment - please leave by the door. If you would like please bring some slippers. - Please keep things quiet after 10pm - If you smoke, you must go outside! NO smoking inside! - If you cook, turn the fan on above the stove - If you watch TV, turn it off when you are done. - Please use your common sense, and if you are not sure, ask... - Remember, this is my house - so try to treat it with respect. - if the parking pass is not returned, you will be charged the full amount of the deposit",
2876947,Private room  D,43392057479,verified,Susan,Brooklyn,Dyker Heights,40.6283,-74.01608,United States,US,True,strict,Private room,2011,"$1,098 ",$220 ,1,67,1/22/2019,0.99,1,5,150,"Please treat my place as your own. Turn off the lights, AC, fan, etc when you leave the apartment, and wash any kitchenware and dishes that you've used. Put used towels on the floor, so that I now they've been used.",
2877499,Bed Stuy Apartment One Bedroom,88703429680,unconfirmed,Ben,Brooklyn,Bedford-Stuyvesant,40.6839,-73.94445999999999,United States,US,False,strict,Entire home/apt,2005,$496 ,$99 ,4,1,1/3/2014,0.01,3,1,375,- Please be respectful and polite to neighbors. There are downstairs tenants so please don't be noisy after 11pm. - Please turn off any lights and adjust down the thermostat to 55 before you depart or please turn off the AC window units/fans - Return keys to lockbox at end of stay. (There is a fee of $50 for each set of lost keys) - No animals - No smoking in the house (there is a backyard area) - Check in is at 4:00 pm (message for special requests) - Check out is at 12 noon,
2878051,Cute East Village 1 Bedroom Apt,96304465084,unconfirmed,Angelita,Manhattan,East Village,40.72782,-73.98095,United States,US,False,moderate,Entire home/apt,2016,"$1,054 ",$211 ,5,25,6/13/2019,0.37,3,1,176,,
2878604,Modern West Village Apartment,87437132056,verified,Nick,Manhattan,West Village,40.73858,-74.00875,United States,US,False,moderate,Private room,2017,$98 ,$20 ,365,0,,,2,1,95,"House Rules 1. Check-in is 4 pm local time. If the unit is ready earlier, we’ll let you know. Check-out is normally 11 am local time, but we’d be happy to extend it as long as we don’t have a cleaning scheduled. Just let us know.  2. All bookings require a security deposit of at least $300, which will be refunded within 7 days of your check-out. 3. For security measures we require all guests to provide proof of identification through ID verification on our own website. In order to check in we'll need a photo of your ID.  4. Our cancellation policy is as shown on our ad and defined by the site you are booking through.  5. Don’t let $300 go up in smoke. There's no smoking allowed in any Flatbook and a $300 fine for breaking this rule.  6. Unfortunately we don’t allow pets in any of our apartments. 7. Unless you’re staying in one of our specialty apartments, we don’t allow parties or excessive noise. 8. If we find the place very messy, we have to charge an extra $40 for every extra hour o",
2879156,Bright and Open Astoria Apartment,85533927077,unconfirmed,Taylor,Queens,Astoria,40.76589,-73.92864,United States,US,False,strict,Entire home/apt,2009,"$1,045 ",$209 ,1,2,12/30/2015,0.03,5,2,271,,
2879708,Your Living Room is the UES,8858299632,unconfirmed,Todd,Manhattan,Upper East Side,40.76749,-73.95533,United States,US,True,flexible,Private room,2015,$174 ,$35 ,24,89,6/13/2019,1.4,3,1,180,"Please expect to share the apartment with guests having various backgrounds. Be respectful and decent, also enjoy interacting with each other. Please dress descent in the house especially in and out of the shower.",
2880261,Perfect for Visiting Family,35883876638,unconfirmed,Sara,Brooklyn,Park Slope,40.67559,-73.98362,United States,US,False,moderate,Entire home/apt,2003,$499 ,$100 ,3,1,8/28/2016,0.03,4,1,263,,
2880813,Architect's home in Park Slope,28735337537,unconfirmed,Sim,Brooklyn,South Slope,40.667190000000005,-73.98361,United States,US,True,strict,Entire home/apt,2005,$197 ,$39 ,4,11,9/6/2016,0.17,1,1,58,,
2881365,Bushwick Calabrese Abode,85675870413,unconfirmed,Stella,Brooklyn,Bushwick,40.68673,-73.91024,United States,US,True,moderate,Private room,2010,$722 ,$144 ,2,2,4/15/2019,0.5,4,1,80,,
2881918,"Clean, spacious entire 1br in NYC!",35389686979,verified,Andrey,Manhattan,Midtown,40.763259999999995,-73.98165,United States,US,True,flexible,Entire home/apt,2007,$242 ,$48 ,5,37,6/9/2019,0.55,5,2,314,,
2882470,Studio in Hell's Kitchen,1958160490,unconfirmed,Erin,Manhattan,Hell's Kitchen,40.76473,-73.98937,United States,US,False,flexible,Entire home/apt,2010,"$1,089 ",$218 ,2,11,5/27/2015,0.16,4,1,206,,
2883022,The heart of Williamsburg 2 bedroom,88584069895,unconfirmed,Sarah,Brooklyn,Williamsburg,40.71257,-73.96149,United States,US,True,strict,Entire home/apt,2018,$739 ,$148 ,4,0,,,3,1,192,#NAME?,
2883574,Bushwick Artist Loft - Awesome Room,67168159842,verified,Tom & Lily,Brooklyn,Bushwick,40.707809999999995,-73.92184,United States,US,True,strict,Private room,2022,"$1,104 ",$221 ,1,89,4/24/2019,1.39,5,3,71,,
2884127,Charming Lower East Side Studio!,59755133739,unconfirmed,Ryan,Manhattan,Lower East Side,40.718920000000004,-73.98383000000001,United States,US,True,strict,Entire home/apt,2006,$774 ,$155 ,7,0,,,2,1,144,1) No Smoking in property!!!  2) Do not slam doors!!! Close lightly Please!!! 3) No Shoes in house (except slippers) 4) Quiet down AFTER 10PM.,
2884679,Cozy Room in Family Home..BKLYN!!!,1060079573,verified,Olabimpe,Brooklyn,Bedford-Stuyvesant,40.68671,-73.93346,United States,US,True,flexible,Private room,2013,"$1,089 ",$218 ,2,203,5/26/2019,3.13,1,1,192,"We are looking for quiet and respectful guests given that we have neighbors with young children. As a result, I would ask to please keep noise levels in the house at a minimum between 9pm and 8am (you can still cook and watch TV, etc. just don't go around moving furniture :)",
2885231,1 BR in LES. Heart of New York City,93334924144,verified,Helena,Manhattan,Lower East Side,40.72148,-73.98823,United States,US,True,moderate,Private room,2007,$210 ,$42 ,4,67,7/2/2019,1.09,2,3,376,Please do not smoke. Be respectful of the other guests.,
2885784,"Large, Sunny Brooklyn Apartment",20143051050,verified,Lauren,Brooklyn,Crown Heights,40.66539,-73.95651,United States,US,False,moderate,Entire home/apt,2012,"$1,074 ",$215 ,2,3,8/29/2016,0.04,4,1,365,,
2886336,Private room in Park Slope,69682254464,verified,Laszlo,Brooklyn,Sunset Park,40.66118,-73.98901,United States,US,False,flexible,Private room,2006,$257 ,$51 ,25,0,,,4,1,216,,
2886888,"Huge, Arty, Earthy + BEST Location!",14672547551,verified,Meredith,Manhattan,Kips Bay,40.73987,-73.98317,United States,US,False,strict,Entire home/apt,2016,$862 ,$172 ,1,56,6/13/2016,0.83,2,1,282,,
2887441,Sunnyside Gardens Oasis!,8903649025,unconfirmed,Joel,Queens,Sunnyside,40.74817,-73.91886,United States,US,False,flexible,Private room,2004,$777 ,$155 ,1,1,8/12/2017,0.04,2,1,21,"I respectfull ask that you treat my home as you would a friend's home.  My house rules are just common sense and courtesy. 1.  No loud music. 2. No parties. 3. No removal of items from the apartment unless expressly allowed by the host. 5.  Apartment door must be kept locked at all times.  4.  Security deposit shall be claimed in full in the event of any of the following:   a. Damaged or soiled sheets, to the extent that they require replacement.    b. Theft of items kept on and about the premises.    c. Unreturned keys.    d. Damage to the apartment or any part or item within and without the premises.    e. The presence of pets in the apartment, due to intent or negligence on the part of the guest and their party.    d. The presence of illicit or illegal substances, or illicit or illegal activities, on or about the premises     f.  Failure to vacate the premises by the agreed check-out time",
2887993,Private room in Brooklyn Loft,39717678223,unconfirmed,Paul,Brooklyn,Williamsburg,40.70371,-73.93344,United States,US,True,moderate,Private room,2003,$69 ,$14 ,7,0,,,2,1,335,,
2888545,"Bright, Huge 1Bdrm in Midtown",48263416844,unconfirmed,Amaryllis,Manhattan,Midtown,40.7552,-73.9724,United States,US,True,moderate,Entire home/apt,2013,$237 ,$47 ,1,0,,,5,1,44,"House Rules 1. Check-in is 4 pm local time. If the unit is ready earlier, we’ll let you know. Check-out is normally 11 am local time, but we’d be happy to extend it as long as we don’t have a cleaning scheduled. Just let us know.  2. All bookings require a security deposit of at least $300, which will be refunded within 7 days of your check-out. 3. For security measures we require all guests to provide proof of identification through ID verification on our own website. In order to check in we'll need a photo of your ID.  4. Our cancellation policy is as shown on our ad and defined by the site you are booking through.  5. Don’t let $300 go up in smoke. There's no smoking allowed in any Flatbook and a $300 fine for breaking this rule.  6. Unfortunately we don’t allow pets in any of our apartments. 7. Unless you’re staying in one of our specialty apartments, we don’t allow parties or excessive noise. 8. If we find the place very messy, we have to charge an extra $40 for every extra hour o",
2889097,"Noho East Vill Lux Bldg w/Gym,Pool ",34379698383,unconfirmed,Kris,Manhattan,NoHo,40.72717,-73.9927,United States,US,True,strict,Entire home/apt,2010,$376 ,$75 ,2,1,9/7/2014,0.02,1,1,14,- No smoking inside the apartment - Checkout time is 11:00 am (a later time can be accommodated if it is available - but please ask ahead of time) - No Loud Music or Loitering outside the entrance after 10:00pm,
2889650,Nice modern room by Prospect Park!,31985449224,verified,Noel And Patricia,Brooklyn,Flatbush,40.65398,-73.96139000000001,United States,US,True,moderate,Private room,2020,$666 ,$133 ,2,199,6/29/2019,2.98,1,1,182,We except you to clean up after yourself and generally be respectful. Smoking should happen outside the house. Also please do not tap on the glass terrarium or play with the ball python. It is very timid and mostly wants to sleep.,
2890202,Sunny top floor apartment in Clinton Hill,2444019623,unconfirmed,Nichola,Brooklyn,Fort Greene,40.69767,-73.97137,United States,US,False,moderate,Entire home/apt,2007,$430 ,$86 ,2,4,1/2/2019,0.06,1,1,295,Clean and no party,
2890754,Sunny Apartment in West Village,39338512944,verified,Seb,Manhattan,West Village,40.73187,-74.00865,United States,US,False,flexible,Entire home/apt,2009,"$1,142 ",$228 ,3,0,,,1,1,271,,
2891307,Charming studio upper east side NYC,44719045336,verified,Candace,Manhattan,Upper East Side,40.773759999999996,-73.95343000000001,United States,US,True,strict,Entire home/apt,2003,$624 ,$125 ,5,54,6/1/2019,0.9,5,2,332,,
2891859,South Harlem 1 Bedroom Apartment,81494842788,verified,Ashley & Nate,Manhattan,Harlem,40.801629999999996,-73.95413,United States,US,True,flexible,Entire home/apt,2008,$130 ,$26 ,3,58,1/1/2017,0.97,1,1,350,Please remove the shoes in the house.,
2892411,Great Location on St. Marks Place,16922985732,unconfirmed,Steven,Manhattan,East Village,40.72852,-73.98705,United States,US,False,moderate,Entire home/apt,2003,"$1,103 ",$221 ,1,0,,,3,1,276,,
2892964,Lovely designer's studio,82565622856,unconfirmed,Gigi,Brooklyn,Fort Greene,40.6856,-73.97418,United States,US,False,flexible,Private room,2013,$772 ,$154 ,90,13,10/8/2018,0.19,5,1,368,"House Rules 1. Check-in is 4 pm local time. If the unit is ready earlier, we’ll let you know. Check-out is normally 11 am local time, but we’d be happy to extend it as long as we don’t have a cleaning scheduled. Just let us know.  2. All bookings require a security deposit of at least $300, which will be refunded within 7 days of your check-out. 3. For security measures we require all guests to provide proof of identification through ID verification on our own website. In order to check in we'll need a photo of your ID.  4. Our cancellation policy is as shown on our ad and defined by the site you are booking through.  5. Don’t let $300 go up in smoke. There's no smoking allowed in any Flatbook and a $300 fine for breaking this rule.  6. Unfortunately we don’t allow pets in any of our apartments. 7. Unless you’re staying in one of our specialty apartments, we don’t allow parties or excessive noise. 8. If we find the place very messy, we have to charge an extra $40 for every extra hour o",
2893516,"Garden Oasis, Williamsburg!        ",45003018807,unconfirmed,Mike,Brooklyn,Williamsburg,40.71589,-73.95534,United States,US,True,moderate,Entire home/apt,2011,"$1,008 ",$202 ,1,200,7/5/2019,3.37,3,2,185,We except you to clean up after yourself and generally be respectful. Smoking should happen outside the house.,
2894068,"Rancho Deluxe, Williamsburg! ",76314429102,verified,Mike,Brooklyn,Williamsburg,40.71542,-73.95652,United States,US,True,flexible,Entire home/apt,2018,$753 ,$151 ,1,215,7/2/2019,3.2,3,2,339,,
2894620,1 room in HUGE 2Bedroom/1.5 Bath,22980530826,verified,Adrienne,Manhattan,Harlem,40.80121,-73.95063,United States,US,True,moderate,Private room,2016,$103 ,$21 ,7,1,9/27/2015,0.02,2,2,346,"House Rules 1. Check-in is 4 pm local time. If the unit is ready earlier, we’ll let you know. Check-out is normally 11 am local time, but we’d be happy to extend it as long as we don’t have a cleaning scheduled. Just let us know.  2. All bookings require a security deposit of at least $300, which will be refunded within 7 days of your check-out. 3. For security measures we require all guests to provide proof of identification through ID verification on our own website. In order to check in we'll need a photo of your ID.  4. Our cancellation policy is as shown on our ad and defined by the site you are booking through.  5. Don’t let $300 go up in smoke. There's no smoking allowed in any Flatbook and a $300 fine for breaking this rule.  6. Unfortunately we don’t allow pets in any of our apartments. 7. Unless you’re staying in one of our specialty apartments, we don’t allow parties or excessive noise. 8. If we find the place very messy, we have to charge an extra $40 for every extra hour o",
2895173,Junior 1-BR in West Village,31752418675,verified,Amanda,Manhattan,West Village,40.73075,-74.00238,United States,US,False,moderate,Entire home/apt,2007,$169 ,$34 ,45,21,1/2/2018,0.31,1,1,321,Please be respectful to the other roommate and clean after yourselves. We love this place and we want guests to have the same experience you have when they arrive.,
2895725,Spacious Upper West side 2 bedroom apartment,44971657833,verified,Connie,Manhattan,Upper West Side,40.79053,-73.96956,United States,US,True,flexible,Entire home/apt,2005,$832 ,$166 ,5,8,1/1/2019,0.12,1,1,203,1) No Smoking in property!!!  2) Do not slam doors!!! Close lightly Please!!! 3) No Shoes in house (except slippers) 4) Quiet down AFTER 10PM.,
2896277,Spacious 2BR in the heart of Soho,11367050950,verified,Omar,Manhattan,SoHo,40.725770000000004,-74.00279,United States,US,True,strict,Entire home/apt,2009,$181 ,$36 ,5,4,4/22/2016,0.08,2,1,149,,
2896830,PRIVATE ROOM in Peacuful 2-Bedroom,86495320290,verified,Mike,Manhattan,East Harlem,40.79981,-73.94048000000001,United States,US,True,moderate,Private room,2003,$760 ,$152 ,7,7,10/15/2018,0.12,4,3,147,- No excess noise after 11pm. - No recreational drugs. - No open flames.,
2897382,Great location in the East Village,3271482229,unconfirmed,Steve,Manhattan,East Village,40.72829,-73.98907,United States,US,True,moderate,Private room,2004,$484 ,$97 ,13,42,5/25/2019,0.62,2,1,307,,
2897934,NoHa Living,31484398320,unconfirmed,Evan,Manhattan,East Harlem,40.807970000000005,-73.93686,United States,US,True,strict,Private room,2022,$624 ,$125 ,1,1,12/14/2013,0.01,5,1,166,"Orderly house and we want to keep it this way Bathrooms don't have high traffic as we agree to take shower before bed and not in the morning Everyone picks up after themselves No disturbance of any kind greatly appreciated:) but ASK ME (not other guests) questions any time you need/want to know something or unsure about how to do things, etc. Emails is the best way to communicate. When talking on the phone, please do it in your room with door closed Please walk calm, don't run the stairs, as it reduce the noise Close all doors gently please Non-smoker only Guests will be liable for any damages they caused: inspect the room upon arrival and sign the report Only food items can be placed into the kitchen sink compost disposal No smoking anywhere in/out of the house No perfume/cologne, scented laundry detergent allowed Doing laundry in a sink/bath not allowed Guests/visitors are not permitted Rescued/injured animals can be brought in for further assistance",
2898487,Charming Jr. 1 bedroom Midtown,23736884079,verified,Chun,Manhattan,Midtown,40.75184,-73.97199,United States,US,True,strict,Entire home/apt,2022,$406 ,$81 ,7,3,5/24/2019,0.09,5,1,299,,
2899039,West Village Apt steps to Path,4186774242,verified,Raj,Manhattan,West Village,40.732459999999996,-74.00854,United States,US,False,strict,Entire home/apt,2017,$341 ,$68 ,1,0,,,5,1,278,No guests/visitors Storage not provided Limited number of things allowed:one-two suitcases The house is quiet and we want to keep it this way.  Please pick up after yourself and please keep toilet bowl and shower clean Toilet must be closed when not in use It is requested to take shower and do shaving before bed and keep morning bathroom time to the minimum: others are waiting  Additional toilet/sink is on the first floor.  No disturbance: please walk slowly on the stairs Keep phone conversation inside your room without using computer speakers,
2899591,"Room on Upper West Side, Manhattan",71598944239,verified,Brooke,Manhattan,Upper West Side,40.77895,-73.97837,United States,US,True,strict,Private room,2022,$740 ,$148 ,2,0,,,3,1,103,"Please expect to share the apartment with guests having various backgrounds. Be respectful and decent, also enjoy interacting with each other. Please dress descent in the house especially in and out of the shower.",
2900143,"❤️ 2 Beds Option + Private Bath, Sunshine Bushwick",35827399543,unconfirmed,Mia,Brooklyn,Bushwick,40.6922,-73.92399,United States,US,False,moderate,Private room,2018,$556 ,$111 ,2,226,6/30/2019,3.42,5,2,344,No pets. No smoking.,
2900696,Great NYC Location for beginning of JULY,50706117388,unconfirmed,Julia,Manhattan,Upper West Side,40.77928,-73.97966,United States,US,True,strict,Entire home/apt,2011,$468 ,$94 ,7,3,1/5/2016,0.04,5,1,82,"There will be a small lockbox at the building entrance (on your left side if you are facing the door). The code for this lockbox will be send to you after you have confirmed your reservation. Inside the lockbox you will find 2 keys, one that works for both of the building doors ,and another for the apartment's door).  NO smoking. *We are not responsible for any accidents, injuries, or illness that occurs while on the premises; or for the loss of guests' personal belongings or valuables. By accepting this reservation, it is agreed that all guests are expressly assuming the risk of any harm to themselves arising from their use of the premises or to others whom they invite to use the premises.",
2901248,Large 1 bedroom apartment (shared),30697049406,verified,Lexy,Bronx,Bronxdale,40.85667,-73.86543,United States,US,False,strict,Entire home/apt,2006,$808 ,$162 ,1,1,8/19/2014,0.02,3,1,256,,
2901800,Beautiful Penthouse Apartment,74877358511,unconfirmed,Anthony,Manhattan,Kips Bay,40.74282,-73.9803,United States,US,False,flexible,Private room,2017,$416 ,$83 ,30,42,12/10/2018,0.67,1,26,323,,
2902353,Sunny Room,53844747475,verified,Emily,Queens,Astoria,40.7672,-73.90795,United States,US,False,moderate,Private room,2006,$401 ,$80 ,7,0,,,1,1,236,,
2902905,Sunny Place in Cool Hood,13409537689,verified,Jason,Brooklyn,Crown Heights,40.676590000000004,-73.95608,United States,US,True,moderate,Entire home/apt,2010,$528 ,$106 ,2,14,7/13/2018,0.21,4,1,258,,
2903457,"Woodside Queens,  New York",98647156792,unconfirmed,Kenny,Queens,Sunnyside,40.74071,-73.9191,United States,US,False,flexible,Private room,2017,$174 ,$35 ,1,0,,,3,1,130,,
2904010,Cozy room in NYC 5,77740361119,unconfirmed,Lilia,Manhattan,Harlem,40.82078,-73.93771,United States,US,False,moderate,Private room,2015,$929 ,$186 ,4,19,4/10/2019,0.31,5,8,359,"Nothing unusual, I expect that you clean after yourself (bathroom, kitchen...).  The building is calm, so no loud music or parties is allowed. Check-in time on week days will be limited to non-business hours (after 6pm).  Check-out time is whenever you want, unless I've other guest that are arriving.",
2904562,Private Room in Upper East Side,96579088473,verified,Diana,Manhattan,Upper East Side,40.77127,-73.95033000000001,United States,US,True,moderate,Entire home/apt,2022,"$1,032 ",$206 ,3,2,7/25/2017,0.08,4,1,97,1) No Smoking in property!!!  2) Do not slam doors!!! Close lightly Please!!! 3) No Shoes in house (except slippers) 4) Quiet down AFTER 10PM.,
2905114,MIDTOWN MANHATTAN-WALKING DISTANCE TO EMPIRE STATE,58752328944,unconfirmed,David,Manhattan,Kips Bay,40.74221,-73.98121,United States,US,True,flexible,Private room,2010,$72 ,$14 ,2,2,1/2/2017,0.06,1,2,353,"House Rules 1. All bookings made at least a week before check in are fully refundable if cancelled within 24 hours of booking. After this, you will receive a 50% refund if you cancel at least 7 days before the start of your trip. 2. Check-in time is any time after 4 pm local time. If the unit is ready earlier, we’ll let you know. Check-out is normally 11 am local time, but we’d be happy to extend it as long as we don’t have a cleaning scheduled. Just let us know.  3. All bookings require a security deposit of at least $300. 4. For security measures we require all guests to provide proof of identification through ID verification on our own website. In order to check in, we'll need a photo of your ID.  5. Don’t let $300 go up in smoke. There's no smoking allowed in any Flatbook and a $300 fine for breaking this rule.  6. Unfortunately we don’t allow pets in most of our apartments. 7. Unless you’re staying in one of our specialty apartments, we don’t allow parties or excessive noise. 8. I",
2905666,One  Room in Lovely Zen House,35036290215,unconfirmed,Kat,Queens,Forest Hills,40.71215,-73.85356,United States,US,True,strict,Private room,2015,$577 ,$115 ,15,6,4/21/2018,0.1,5,1,26,"The (URL HIDDEN) use of tobacco/smoking/substances of abuse (including alcohol) on the property...quiet during night (you can go in and out as you like, just of course be quiet when we might be sleeping, as we try to be if coming home late when you might be in bed)...tell us a bit about yourself if you like and pls ask us about anything we might be able to tell you about locally/perhaps assist with...contact us when you're here with any questions!  We particularly dislike jokes having to do with avocados.  :   )  Do sign our map of where you're from. Some more room/house use points: ->  If you need it before we actually meet and show you, the bathroom is upstairs; feel free to get water for your use from bathroom faucet (it's fine to drink here, and in most of the US.  Bottled water is rarely different than usual US tap water, with the bottling craze a big drain on resources, to be actively eschewed for the sake of our Mother Earth...). ->  If you need to borrow a towel, there should b",
2906219,Your private space in Brooklyn,50577805872,unconfirmed,Frank,Brooklyn,Williamsburg,40.71524,-73.94299000000001,United States,US,True,flexible,Private room,2013,$859 ,$172 ,1,17,5/12/2019,0.55,3,1,240,"• No smoking, pets, or unannounced guests. • Respect the check-out time of 11:00 AM. If you have special requests, discuss with us ahead of time! • Clean the kitchen/wash dishes after use. • Keep a reasonable volume after 11:00 PM & before 8 AM",
2906771,Cozy 2BR Brooklyn retreat w/Bckyard,789557207,verified,Carolyn,Brooklyn,South Slope,40.66551,-73.98805,United States,US,True,strict,Private room,2019,$564 ,$113 ,10,0,,,5,1,185,"Please try to be mindful/aware of your actions and their effect on others No disturbance is greatly appreciated:) When talking on the phone, please do so only in your room with door closed:) unless it's an emergency Please walk, don't run the stairs (the slower you walk the less noise there is) Close all doors gently please No smoking anywhere in or out of the house If you tell me you stayed with friends who smoked as a reason for the smell, it will not matter No perfume/cologne, scented laundry detergent allowed (suitable product provided, just ask if needed) Guests/visitors not permitted",
2907323,New 1BR + 1BA with Private Entrance,29927549025,unconfirmed,Jullien,Brooklyn,Bedford-Stuyvesant,40.67828,-73.92965,United States,US,False,flexible,Private room,2016,"$1,101 ",$220 ,3,130,6/10/2019,2.0,4,3,259,1) No Smoking in property!!!  2) Do not slam doors!!! Close lightly Please!!! 3) No Shoes in house (except slippers) 4) Quiet down AFTER 10PM.,
2907876,LARGE 2 BEDROOM FOR SUPER BOWL,11506092706,unconfirmed,Yigal,Manhattan,Hell's Kitchen,40.76874,-73.98756999999999,United States,US,False,flexible,Entire home/apt,2010,$381 ,$76 ,1,0,,,2,1,57,,
2908428,GET COSY IN WILLIAMSBURG...,28680238815,verified,Rory,Brooklyn,Williamsburg,40.70491,-73.94268000000001,United States,US,True,moderate,Entire home/apt,2017,"$1,158 ",$232 ,3,3,5/30/2015,0.05,3,1,405,,
2908980,Classic Chelsea Brownstone 1 Bedroom,91071574158,verified,Wade,Manhattan,Chelsea,40.74374,-74.00044,United States,US,False,moderate,Entire home/apt,2018,$224 ,$45 ,2,177,7/1/2019,2.85,5,2,290,"You will meet a clean apartment, please leave it clean  No Smoking please. Sorry, but NO PETS",
2909533,Inspiring spacious loft space,11176709638,unconfirmed,Katja,Brooklyn,Williamsburg,40.71955,-73.96049000000001,United States,US,False,flexible,Private room,2011,$68 ,$14 ,2,129,2/23/2019,2.22,2,1,199,,
2910085,Brooklyn garden 2 bedroom,71879212425,verified,Wendy,Brooklyn,Boerum Hill,40.6863,-73.98572,United States,US,False,flexible,Entire home/apt,2021,"$1,047 ",$209 ,5,34,6/22/2019,0.5,4,3,6,,
2910637,Room in a lovely 2br apartment - East Williamsburg,95120301699,verified,Silvia,Brooklyn,Williamsburg,40.70731,-73.94344,United States,US,False,moderate,Private room,2004,$398 ,$80 ,7,5,8/5/2018,0.14,5,1,142,"House Rules 1. Check-in is 4 pm local time. If the unit is ready earlier, we’ll let you know. Check-out is normally 11 am local time, but we’d be happy to extend it as long as we don’t have a cleaning scheduled. Just let us know.  2. All bookings require a security deposit of at least $300, which will be refunded within 7 days of your check-out. 3. For security measures we require all guests to provide proof of identification through ID verification on our own website. In order to check in we'll need a photo of your ID.  4. Our cancellation policy is as shown on our ad and defined by the site you are booking through.  5. Don’t let $300 go up in smoke. There's no smoking allowed in any Flatbook and a $300 fine for breaking this rule.  6. Unfortunately we don’t allow pets in any of our apartments. 7. Unless you’re staying in one of our specialty apartments, we don’t allow parties or excessive noise. 8. If we find the place very messy, we have to charge an extra $40 for every extra hour o",
2911189,Cozy Studio in Murray Hill,14218186221,unconfirmed,Lala,Manhattan,Murray Hill,40.75053,-73.97747,United States,US,False,flexible,Entire home/apt,2010,"$1,183 ",$237 ,2,31,5/26/2019,0.46,3,1,291,"House Rules 1. All bookings made at least a week before check in are fully refundable if cancelled within 24 hours of booking. After this, you will receive a 50% refund if you cancel at least 7 days before the start of your trip. 2. Check-in time is any time after 4 pm local time. If the unit is ready earlier, we’ll let you know. Check-out is normally 11 am local time, but we’d be happy to extend it as long as we don’t have a cleaning scheduled. Just let us know.  3. All bookings require a security deposit of at least $300. 4. For security measures we require all guests to provide proof of identification through ID verification on our own website. In order to check in, we'll need a photo of your ID.  5. Don’t let $300 go up in smoke. There's no smoking allowed in any Flatbook and a $300 fine for breaking this rule.  6. Unfortunately we don’t allow pets in most of our apartments. 7. Unless you’re staying in one of our specialty apartments, we don’t allow parties or excessive noise. 8. I",
2911742,Huge Sunny Family Friendly Loft in Greenpoint,5851780367,verified,Jessie,Brooklyn,Greenpoint,40.72323,-73.94915,United States,US,True,moderate,Entire home/apt,2015,$641 ,$128 ,5,0,,,2,1,231,Please don't use the washer and dryer after 10pm or before 8am!,
2912294,Cozy East Village Bedroom,52762419235,verified,Kris,Manhattan,East Village,40.73033,-73.98742,United States,US,True,strict,Private room,2006,$816 ,$163 ,5,2,10/22/2016,0.06,3,1,131,,
2912846,Summer catsit in Brooklyn!,75410114229,unconfirmed,Jeremy,Brooklyn,Crown Heights,40.66806,-73.95358,United States,US,True,moderate,Entire home/apt,2019,$711 ,$142 ,3,9,11/18/2016,0.13,2,1,405,Please be respectful of other guests No Pets and No Smoking No loud music or noise after 10 PM,
2913399,Studio Apartment centrally located!,9015884787,unconfirmed,Lisa,Manhattan,Kips Bay,40.73899,-73.98153,United States,US,False,flexible,Entire home/apt,2003,$530 ,$106 ,3,0,,,5,1,307,- Additional charge for extra guests - No Smoking! - No pets,
2913951,Sunny & Bright Bohemian 2BR XL Loft,22824404508,verified,Vida,Brooklyn,Greenpoint,40.72532,-73.93992,United States,US,False,moderate,Entire home/apt,2005,$202 ,$40 ,30,8,7/17/2018,0.14,5,52,176,,
2914503,Big room in Greenpoint.,2471034954,unconfirmed,Brandon,Brooklyn,Greenpoint,40.73397,-73.95442,United States,US,False,strict,Private room,2014,$864 ,$173 ,4,4,5/20/2014,0.06,2,1,196,"- Non-smoker - No cologne/perfumed spray use - Please take shower before bed to avoid morning rush - Take off street shoes and place on rack, - Please bring slippers or ask me for a pair - Recycling and reusable shopping bag use (provided) - Limit things to bring in: 1-2 suitcases OK - Mailing address not to be shared with anyone; you will be charged $200 if you do",
2915056,1 BR Apt in Park Slope Brooklyn,98027598556,unconfirmed,Katie And Matt,Brooklyn,Park Slope,40.66952,-73.98285,United States,US,True,flexible,Entire home/apt,2018,$945 ,$189 ,4,8,12/30/2016,0.12,3,1,148,,
2915608,Delicious & Airy Apt in Landmark Brownstone,23460567788,verified,Subhana,Brooklyn,Bedford-Stuyvesant,40.686370000000004,-73.9417,United States,US,False,flexible,Entire home/apt,2010,"$1,157 ",$231 ,2,43,7/1/2019,0.65,5,1,356,We like quirt. So please dont hold party at night.,
2916160,Cozy 1BR in Morningside Heights,6968301933,verified,Robyn,Manhattan,Morningside Heights,40.812329999999996,-73.96101,United States,US,True,flexible,Entire home/apt,2016,$248 ,$50 ,1,1,3/20/2016,0.02,5,1,157,,
2916712,Lower East Side Haven on Ludlow St,84564273626,unconfirmed,Kate,Manhattan,Lower East Side,40.71715,-73.98935999999999,United States,US,True,strict,Entire home/apt,2014,"$1,158 ",$232 ,8,5,1/6/2016,0.07,4,1,12,"Please, No shoes allowed. There's a mat for them, just inside the door.",
2917265,Sunny apt with Backyard,20281349564,unconfirmed,Rebecca,Brooklyn,Bushwick,40.7018,-73.91823000000001,United States,US,False,flexible,Entire home/apt,2021,$303 ,$61 ,3,14,2/20/2017,0.21,2,1,381,"House Rules 1. Check-in is 4 pm local time. If the unit is ready earlier, we’ll let you know. Check-out is normally 11 am local time, but we’d be happy to extend it as long as we don’t have a cleaning scheduled. Just let us know.  2. All bookings require a security deposit of at least $300, which will be refunded within 7 days of your check-out. 3. For security measures we require all guests to provide proof of identification through ID verification on our own website. In order to check in we'll need a photo of your ID.  4. Our cancellation policy is as shown on our ad and defined by the site you are booking through.  5. Don’t let $300 go up in smoke. There's no smoking allowed in any Flatbook and a $300 fine for breaking this rule.  6. Unfortunately we don’t allow pets in any of our apartments. 7. Unless you’re staying in one of our specialty apartments, we don’t allow parties or excessive noise. 8. If we find the place very messy, we have to charge an extra $40 for every extra hour o",
2917817,"Charming, sunny oasis",94398957143,verified,Nadine,Brooklyn,Bedford-Stuyvesant,40.681709999999995,-73.92085,United States,US,False,flexible,Entire home/apt,2012,$744 ,$149 ,10,58,6/3/2019,0.92,3,1,422,"House Rules 1. Check-in is 4 pm local time. If the unit is ready earlier, we’ll let you know. Check-out is normally 11 am local time, but we’d be happy to extend it as long as we don’t have a cleaning scheduled. Just let us know.  2. All bookings require a security deposit of at least $300, which will be refunded within 7 days of your check-out. 3. For security measures we require all guests to provide proof of identification through ID verification on our own website. In order to check in we'll need a photo of your ID.  4. Our cancellation policy is as shown on our ad and defined by the site you are booking through.  5. Don’t let $300 go up in smoke. There's no smoking allowed in any Flatbook and a $300 fine for breaking this rule.  6. Unfortunately we don’t allow pets in any of our apartments. 7. Unless you’re staying in one of our specialty apartments, we don’t allow parties or excessive noise. 8. If we find the place very messy, we have to charge an extra $40 for every extra hour o",
2918369,Awesome Bedroom close to Manhattan!,17127422163,verified,Rob,Brooklyn,Greenpoint,40.73303,-73.95153,United States,US,False,moderate,Private room,2005,$801 ,$160 ,2,19,1/5/2016,0.28,3,1,116,ALCOHOL IS STRICTLY NOT ALLOWED INSIDE THE HOUSE !,
2918922,Spacious 3BD/2BA - Parking Included,43946537840,verified,Nancy,Brooklyn,Bedford-Stuyvesant,40.69142,-73.93481,United States,US,False,moderate,Entire home/apt,2015,"$1,100 ",$220 ,3,209,6/26/2019,3.11,4,2,172,No smoking inside the house and make sure to think about the house as your own,
2919474,Lovely Studio in New York City,70446160623,verified,Robyn,Queens,Sunnyside,40.74409,-73.91868000000001,United States,US,False,moderate,Entire home/apt,2004,$870 ,$174 ,14,6,9/11/2016,0.09,2,1,402,,
2920026,Apartment-NYC-LES-Lower East Side,41245646490,verified,Adrien,Manhattan,Lower East Side,40.71864,-73.98496,United States,US,True,moderate,Entire home/apt,2014,$462 ,$92 ,1,2,7/13/2015,0.04,2,1,131,,
2920579,Cozy Sun Drenched Crown Heights Apt,48406917130,unconfirmed,Rose,Brooklyn,Crown Heights,40.66646,-73.93605,United States,US,True,flexible,Entire home/apt,2021,$909 ,$182 ,5,1,1/8/2015,0.02,3,1,305,"Non smoker only Guest may not bring car to the area Perfumes, sprays, candles, not allowed Cat in the house Mailing address may not be given to anyone without written permission If we get correspondence on your name, you will be charged $200  Separate recycle from trash (I can help, just ask) Black bag for recycling is in your room, put all in one bag Guests are not allowed The house is quiet as others are studying Please pick up after yourself as a courtesy to others Please don't leave your clothes or towel in the bathroom Any shampoo without name can be used (they are inside the shower) Please take shower at night or afternoon to avoid morning traffic. Use reusable bag (provided)  Please don't take disposable plastic bags from stores Food left over must be placed inside kitchen sink for automatic disposal",
2921131,"Huge, gorgeous apt in Harlem, NYC",81020268259,unconfirmed,Aktina,Manhattan,Harlem,40.81286,-73.94385,United States,US,False,moderate,Entire home/apt,2004,$205 ,$41 ,14,1,1/13/2014,0.01,2,1,118,Please do not smoke. Be respectful of other guests.,
2921683,Comfy & Spacious Room next to the Subway/Metro,81064911808,unconfirmed,Jenny,Bronx,Longwood,40.82347,-73.89495,United States,US,True,moderate,Private room,2011,$464 ,$93 ,4,26,5/28/2019,0.85,1,2,271,,
2922235,East Williamsburg Room near L train,51671210406,verified,Reid,Brooklyn,Williamsburg,40.70674,-73.94365,United States,US,False,strict,Private room,2022,"$1,015 ",$203 ,1,2,6/1/2016,0.03,4,1,9,"House Rules 1. Check-in is 4 pm local time. If the unit is ready earlier, we’ll let you know. Check-out is normally 11 am local time, but we’d be happy to extend it as long as we don’t have a cleaning scheduled. Just let us know.  2. All bookings require a security deposit of at least $300, which will be refunded within 7 days of your check-out. 3. For security measures we require all guests to provide proof of identification through ID verification on our own website. In order to check in we'll need a photo of your ID.  4. Our cancellation policy is as shown on our ad and defined by the site you are booking through.  5. Don’t let $300 go up in smoke. There's no smoking allowed in any Flatbook and a $300 fine for breaking this rule.  6. Unfortunately we don’t allow pets in any of our apartments. 7. Unless you’re staying in one of our specialty apartments, we don’t allow parties or excessive noise. 8. If we find the place very messy, we have to charge an extra $40 for every extra hour o",
2922788,Brand New 3BR Apartment,60755015374,unconfirmed,Corey,Brooklyn,Williamsburg,40.709579999999995,-73.94287,United States,US,True,moderate,Entire home/apt,2007,$280 ,$56 ,3,1,1/2/2014,0.01,1,1,191,,
2923340,3 Bed/ 2 Bath Full Apt. BK Heights,4732607328,verified,Eric,Brooklyn,Brooklyn Heights,40.691340000000004,-73.99334,United States,US,True,flexible,Entire home/apt,2015,$396 ,$79 ,2,10,9/20/2017,0.2,1,1,237,"- No smoking anywhere on premises, inside or outside. - No pets. - Please take off shoes in the apartment. - Please leave the house in the condition you found it in. - Please be respectful to neighbors. - Turn off A/C when away.",
2923892,STYLISH NYC OASIS NEAR CENTRAL PARK,7266885274,verified,Rt,Manhattan,Upper West Side,40.800329999999995,-73.96509,United States,US,True,flexible,Entire home/apt,2021,$836 ,$167 ,90,54,1/10/2019,0.86,2,1,202,,
2924445,Live like a native,21338861795,unconfirmed,Chris,Brooklyn,Bedford-Stuyvesant,40.68773,-73.9452,United States,US,False,strict,Private room,2022,$595 ,$119 ,1,0,,,4,1,273,,
2924997,Luxurious & Spacious 1 Bedroom Apt,40501184889,unconfirmed,Sam,Brooklyn,Williamsburg,40.71131,-73.96813,United States,US,False,moderate,Entire home/apt,2009,$183 ,$37 ,1,0,,,1,1,332,"Please treat my place as your own. Turn off the lights, AC, fan, etc when you leave the apartment, and wash any kitchenware and dishes that you've used. Put used towels on the floor, so that I now they've been used.",
2925549,Huge Bedroom at Downtown Manhattan,84534207183,verified,Luna,Manhattan,Lower East Side,40.710440000000006,-73.98756,United States,US,False,flexible,Private room,2009,$912 ,$182 ,1,16,2/28/2018,0.75,3,1,162,,
2926102,Private Deck 2 Bedroom+2 Bath East Village,53836960917,verified,Jeni,Manhattan,East Village,40.72247,-73.97923,United States,US,False,strict,Entire home/apt,2009,$217 ,$43 ,28,92,7/25/2018,1.37,3,1,383,,
2926654,LES Sun Drenched w/ Balcony,43709902440,verified,Christina,Manhattan,Chinatown,40.71651,-73.99053,United States,US,False,flexible,Entire home/apt,2019,$637 ,$127 ,3,2,5/19/2015,0.03,5,1,103,"House Rules 1. All bookings made at least a week before check in are fully refundable if cancelled within 24 hours of booking. After this, you will receive a 50% refund if you cancel at least 7 days before the start of your trip. 2. Check-in time is any time after 4 pm local time. If the unit is ready earlier, we’ll let you know. Check-out is normally 11 am local time, but we’d be happy to extend it as long as we don’t have a cleaning scheduled. Just let us know.  3. All bookings require a security deposit of at least $300. 4. For security measures we require all guests to provide proof of identification through ID verification on our own website. In order to check in, we'll need a photo of your ID.  5. Don’t let $300 go up in smoke. There's no smoking allowed in any Flatbook and a $300 fine for breaking this rule.  6. Unfortunately we don’t allow pets in most of our apartments. 7. Unless you’re staying in one of our specialty apartments, we don’t allow parties or excessive noise. 8. I",
2927206,Penthouse With Private Roof Deck,49714223437,unconfirmed,Patrick,Manhattan,East Village,40.728640000000006,-73.98216,United States,US,True,moderate,Private room,2010,$586 ,$117 ,7,130,7/3/2019,3.38,5,1,74,"No smoking inside the house.  No loud parties or disturbing the peace or public nuisance allowed. This is a strictly residential rental NOT commercial.  If holding parties you must first seek owner's permission before inviting anyone other than immediate family.   This is a peaceful family neighborhood and I like to keep it that way.  Clean after yourself, clean the stove and oven and all the appliances.  Leave everything exactly in the condition it is in when you first arrived.  Treat this house as if it is your own with the proper respect and courtesy.  No pets allowed.  Check in is 4PM, Check out 10AM.  On Check out date please leave all the dirty sheets, towels, linens by the washer for the maid.  Please leave the outside trash container for the garbage truck on the night before it arrives.",
2927758,Private Parlour Floor,19192323301,verified,Lorna,Brooklyn,Clinton Hill,40.680409999999995,-73.95838,United States,US,False,moderate,Entire home/apt,2012,$906 ,$181 ,4,74,6/11/2019,1.93,3,1,163,"Ali's House Rules When you stay in an Airbnb, you're staying in someone's home. Here are some guidelines Joe asks all guests to follow.  Quiet down AFTER 10PM specially in week days",
2928311,"Chic, neat & cozy small 1 BR Apt",37057893942,verified,Boryana,Queens,Astoria,40.76165,-73.92179,United States,US,True,strict,Entire home/apt,2019,$695 ,$139 ,5,0,,,1,1,235,,
2928863,West Village Wonder -spacious 1 bed,33051905762,unconfirmed,Owen,Manhattan,West Village,40.73552,-74.00716,United States,US,True,strict,Entire home/apt,2021,$890 ,$178 ,4,52,6/26/2019,0.82,1,1,13,No pets and No smoking. Guests need to be respectful and considerate of others.,
2929415,Entire Sun Drenched Apartment in Clinton Hill,55359312559,verified,Mariya,Brooklyn,Clinton Hill,40.68476,-73.96672,United States,US,True,flexible,Entire home/apt,2012,$273 ,$55 ,30,17,8/30/2017,0.25,1,1,186,,
2929968,Beautiful renovated 1 bedroom Apt.,66547078679,verified,Edgar,Brooklyn,Gowanus,40.66983,-73.9904,United States,US,False,flexible,Entire home/apt,2009,$88 ,$18 ,4,52,6/30/2019,0.8,1,1,63,"Please do not smoke, and be respectful of others in the house.",
2930520,"SALE- 2 BEDS, IN PRIVATE BEDROOM NEAR MANHATTAN!",45191774914,verified,C S,Brooklyn,Flatbush,40.64717,-73.96189,United States,US,False,flexible,Private room,2011,$370 ,$74 ,1,64,6/15/2019,0.96,1,3,351,"House Rules 1. Check-in is 4 pm local time. If the unit is ready earlier, we’ll let you know. Check-out is normally 11 am local time, but we’d be happy to extend it as long as we don’t have a cleaning scheduled. Just let us know.  2. All bookings require a security deposit of at least $300, which will be refunded within 7 days of your check-out. 3. For security measures we require all guests to provide proof of identification through ID verification on our own website. In order to check in we'll need a photo of your ID.  4. Our cancellation policy is as shown on our ad and defined by the site you are booking through.  5. Don’t let $300 go up in smoke. There's no smoking allowed in any Flatbook and a $300 fine for breaking this rule.  6. Unfortunately we don’t allow pets in any of our apartments. 7. Unless you’re staying in one of our specialty apartments, we don’t allow parties or excessive noise. 8. If we find the place very messy, we have to charge an extra $40 for every extra hour o",
2931072,Williamsburg Luxury 1 Bedroom,26937784112,verified,Jayar,Brooklyn,Williamsburg,40.70867,-73.94799,United States,US,True,moderate,Entire home/apt,2009,$530 ,$106 ,2,0,,,3,1,410,No pets.  No smoking inside.,
2931625,Sunny 1 Bedroom Apt in Williamsburg,92863123427,unconfirmed,Kimberly,Brooklyn,Williamsburg,40.71371,-73.96236,United States,US,False,flexible,Entire home/apt,2003,"$1,008 ",$202 ,2,28,10/31/2018,0.55,1,1,49,No pets. No smoking. Guests need to be respectful and gentle.,
2932177,Spacious 1-BR Midtown West,44647292377,unconfirmed,Kevin,Manhattan,Hell's Kitchen,40.757740000000005,-73.99371,United States,US,False,flexible,Entire home/apt,2022,$432 ,$86 ,2,3,12/14/2015,0.04,3,1,4,"We are a relaxed household, but expect guests to use common sense and to respect our home.  Smoking is not permitted in any part of the property, including common living spaces, the porch, bedroom and bedroom window. Anyone found to have smoked will be asked to leave immediately. When using the kitchen, guests agree to: - Wash up all dishes, cutlery, pots and pans after use - Clean work surfaces and table - Return all utensils to their origin place - Put all rubbish in the trash Shower & Toilet: - Please leave the shower and toilet in a clean, hygienic and fresh state.  Bedroom: - Please refrain from playing music prior to 9am and after 8pm. Bikes: - There are two bikes available to use at your own risk. Guests outside of AirBnB are not permitted to stay in the apartment.",
2932729,GREAT in CHELSEA:  JUST SEE REVIEWS,21550034912,unconfirmed,Joseph,Manhattan,Chelsea,40.746109999999994,-74.00014,United States,US,True,strict,Entire home/apt,2019,$903 ,$181 ,7,55,6/4/2019,1.12,5,1,157,"Guest should do there dishes and clean after themselves. No alcohol, No drugs, No party's and most important Don't Disturb other guests!",
2933281,Spacious and bright Bedroom,48348271930,verified,Emily,Brooklyn,Crown Heights,40.66876,-73.95633000000001,United States,US,True,flexible,Entire home/apt,2021,"$1,089 ",$218 ,4,6,5/9/2019,0.1,2,2,110,"Please treat my place as your own. Turn off the lights, AC, fan, etc when you leave the apartment, and wash any kitchenware and dishes that you've used. Put used towels on the floor, so that I now they've been used.",
2933834,Large BR in a 3BR apartment,76508213419,verified,Cagil,Brooklyn,Prospect Heights,40.67321,-73.96514,United States,US,False,flexible,Private room,2020,$449 ,$90 ,1,0,,,2,1,406,"Share our house as a guest, don't worry about cost of snacks or an occasional beer. No smoking. Please consult first if you will be traveling with small children. We try to keep the space clean and ask everyone to remove their shoes in the appartment and be respectful to everyone.",
2934386,Staying in Greenpoint/Williamsburg!,5341465143,verified,Angelina,Brooklyn,Greenpoint,40.73408,-73.95600999999999,United States,US,False,moderate,Private room,2011,$614 ,$123 ,3,19,1/23/2018,0.32,3,4,29,,
2934938,"Bright & cozy, private UES studio",10330259792,unconfirmed,Daria,Manhattan,Upper East Side,40.77519,-73.95688,United States,US,False,flexible,Entire home/apt,2004,$442 ,$88 ,9,9,9/5/2017,0.13,2,1,102,"Guest should do there dishes and clean after themselves. No alcohol, No drugs, No party's and most important Don't Disturb other guests!",
2935491,"Modern & Artsy, Awesome Location",85909575316,verified,Enrique,Brooklyn,Williamsburg,40.71243,-73.95873,United States,US,True,flexible,Private room,2006,$384 ,$77 ,1,9,7/4/2016,0.14,2,1,130,"Please be respectul of other occupants of the apartment. This means: no smoking indoors, no parties, and cleaning up after yourself.",
2936043,"Sunny Chelsea 1 B.R. Hi Line, Washer/Dryer, 3 Beds",59997315132,unconfirmed,Michael,Manhattan,Chelsea,40.74978,-73.99686,United States,US,True,moderate,Entire home/apt,2006,$450 ,$90 ,90,20,12/15/2018,0.31,3,19,170,,
2936595,Hidden gem in Fort Greene,95251150373,unconfirmed,Brian,Brooklyn,Fort Greene,40.692859999999996,-73.96993,United States,US,True,flexible,Entire home/apt,2011,$897 ,$179 ,4,45,1/3/2019,1.01,5,1,406,,
2937148,Nice bedroom,69210103770,unconfirmed,Robert,Queens,Ridgewood,40.707159999999995,-73.89905999999999,United States,US,True,moderate,Private room,2006,$757 ,$151 ,1,275,7/5/2019,4.64,2,2,177,,
2937700,Large Stylish 1.5 BR Noho/Nolita,94403250611,verified,Laura,Manhattan,NoHo,40.72477,-73.99323000000001,United States,US,False,moderate,Entire home/apt,2007,$767 ,$153 ,2,8,1/2/2017,0.12,3,1,71,"Please try to make less noise when talking, moving suitcases in your room as the house has very little sound barrier. The stairs makes a lot of noise when people walk fast, please be considered. The guest must be a non-smoker and his/her clothes should not smell of smoke. No smoking inside/outside.  Use of cologne/perfume/other product with noticeable scent/ sprays are not allowed in or out of the house. Trash has to be separated from recycle. No trash may be put in any containers outside of the house. If you unable to separate the trash, at least, please be considered and don't mix recycles with food or personal product waist. Single use plastic bags should not be taking from the store: you will get your personal fordable reusable bag and may keep it. Please use other resources conservatively and be conscience about the impact on the environment. We all share this planet. Don't give this mailing address to anyone before confirming by email First offense address sharing $200, and every",
2938252,Big Sunlit Studio - Nice Bed - 18 min to Manhattan,78734842855,unconfirmed,Jp,Queens,Sunnyside,40.74409,-73.92471,United States,US,True,flexible,Entire home/apt,2014,$459 ,$92 ,7,27,8/28/2016,0.4,5,1,108,1. guest should do the dishes by themselves. 2. late check out will be charged $30 from your deposit.,
2938804,SUNNY APARTMENT DOWNTOWN!,80342483146,unconfirmed,Gill,Manhattan,East Village,40.72287,-73.98461999999999,United States,US,False,moderate,Entire home/apt,2021,$461 ,$92 ,2,21,10/10/2016,0.31,5,1,423,"House Rules 1. Check-in is 4 pm local time. If the unit is ready earlier, we’ll let you know. Check-out is normally 11 am local time, but we’d be happy to extend it as long as we don’t have a cleaning scheduled. Just let us know.  2. All bookings require a security deposit of at least $300, which will be refunded within 7 days of your check-out. 3. For security measures we require all guests to provide proof of identification through ID verification on our own website. In order to check in we'll need a photo of your ID.  4. Our cancellation policy is as shown on our ad and defined by the site you are booking through.  5. Don’t let $300 go up in smoke. There's no smoking allowed in any Flatbook and a $300 fine for breaking this rule.  6. Unfortunately we don’t allow pets in any of our apartments. 7. Unless you’re staying in one of our specialty apartments, we don’t allow parties or excessive noise. 8. If we find the place very messy, we have to charge an extra $40 for every extra hour o",
2939357,*Upper East Side Cozy 1 Bedroom*,40759104672,verified,Ro,Manhattan,Upper East Side,40.76352,-73.95548000000001,United States,US,False,strict,Entire home/apt,2003,$379 ,$76 ,4,105,6/29/2019,1.56,2,1,249,"House Rules 1. All bookings made at least a week before check in are fully refundable if cancelled within 24 hours of booking. After this, you will receive a 50% refund if you cancel at least 7 days before the start of your trip. 2. Check-in time is any time after 4 pm local time. If the unit is ready earlier, we’ll let you know. Check-out is normally 11 am local time, but we’d be happy to extend it as long as we don’t have a cleaning scheduled. Just let us know.  3. All bookings require a security deposit of at least $300. 4. For security measures we require all guests to provide proof of identification through ID verification on our own website. In order to check in, we'll need a photo of your ID.  5. Don’t let $300 go up in smoke. There's no smoking allowed in any Flatbook and a $300 fine for breaking this rule.  6. Unfortunately we don’t allow pets in most of our apartments. 7. Unless you’re staying in one of our specialty apartments, we don’t allow parties or excessive noise. 8. I",
2939909,Big Room near Prospect Park.,2800775689,unconfirmed,Sasha,Brooklyn,Flatbush,40.63832,-73.96769,United States,US,False,moderate,Private room,2013,$701 ,$140 ,5,77,12/16/2018,1.14,5,1,114,,
2940461,Historic Townhouse 3bed 2bath * 1 block to subway,37490138094,unconfirmed,Jenny And Mark,Brooklyn,Bushwick,40.690670000000004,-73.92206999999999,United States,US,True,moderate,Entire home/apt,2006,$242 ,$48 ,2,6,5/1/2019,0.95,5,2,132,Please take off your shoes outside of house. Keep clean in the kitchen and bathroom. This room is only for one person. ,
2941014,Private Furnished Studio Apartment,27121918691,unconfirmed,Jessica,Manhattan,Upper East Side,40.77452,-73.94951,United States,US,False,strict,Entire home/apt,2018,$243 ,$49 ,30,26,4/21/2019,0.41,3,1,-3,"Please expect to share the apartment with guests having various backgrounds. Be respectful and decent, also enjoy interacting with each other. Please dress descent in the house especially in and out of the shower.",
2941566,1200sqft artsy loft SOHO/NOLITA gem,67478991897,verified,Adar,Manhattan,Nolita,40.72045,-73.99598,United States,US,False,strict,Entire home/apt,2012,$220 ,$44 ,3,6,5/19/2015,0.1,3,1,194,"House Rules 1. Check-in is 4 pm local time. If the unit is ready earlier, we’ll let you know. Check-out is normally 11 am local time, but we’d be happy to extend it as long as we don’t have a cleaning scheduled. Just let us know.  2. All bookings require a security deposit of at least $300, which will be refunded within 7 days of your check-out. 3. For security measures we require all guests to provide proof of identification through ID verification on our own website. In order to check in we'll need a photo of your ID.  4. Our cancellation policy is as shown on our ad and defined by the site you are booking through.  5. Don’t let $300 go up in smoke. There's no smoking allowed in any Flatbook and a $300 fine for breaking this rule.  6. Unfortunately we don’t allow pets in any of our apartments. 7. Unless you’re staying in one of our specialty apartments, we don’t allow parties or excessive noise. 8. If we find the place very messy, we have to charge an extra $40 for every extra hour o",
2942118,Stunning UWS studio private room;,88057406926,unconfirmed,Victoria,Manhattan,Upper West Side,40.77747,-73.98095,United States,US,True,moderate,Private room,2021,"$1,071 ",$214 ,3,10,5/27/2019,0.16,1,1,76,"You are free to help yourself to the cereal, milk, granola, and juice on the top shelf.  We won't be home to make breakfast but you are welcome to enjoy the pre-made items.  Everything should be on the top shelf.",
2942671,In the heart of Hell's Kitchen,18594977716,verified,Adam,Manhattan,Hell's Kitchen,40.76204,-73.99143000000001,United States,US,True,moderate,Entire home/apt,2021,$572 ,$114 ,1,0,,,2,1,27,Shoes off when in the house. No smoking inside. Try to keep it quiet.,
2943223,Sunny & Spacious in Park Slope,66135622663,verified,Richard And Mollie,Brooklyn,Park Slope,40.67281,-73.97628,United States,US,False,flexible,Entire home/apt,2008,$806 ,$161 ,2,24,12/21/2017,0.38,1,1,408,,
2943775,Spacious Modern Williamsburg Loft!,96943030633,unconfirmed,Phoebe,Brooklyn,Williamsburg,40.70981,-73.95189,United States,US,False,moderate,Entire home/apt,2018,"$1,114 ",$223 ,3,3,11/30/2014,0.05,3,1,147,"Do not break anything, leave it the way you found it (or better), do not steal anything. Have fun, have guests and have a good time.",
2944327,Cozy Private Room in Artsy Bushwick,11943632020,unconfirmed,Angela,Brooklyn,Bushwick,40.70381,-73.92766,United States,US,True,strict,Private room,2011,$652 ,$130 ,3,2,1/3/2014,0.03,4,1,57,,
2944880,Cozy 1BD-15min to NYC $150,94630477036,verified,Andrea,Brooklyn,Cobble Hill,40.68803,-73.99181999999999,United States,US,True,flexible,Entire home/apt,2014,$301 ,$60 ,1,19,6/22/2015,0.28,1,1,281,,
2945432,Studio Midtown East,79865205263,verified,Dai,Manhattan,Midtown,40.754259999999995,-73.96885999999999,United States,US,False,moderate,Entire home/apt,2012,$290 ,$58 ,3,2,4/7/2017,0.07,4,1,175,,
2945984,Central Park West Studio Value,28233930439,unconfirmed,Dana,Manhattan,Upper West Side,40.78835,-73.9681,United States,US,False,strict,Entire home/apt,2013,$981 ,$196 ,30,1,6/2/2014,0.02,3,1,103,#NAME?,
2946537,Thanksgiving in Manhattan!,72985683883,unconfirmed,Andrea,Manhattan,Upper West Side,40.778220000000005,-73.98016,United States,US,False,flexible,Entire home/apt,2012,$870 ,$174 ,1,0,,,2,1,57,,
2947089,Time Square doorman building 1 bdrm,39597592294,unconfirmed,Olena,Manhattan,Theater District,40.76263,-73.98271,United States,US,True,flexible,Entire home/apt,2014,"$1,192 ",$238 ,4,0,,,3,1,106,"No smoking or drugs. We try to keep the house clean, so we take off our shoes when we come in. We all work or go to grad school, so we like to keep the house clean and quiet.",
2947641,SPACIOUS APT BK/QUEENS w/BACKYARD!,22003566697,verified,Alex,Queens,Ridgewood,40.70988,-73.90845,United States,US,False,strict,Entire home/apt,2020,$867 ,$173 ,2,57,3/8/2017,0.89,2,1,204,"I love meeting guests, and expect you to be clean and respectful of our shared space.",
2948194,Gramercy Park Studio Apartment,2479940995,verified,Joe,Manhattan,Gramercy,40.73646,-73.98337,United States,US,True,moderate,Entire home/apt,2003,$957 ,$191 ,3,3,1/3/2019,0.21,5,1,244,#NAME?,
2948746,COZY CLEAN BDR 3 MINUTE WALK FROM GRAND CENTRAL,88443617520,unconfirmed,David,Manhattan,Murray Hill,40.74961,-73.97865,United States,US,True,flexible,Private room,2011,"$1,156 ",$231 ,2,10,1/29/2017,0.32,3,2,241,"We are a non-smoking apartment.  Thank you! Please inquire about pets and kids - we don't have any, but it's OK if you do as long as you know what you need to bring to accommodate! :)",
2949298,Private Room with Plush Queen Bed,78152024486,unconfirmed,Adriano,Brooklyn,Bushwick,40.694720000000004,-73.92874,United States,US,True,strict,Private room,2004,$400 ,$80 ,3,87,6/11/2019,1.37,4,2,76,"House Rules 1. Check-in is 4 pm local time. If the unit is ready earlier, we’ll let you know. Check-out is normally 11 am local time, but we’d be happy to extend it as long as we don’t have a cleaning scheduled. Just let us know.  2. All bookings require a security deposit of at least $300, which will be refunded within 7 days of your check-out. 3. For security measures we require all guests to provide proof of identification through ID verification on our own website. In order to check in we'll need a photo of your ID.  4. Our cancellation policy is as shown on our ad and defined by the site you are booking through.  5. Don’t let $300 go up in smoke. There's no smoking allowed in any Flatbook and a $300 fine for breaking this rule.  6. Unfortunately we don’t allow pets in any of our apartments. 7. Unless you’re staying in one of our specialty apartments, we don’t allow parties or excessive noise. 8. If we find the place very messy, we have to charge an extra $40 for every extra hour o",
2949850,Large one bedroom apartment,21762060883,unconfirmed,Javier,Manhattan,West Village,40.73192,-74.00433000000001,United States,US,True,strict,Entire home/apt,2009,$787 ,$157 ,1,0,,,1,1,329,the female is better(最好是女性房客),
2950403,"Large Bright Room, East Village Apt",61812537776,verified,Seth,Manhattan,East Village,40.728590000000004,-73.98957,United States,US,True,flexible,Private room,2004,$596 ,$119 ,1,0,,,5,1,363,I prefer those person Who would rent my room over 15 days once(Price will be lower) No smoking inside Cleaning my room at least one time in 3 days No other inappropriate actions on bed Thank you so much,
2950955,Best NYC Deal on upper west!,37486214965,verified,Shlom And Lyndz,Manhattan,Upper West Side,40.79994,-73.97094,United States,US,True,moderate,Entire home/apt,2006,$72 ,$14 ,1,0,,,2,1,308,"No cologne/perfumed aftershaves/any sprays/candles/anything burning Non-smoker, no smoking in and out of home No guests/visitors Please be considered to other and make less noise NO street shoes indoor Light use of microwave/toaster oven, not for cooking Pick up after yourself No eating in bed Shower is not to be used 5.45 am-10 am to prevent long wait for bathroom",
2951507,Entire 2 BED APARTMENT - WILLIAMSBURG- Best Price,14530422934,unconfirmed,Gianni,Brooklyn,Williamsburg,40.70765,-73.94821,United States,US,True,strict,Entire home/apt,2012,$547 ,$109 ,3,7,6/10/2019,0.1,2,2,324,1) No Smoking in property!!!  2) Do not slam doors!!! Close lightly Please!!! 3) No Shoes in house (except slippers) 4) Quiet down AFTER 10PM.,
2952060,Industrial Modernism Flex 2br Loft!,10010700680,unconfirmed,Vida,Brooklyn,Greenpoint,40.72587,-73.94138000000001,United States,US,False,flexible,Entire home/apt,2017,$368 ,$74 ,30,5,4/21/2019,0.14,3,52,185,"Quiet, clean, respectable, no smoking  Yes you can practice violin etc (*extra credit if you're a music student/musician, duh~)",
2952612,Private Single Room Steps to Subway,15417046013,unconfirmed,Adriano,Brooklyn,Bedford-Stuyvesant,40.69193,-73.9274,United States,US,False,flexible,Private room,2012,$587 ,$117 ,3,70,5/27/2019,1.11,5,2,109,"No drugs/ No loud sex ( sound easily go through to my roomie's room next door ) / ID copy required for check in, and it need to match your credit card information/ Please try to be nice to my fellow roomies, they are all both from China, really organized and nice guys, we are all go to Boston University, we tried really hard to keep this house clean and in the order./ Lost keys charge: $10.00",
2953164,Fabulous City View Studio Loft,49062707835,verified,Vida,Brooklyn,Greenpoint,40.72546,-73.94136,United States,US,True,strict,Entire home/apt,2016,"$1,199 ",$240 ,30,4,1/5/2018,0.06,1,52,119,This is a non-smoking unit.,
2953717,Large 2BR/2B next to Lincoln Center,52917826971,unconfirmed,Itay,Manhattan,Upper West Side,40.77517,-73.98829,United States,US,False,moderate,Entire home/apt,2008,$959 ,$192 ,3,4,4/21/2015,0.06,5,1,277,"Clean, tidy & respectful. However PLEASE make yourself at home!",
2954269,Sunny Private room in Brooklyn,51751706285,verified,Kenny And Christine,Brooklyn,Bushwick,40.69636,-73.91138000000001,United States,US,True,moderate,Private room,2020,$540 ,$108 ,1,20,6/15/2019,0.32,2,2,421,,
2954821,One room/full floor in a Duplex,30051250459,verified,Emilio,Brooklyn,Prospect-Lefferts Gardens,40.66261,-73.94673,United States,US,False,strict,Private room,2007,$195 ,$39 ,4,0,,,3,2,33,No smoking,
2955373,UWS 1BR w/backyard + block from CP,20862688437,verified,Jay And Liz,Manhattan,Upper West Side,40.77782,-73.97848,United States,US,True,moderate,Entire home/apt,2008,"$1,062 ",$212 ,14,17,2/17/2015,0.27,4,1,81,#NAME?,
2955926,PRIVATE studio/not shared/ SAFE/ CLEAN/Affordable,10460701158,verified,Debbie,Queens,Maspeth,40.72675,-73.90522,United States,US,True,moderate,Entire home/apt,2005,$241 ,$48 ,3,7,6/22/2019,0.69,4,1,203,"Please remember that this is a residential building. The building rules, apartment occupancy restrictions and the year-round tenants must be respected.  Parties, pets and smoking are not allowed under any circumstances and incur significant fees. ",
2956478,Williamsburg. By Bedford L train,88903373362,verified,De,Brooklyn,Williamsburg,40.718720000000005,-73.95496,United States,US,True,moderate,Private room,2013,$460 ,$92 ,10,72,12/30/2018,1.07,4,1,182,"Please remember that this is a residential building. The building rules, apartment occupancy restrictions and the year-round tenants must be respected.  Parties, pets and smoking are not allowed under any circumstances and incur significant fees.",
