id,NAME,host id,host_identity_verified,host name,neighbourhood group,neighbourhood,lat,long,country,country code,instant_bookable,cancellation_policy,room type,Construction year,price,service fee,minimum nights,number of reviews,last review,reviews per month,review rate number,calculated host listings count,availability 365,house_rules,license
32316746,Hart is Home (basement unit),64414183664,verified,Phil,Brooklyn,Bedford-Stuyvesant,40.692409999999995,-73.94824,United States,US,True,flexible,Entire home/apt,2008,$701 ,$140 ,3,49,1/22/2022,1.07,5,3,24,,
32317298,"Lovely room with private bathroom, near Manhattan",75167009303,unconfirmed,Jose,Queens,Sunnyside,40.73498,-73.91854000000001,United States,US,False,strict,Private room,2008,$525 ,$105 ,1,43,1/22/2022,1.02,4,6,343,,
32317851,Peaches Cozy Corner,66313748878,verified,Camorine,Queens,St. Albans,40.69742,-73.77689000000001,United States,US,True,strict,Private room,2017,$691 ,$138 ,1,216,1/22/2022,5.09,3,3,124,,
32318403,Brand new uber-clean minimalist Bushwick,50986814455,unconfirmed,Ruben,Brooklyn,Bushwick,40.70296,-73.9267,United States,US,False,flexible,Entire home/apt,2017,$511 ,$102 ,30,36,1/22/2022,0.84,3,1,28,,
32318955,"Cozy, sparkle clean private studio!",23924978235,unconfirmed,Flore,Queens,Cambria Heights,40.701409999999996,-73.72491,United States,US,False,flexible,Entire home/apt,2019,$292 ,$58 ,20,53,1/22/2022,1.39,5,1,309,,
32319508,Private BedStuy Wabi-sabi Apart. w/ own backyard.,49006100879,unconfirmed,Joshua,Brooklyn,Bedford-Stuyvesant,40.68891,-73.92806,United States,US,False,strict,Entire home/apt,2017,$627 ,$125 ,5,54,1/22/2022,1.43,4,2,296,,
32320060,"Bright, Cozy Home Share for Young Professionals",30380430062,unconfirmed,Ollie,Brooklyn,Crown Heights,40.66901,-73.95841,United States,US,True,strict,Private room,2021,$75 ,$15 ,30,8,1/22/2022,0.23,2,5,355,,
32320612,Brooklyn Vibes Loft in Clinton Hill,29908826937,unconfirmed,Justina,Brooklyn,Bedford-Stuyvesant,40.69536,-73.95549,United States,US,True,strict,Entire home/apt,2007,$813 ,$163 ,6,49,1/22/2022,1.54,4,2,193,,
32321164,4BR  In Queens W/Backyard,90182092828,unconfirmed,Mark,Queens,Kew Gardens Hills,40.72895,-73.82603,United States,US,True,flexible,Entire home/apt,2003,$565 ,$113 ,3,18,1/22/2022,0.59,3,2,64,,
32321717,Luxury Penthouse w NYC Skyline View in Brooklyn!,51830587631,verified,Marlene & Errol,Brooklyn,Midwood,40.618970000000004,-73.95432,United States,US,False,moderate,Entire home/apt,2021,$402 ,$80 ,1,12,1/22/2022,4.74,2,2,221,,
32322269,1 minute from Times Square Private room,10787343013,unconfirmed,Adel And Chriss,Manhattan,Theater District,40.7591,-73.98586999999999,United States,US,True,moderate,Private room,2014,$609 ,$122 ,3,58,1/22/2022,2.04,4,2,144,,
32322821,Upper East Side HUGE Private Room/3-mins to Subway,74664487653,verified,Chuck,Manhattan,Upper East Side,40.78269,-73.95243,United States,US,True,moderate,Private room,2019,$471 ,$94 ,4,23,1/22/2022,0.8,4,2,150,,
32323374,"The Frederick Hotel, Studio 1 Full Bed",60468386149,verified,The Frederick Hotel,Manhattan,Tribeca,40.71525,-74.008,United States,US,False,strict,Private room,2007,$71 ,$14 ,1,2,1/22/2022,0.36,2,7,18,,
32323926,Stunning 2 BR apt in Fort Greene downtown Brooklyn,21168283952,unconfirmed,Rohit,Brooklyn,Fort Greene,40.68781,-73.97759,United States,US,True,flexible,Entire home/apt,2006,"$1,195 ",$239 ,30,1,1/22/2022,0.43,2,1,0,,
32324478,Spacious fully furnished 2 BR near Central Park,18012450548,verified,The Local Stay,Manhattan,Upper East Side,40.7836,-73.95221,United States,US,True,strict,Entire home/apt,2004,$490 ,$98 ,30,1,1/22/2022,0.7,5,48,294,,
32325031,Hidden Gem / Private bath in a spacious 2B2B Home,54143138779,unconfirmed,Yuan,Manhattan,Hell's Kitchen,40.7541,-73.99329,United States,US,False,moderate,Private room,2008,$381 ,$76 ,1,60,1/22/2022,2.16,3,3,0,,
32325583,Renovated Apartment with high ceilings!,69249211577,verified,William,Brooklyn,Bedford-Stuyvesant,40.69169,-73.95744,United States,US,True,moderate,Entire home/apt,2009,"$1,160 ",$232 ,4,6,1/22/2022,0.29,5,1,139,,
32326135,Queen Bedroom in the Lower East Side,51432422702,verified,James,Manhattan,Lower East Side,40.71855,-73.98755,United States,US,False,moderate,Private room,2004,$562 ,$112 ,5,49,1/22/2022,1.97,4,1,279,,
32326687,"amazing 2 bedrooms, excellent location",930930118,unconfirmed,Francisco,Brooklyn,Williamsburg,40.708059999999996,-73.96099,United States,US,False,flexible,Entire home/apt,2005,$317 ,$63 ,30,40,1/22/2022,1.63,2,2,246,,
32327240,Private Bedroom in the Heart of the LES,6543403497,unconfirmed,Javier,Manhattan,Chinatown,40.71656,-73.99042,United States,US,True,strict,Private room,2007,$58 ,$12 ,5,44,1/22/2022,1.82,3,1,293,,
32327792,Cute and Cozy Pad In the Middle of ToonTown,4610752917,unconfirmed,FuQuan,Manhattan,East Village,40.72309,-73.9861,United States,US,False,strict,Entire home/apt,2014,$200 ,$40 ,5,17,1/22/2022,1.76,2,1,91,,
32328344,Brooklyn Pied a Terre with Garden (Williamsburg),95295456843,unconfirmed,Colleen,Brooklyn,Williamsburg,40.716770000000004,-73.94346999999999,United States,US,True,strict,Entire home/apt,2018,$742 ,$148 ,30,3,1/22/2022,0.71,2,2,248,,
32328897,138 Bowery-Classic King Studio,28930708837,verified,Jeniffer,Manhattan,Chinatown,40.71805,-73.9946,United States,US,True,strict,Entire home/apt,2015,$652 ,$130 ,15,31,1/22/2022,1.44,5,51,67,,
32329449,138 Bowery-King Suite w. Living Room Space,90613854617,verified,Jeniffer,Manhattan,Little Italy,40.719770000000004,-73.99606999999999,United States,US,False,strict,Entire home/apt,2021,$320 ,$64 ,15,19,1/22/2022,0.93,5,51,53,,
32330001,Spacious Queens Apartment,76258824246,verified,Susan,Queens,Elmhurst,40.74175,-73.87754,United States,US,True,flexible,Entire home/apt,2004,$541 ,$108 ,2,26,1/22/2022,1.71,3,1,167,,
32330554,Wall St | Spechless & Luxy room + FIDI,40669392182,verified,Jose,Manhattan,Financial District,40.706140000000005,-74.00609,United States,US,True,strict,Private room,2009,$475 ,$95 ,30,3,1/22/2022,0.19,3,5,63,,
32331106,Ditmas Beauty II,77670989007,verified,Anna,Brooklyn,Flatbush,40.64202,-73.95821,United States,US,True,flexible,Entire home/apt,2006,$727 ,$145 ,30,11,1/22/2022,0.67,4,2,230,,
32331658,"Stylish, sunny 1bd Apt in charming Carroll Gardens",35750137418,unconfirmed,Nick,Brooklyn,Carroll Gardens,40.677820000000004,-73.9987,United States,US,True,moderate,Entire home/apt,2017,"$1,079 ",$216 ,3,33,1/22/2022,3.13,2,2,85,,
32332210,Amazing 2 bedroom apt with  Privet Garden & Office,83311501524,verified,Evandra,Manhattan,Harlem,40.81561,-73.94451,United States,US,False,strict,Entire home/apt,2013,$872 ,$174 ,5,18,1/22/2022,1.79,3,2,330,,
32332763,Brand new stylish Loft 1BR~W/D~Prime Upper east,65875029883,verified,Eran,Manhattan,Upper East Side,40.77196,-73.95727,United States,US,True,flexible,Entire home/apt,2020,$970 ,$194 ,30,4,1/22/2022,0.36,3,62,248,,
32333315,Beautiful King Bed Hotel Room,22150959756,unconfirmed,Justin,Manhattan,Financial District,40.70487,-74.00591999999999,United States,US,True,strict,Private room,2018,$931 ,$186 ,1,43,1/22/2022,2.74,3,102,52,,
32333867,"Medium room close to subway, Airtrain, LIRR, Food",9653493352,unconfirmed,"Sandra, Maria Y Carlos",Queens,Jamaica,40.70398,-73.81522,United States,US,True,flexible,Private room,2006,$897 ,$179 ,2,28,1/22/2022,1.85,4,4,348,,
32334420,West Village-1 large bedroom w/ fireplace-Quiet St,32862948191,unconfirmed,Matthias,Manhattan,West Village,40.73798,-74.00375,United States,US,False,flexible,Entire home/apt,2003,$560 ,$112 ,30,5,1/22/2022,0.41,2,1,210,,
32334972,Next to Central Park and More - 16,72119335095,unconfirmed,Richard,Manhattan,Upper West Side,40.79865,-73.95931,United States,US,False,strict,Private room,2008,$440 ,$88 ,2,38,1/22/2022,3.33,4,56,235,,
32335524,Central Park Is Next Door - 20,44205313502,verified,Richard,Manhattan,Upper West Side,40.80012,-73.96113000000001,United States,US,False,strict,Private room,2005,$209 ,$42 ,2,30,1/22/2022,2.47,5,56,194,,
32336077,"Private Room, Central Park, Restaurants & More 10",75858277579,verified,Richard,Manhattan,Upper West Side,40.80158,-73.96449,United States,US,True,strict,Private room,2005,$886 ,$177 ,2,26,1/22/2022,2.23,3,56,244,,
32336629,Apartment in Astoria 5 min from N/W TRAIN,96530225332,unconfirmed,Rudnei,Queens,Astoria,40.768609999999995,-73.91986999999999,United States,US,False,flexible,Entire home/apt,2011,$468 ,$94 ,30,2,1/22/2022,0.2,5,1,0,,
32337181,Hotel Room King Bed,47450558581,unconfirmed,Michelle,Manhattan,Chelsea,40.74771,-73.99069,United States,US,True,flexible,Private room,2006,$952 ,$190 ,1,11,1/22/2022,1.0,2,50,28,,
32337733,Charming Queen Suite 55th&Fifth Ave Boutique Hotel,46261235915,verified,Blake,Manhattan,Midtown,40.7637,-73.97721999999999,United States,US,False,strict,Private room,2012,"$1,038 ",$208 ,1,23,1/22/2022,2.46,5,66,347,,
32338286,Lovely 1-bedroom flat in Lower East Side/Manhattan,81614512021,verified,Karina,Manhattan,Chinatown,40.71575,-73.99065,United States,US,True,moderate,Entire home/apt,2017,$806 ,$161 ,2,35,1/22/2022,4.91,3,4,201,,
32338838,1 bedroom near Penn Station Manhattan,48477219803,verified,Olena,Manhattan,Chelsea,40.7483,-73.99548,United States,US,True,moderate,Entire home/apt,2011,$751 ,$150 ,1,1,1/22/2022,0.7,3,1,16,,
32339390,"Private Balcony room in Bay Ridge, BK",53010631057,verified,Jason,Brooklyn,Bay Ridge,40.63677,-74.02379,United States,US,False,strict,Private room,2013,$948 ,$190 ,30,2,1/22/2022,0.35,2,2,278,,
32339943,Room 3,29764696671,verified,Helen,Queens,Flushing,40.7635,-73.82608,United States,US,False,moderate,Private room,2008,$713 ,$143 ,3,6,1/22/2022,1.03,2,3,358,,
32340495,huge Private bedroom -share a bathroom 1 guest,72288200824,verified,Sarah,Manhattan,Midtown,40.75618,-73.97008000000001,United States,US,True,strict,Private room,2010,$166 ,$33 ,90,1,1/22/2022,0.7,5,3,288,,
32341047,Beautiful brownstone garden suite with backyard,66939372004,unconfirmed,CASA Heidi,Brooklyn,Bedford-Stuyvesant,40.68752,-73.93748000000001,United States,US,True,flexible,Entire home/apt,2017,$815 ,$163 ,30,2,1/22/2022,0.63,4,2,278,,
32341600,Brooklyn Bohemian Suite,22584482827,unconfirmed,Mawuli,Brooklyn,Bedford-Stuyvesant,40.68782,-73.93307,United States,US,False,moderate,Entire home/apt,2009,$331 ,$66 ,3,8,1/22/2022,1.73,5,1,277,,
32342152,Astoria Apartment - 18 min to Manhattan,78270783643,unconfirmed,Chris,Queens,Ditmars Steinway,40.772090000000006,-73.91291,United States,US,False,strict,Entire home/apt,2007,$677 ,$135 ,2,9,1/22/2022,2.57,5,2,45,,
32342704,Shoreham Hotel - Touchless Hip Studio,35177103897,verified,Shoreham,Manhattan,Midtown,40.76327,-73.97556999999999,United States,US,False,strict,Entire home/apt,2021,$605 ,$121 ,1,8,1/22/2022,2.02,5,44,331,,
32343256,Epic Location! Spacious 3BR Loft in Midtown West!,64523894984,verified,June,Manhattan,Hell's Kitchen,40.762840000000004,-73.9929,United States,US,False,strict,Entire home/apt,2012,$809 ,$162 ,3,7,1/22/2022,1.79,2,1,105,,
32343809,Luxury 1-bedroom city view,10760756138,verified,Lena,Brooklyn,Downtown Brooklyn,40.69605,-73.98385,United States,US,False,moderate,Entire home/apt,2020,"$1,144 ",$229 ,30,1,1/22/2022,0.43,5,4,31,,
32344361,Beautiful 3 bedroom duplex 5 minutes from airport,13650739462,unconfirmed,Lotanna,Queens,Jamaica,40.67868,-73.7989,United States,US,False,flexible,Entire home/apt,2003,$948 ,$190 ,1,11,1/22/2022,2.95,4,4,364,,
32344913,West 48th Times Square Boutique Hotel Private Gem.,70207201754,unconfirmed,Blake,Manhattan,Hell's Kitchen,40.76165,-73.98706999999999,United States,US,True,flexible,Private room,2006,$788 ,$158 ,1,1,1/22/2022,0.7,5,66,364,,
32345466,Welcome Home Sweet Home,15205131985,verified,Anne,Brooklyn,Canarsie,40.631879999999995,-73.906,United States,US,False,strict,Entire home/apt,2014,$206 ,$41 ,3,4,1/22/2022,1.6,5,1,364,,
32346018,Bedroom near Central Park 5,98436867538,unconfirmed,Vanessa,Manhattan,Upper West Side,40.79636,-73.96251,United States,US,False,strict,Private room,2012,$404 ,$81 ,30,1,1/22/2022,0.7,3,5,52,,
32346570,AVIGAIL-  LUXURY APARTMENT WITH A BALCONY,91263111576,verified,Leo,Brooklyn,Bedford-Stuyvesant,40.677859999999995,-73.91062,United States,US,True,flexible,Entire home/apt,2004,$634 ,$127 ,5,2,1/22/2022,0.95,2,5,330,,
32347123,Lovely apartment  20 mn from Times Square,55845442030,verified,Sabrina,Bronx,Pelham Gardens,40.8573,-73.85562,United States,US,False,strict,Entire home/apt,2017,"$1,178 ",$236 ,1,2,1/22/2022,1.2,2,2,365,,
32347675,HIGH WAY GET AWAY!! 14 Minute’s NYC,26001719663,unconfirmed,Tahi,Bronx,Soundview,40.824909999999996,-73.87706999999999,United States,US,True,flexible,Entire home/apt,2004,$146 ,$29 ,2,2,1/22/2022,1.22,4,1,335,,
32348227,Upper East 1 BDRM Great Location!,30941478623,unconfirmed,Sara,Manhattan,Upper East Side,40.77534,-73.95106,United States,US,True,flexible,Entire home/apt,2018,$547 ,$109 ,5,127,1/21/2022,1.05,5,1,175,,
32348779,Beautiful  one bedroom apartment in Harlem,45183273046,verified,George,Manhattan,Harlem,40.80389,-73.94945,United States,US,False,moderate,Entire home/apt,2019,"$1,082 ",$216 ,4,105,1/21/2022,0.98,3,3,160,,
32349332,Private Room (Cozy & Clean) Manhattan NYC,83320645876,unconfirmed,Sergio,Manhattan,East Harlem,40.80231,-73.93883000000001,United States,US,True,strict,Private room,2021,$79 ,$16 ,30,10,1/21/2022,0.13,4,5,309,,
32349884,Private  Studio with workstation  Museum Block UWS,10422358902,verified,Ana Maria,Manhattan,Upper West Side,40.77652,-73.97792,United States,US,False,strict,Entire home/apt,2010,$349 ,$70 ,30,297,1/21/2022,2.97,5,1,251,,
32350436,Luxury private apartment/Suite/with balcony,49124507015,verified,Lana,Queens,Rego Park,40.73068,-73.85823,United States,US,True,flexible,Entire home/apt,2009,$545 ,$109 ,7,85,1/21/2022,1.13,3,14,208,,
32350989,Saint Nicholas Apt A,38332717280,verified,Tahirou,Manhattan,Harlem,40.81568,-73.94912,United States,US,False,strict,Private room,2010,$787 ,$157 ,30,106,1/21/2022,1.28,3,1,285,,
32351541,Gramercy Park,2826590516,verified,Scott,Manhattan,Gramercy,40.73795,-73.98581999999999,United States,US,True,strict,Entire home/apt,2012,$153 ,$31 ,3,51,1/21/2022,0.65,3,1,291,,
32352093,Sunny Private Room nr 4 Train Lines,41878172964,verified,Jared,Brooklyn,Williamsburg,40.70458,-73.94469000000001,United States,US,False,strict,Private room,2014,"$1,065 ",$213 ,3,115,1/21/2022,1.57,2,1,6,,
32352646,Modern CENTRAL PARK Apt 2 Blocks- Monthly Discount,94498468304,unconfirmed,Lorena,Manhattan,Harlem,40.799240000000005,-73.95531,United States,US,False,strict,Entire home/apt,2005,$936 ,$187 ,30,129,1/21/2022,1.68,5,2,274,,
32353198,Perfectly Located Private Room By Central Park,96900181051,verified,Isabel,Manhattan,Upper West Side,40.79809,-73.96305,United States,US,True,flexible,Private room,2009,$410 ,$82 ,2,25,1/21/2022,0.37,4,3,140,,
32353750,"St Regis Hotel, NYC Luxury Hotel Rooms by Owners",78109998396,verified,Mark,Manhattan,Midtown,40.76252,-73.97551999999999,United States,US,False,flexible,Private room,2018,$678 ,$136 ,1,21,1/21/2022,0.41,3,2,360,,
32354302,Brand New Luxurious 1 BR - Outdoor Space,93036072074,unconfirmed,Stay With Vibe,Manhattan,Kips Bay,40.74176,-73.97819,United States,US,True,flexible,Entire home/apt,2022,$317 ,$63 ,30,18,1/21/2022,0.27,2,108,340,,
32354855,Bright place with a good vibe!,75649283911,verified,Ellen,Queens,Woodhaven,40.69056,-73.85509,United States,US,False,flexible,Entire home/apt,2007,$245 ,$49 ,30,94,1/21/2022,1.38,4,1,92,,
32355407,The shrine room apt in a duplex apt.,79705957206,unconfirmed,Passang,Queens,Sunnyside,40.740759999999995,-73.92459000000001,United States,US,False,strict,Entire home/apt,2003,"$1,045 ",$209 ,2,208,1/21/2022,3.07,3,1,0,,
32355959,"~UptownOasis~ Historic charm, HUGE room & privacy~",233019868,unconfirmed,Dana,Manhattan,Harlem,40.82891,-73.94214000000001,United States,US,True,strict,Private room,2015,$918 ,$184 ,2,100,1/21/2022,1.65,5,2,77,,
32356512,"5 minutes from JFK,one single cozy bedroom for one",90130278452,unconfirmed,Kevin,Queens,Jamaica,40.680279999999996,-73.78331,United States,US,False,strict,Private room,2017,$564 ,$113 ,1,468,1/21/2022,7.73,5,2,307,,
32357064,"Private, sunny studio in Queens with WFH equipment",85387429939,unconfirmed,Alexisz Tamás,Queens,Ridgewood,40.70035,-73.90263,United States,US,False,flexible,Entire home/apt,2020,$356 ,$71 ,35,17,1/21/2022,0.3,4,1,0,,
32357616,2 bedroom floor-thru in heart of Park Slope -,26341616556,verified,Elise,Brooklyn,Park Slope,40.67456,-73.97951,United States,US,True,moderate,Entire home/apt,2020,"$1,046 ",$209 ,7,84,1/21/2022,1.65,4,1,248,,
32358169,Brooklyn Oasis - 2 Bedroom Apt,61838487574,verified,Monty,Brooklyn,East New York,40.67054,-73.87742,United States,US,True,strict,Entire home/apt,2008,$661 ,$132 ,30,37,1/21/2022,0.8,2,4,349,,
32358721,"Bright renovated apartment, quiet Bushwick block!",30136893300,unconfirmed,Jessica,Brooklyn,Bushwick,40.69605,-73.92438,United States,US,True,moderate,Entire home/apt,2009,$334 ,$67 ,3,97,1/21/2022,2.1,5,1,107,,
32359273,Inspired Private Room with Laundry in Williamsburg,87951411005,unconfirmed,"Sharon, Ivy And Andrew",Brooklyn,Williamsburg,40.70942,-73.96438,United States,US,True,moderate,Private room,2011,$998 ,$200 ,3,97,1/21/2022,2.2,5,6,312,,
32359825,Mid-century modern garden oasis,86404615272,unconfirmed,Thomas,Brooklyn,Crown Heights,40.6732,-73.95531,United States,US,True,moderate,Entire home/apt,2011,$436 ,$87 ,30,71,1/21/2022,1.64,2,1,93,,
32360378,Park Avenue...Lexington Avenue...East 62nd Street,41329216232,verified,Lia,Manhattan,Upper East Side,40.764179999999996,-73.96741999999999,United States,US,False,flexible,Entire home/apt,2010,$747 ,$149 ,30,1,1/21/2022,0.43,4,6,42,,
32360930,"Furnished, Renovated & Appealing Room in Astoria NY",88627432550,verified,Kaz,Queens,Astoria,40.766290000000005,-73.92331999999999,United States,US,False,moderate,Private room,2004,$145 ,$29 ,30,5,1/21/2022,0.15,5,161,308,,
32361482,Gorgeous Luxe Sunny Park Facing Williamsburg Condo,27440996559,verified,Daniel,Brooklyn,Williamsburg,40.71415,-73.95271,United States,US,True,flexible,Entire home/apt,2022,$743 ,$149 ,30,56,1/21/2022,1.48,3,1,123,,
32362035,#20 Two Bedroom Apartment in Central of Midtown,44301454417,verified,Studioplus,Manhattan,Midtown,40.7476,-73.98666,United States,US,False,strict,Entire home/apt,2014,$968 ,$194 ,2,28,1/21/2022,1.34,3,14,324,,
32362587,Studio next to Central Park and Museum mile,76232259084,unconfirmed,Evgeny,Manhattan,East Harlem,40.793490000000006,-73.95108,United States,US,False,strict,Entire home/apt,2011,$659 ,$132 ,30,6,1/21/2022,0.38,4,2,86,,
32363139,PRIME Location! Semi-Private Space B,59558037665,unconfirmed,Ian,Manhattan,Chelsea,40.7458,-73.99141999999999,United States,US,True,strict,Private room,2010,"$1,101 ",$220 ,3,9,1/21/2022,0.53,2,4,0,,
32363692,Large Clean Private Room in Brooklyn,77829905521,unconfirmed,Cristina,Brooklyn,Bensonhurst,40.61335,-73.98357,United States,US,False,moderate,Private room,2016,$339 ,$68 ,3,17,1/21/2022,1.45,5,4,342,,
32364244,"Prospect Lefferts BK, steps from Prospect Park",97663015396,unconfirmed,Margarita,Brooklyn,Flatbush,40.650490000000005,-73.95657,United States,US,False,moderate,Entire home/apt,2008,$614 ,$123 ,30,10,1/21/2022,0.92,4,1,155,,
32364796,Modern and charming 2BR in the heart of SoHo,48489399803,unconfirmed,Naomi,Manhattan,SoHo,40.72485,-74.00327,United States,US,True,flexible,Entire home/apt,2003,$368 ,$74 ,30,4,1/21/2022,0.43,3,4,230,,
32365348,Designed Ideal room for WFH/Private Bath w.Laundry,61120509794,verified,Masaaki,Brooklyn,Bedford-Stuyvesant,40.67842,-73.94351,United States,US,False,moderate,Private room,2011,$248 ,$50 ,30,1,1/21/2022,0.68,5,10,338,,
32365901,Cute Williamsburg ‘U’ Entire Apartment,28430310900,verified,Casey,Brooklyn,Williamsburg,40.70929,-73.94731999999999,United States,US,True,moderate,Entire home/apt,2003,$338 ,$68 ,28,3,1/21/2022,0.5,3,1,39,,
32366453,Clinton Hill Close to Downtown BK,38558698371,verified,Lashelle,Brooklyn,Clinton Hill,40.68425,-73.96500999999999,United States,US,False,strict,Entire home/apt,2007,$208 ,$42 ,3,18,1/21/2022,2.27,3,1,36,,
32367005,Spacious Basement Studio,3585511049,unconfirmed,Nathalie,Brooklyn,East Flatbush,40.63432,-73.92298000000001,United States,US,False,strict,Entire home/apt,2006,$947 ,$189 ,1,27,1/21/2022,3.73,5,1,80,,
32367558,Clinton Hill In-Law Suite with Private Entrance,79014099536,verified,Heather,Brooklyn,Clinton Hill,40.68265,-73.96176,United States,US,False,moderate,Entire home/apt,2021,$648 ,$130 ,5,10,1/21/2022,1.6,3,1,115,,
32368110,"Feel like home! Cozy room in queens, Well located.",68824157882,unconfirmed,Katia,Queens,Kew Gardens,40.706790000000005,-73.83603000000001,United States,US,False,flexible,Private room,2005,$614 ,$123 ,1,22,1/21/2022,3.28,5,2,362,,
32368662,Blue Moon Hotel | Lovely Double Queen with Balcony,27681945730,verified,Blue Moon,Manhattan,Lower East Side,40.71812,-73.99076,United States,US,True,strict,Entire home/apt,2005,$956 ,$191 ,1,4,1/21/2022,0.78,5,27,353,,
32369215,Small Rustic bedroom in Park Slope,42404753669,verified,Duy,Brooklyn,South Slope,40.66247,-73.98567,United States,US,True,moderate,Private room,2010,$302 ,$60 ,1,4,1/21/2022,1.19,3,4,260,,
32369767,Everything New (2021) Closet to main st Flushing,18424460664,verified,Hiroki,Queens,Flushing,40.75952,-73.82021999999999,United States,US,False,moderate,Private room,2009,$148 ,$30 ,30,1,1/21/2022,0.68,5,152,40,,
32370319,"Stunning 2 br apt, 20 min to NYC w laundry/parking",91962744685,unconfirmed,Roshan,Queens,Rego Park,40.72976,-73.86768000000001,United States,US,True,strict,Entire home/apt,2005,$132 ,$26 ,30,2,1/21/2022,0.8,3,1,95,,
32370871,*NEW* Amazing Private Room & NYC experience!,13305959215,verified,Carol,Brooklyn,Prospect-Lefferts Gardens,40.66012,-73.94148,United States,US,True,flexible,Private room,2015,"$1,018 ",$204 ,1,7,1/21/2022,2.8,3,17,179,,
32371424,*New* Spacious Room Near Prospect Park Brooklyn,52516762216,verified,Carol,Brooklyn,Prospect-Lefferts Gardens,40.66223,-73.94279,United States,US,False,moderate,Private room,2018,$946 ,$189 ,1,6,1/21/2022,2.34,2,17,360,,
32371976,2 large Roms- Sunlight- Train ride to the city.,40143749538,unconfirmed,Donna,Brooklyn,Bedford-Stuyvesant,40.685590000000005,-73.95454000000001,United States,US,True,moderate,Entire home/apt,2015,$960 ,$192 ,7,1,1/21/2022,0.68,5,3,292,,
32372528,Classic Petite SB #17 - Furnished Studio Rentals,47911180517,verified,Esplanade 99,Manhattan,Upper West Side,40.79547,-73.97027,United States,US,False,flexible,Private room,2015,$741 ,$148 ,30,1,1/21/2022,0.68,2,24,88,,
32373081,Elegant NYC Pad,55682647532,unconfirmed,Vasili,Queens,Ditmars Steinway,40.77155,-73.90564,United States,US,True,moderate,Entire home/apt,2014,$699 ,$140 ,3,77,1/20/2022,0.56,2,1,343,,
32373633,Cozy Brownstone Upper West Side Apt.,3773832693,unconfirmed,Mark,Manhattan,Upper West Side,40.787040000000005,-73.98613,United States,US,False,strict,Entire home/apt,2021,$651 ,$130 ,1,134,1/20/2022,1.13,5,1,326,,
32374185,Stylish Manhattan North Apartment,4250220931,verified,Genevieve,Manhattan,Harlem,40.800090000000004,-73.95107,United States,US,False,moderate,Entire home/apt,2021,$266 ,$53 ,30,23,1/20/2022,0.22,5,1,0,,
32374738,*Sunny Master BD* in Garden Duplex; full kitchen,16239592913,unconfirmed,Mitty,Brooklyn,Prospect Heights,40.67712,-73.97099,United States,US,True,flexible,Private room,2017,$417 ,$83 ,1,17,1/20/2022,0.16,5,3,63,,
32375290,Contemporary & Clean 1 bdrm Apartment(Lower Level),13317033916,unconfirmed,Emmanuel,Queens,Bayside,40.75715,-73.77461,United States,US,True,strict,Entire home/apt,2015,$314 ,$63 ,2,228,1/20/2022,3.89,3,1,117,,
32375842,Charming apartment in Brooklyn Brownstone,37148672389,unconfirmed,Poppy,Brooklyn,Bedford-Stuyvesant,40.68223,-73.91927,United States,US,True,strict,Entire home/apt,2014,$730 ,$146 ,3,152,1/20/2022,1.93,5,1,54,,
32376394,Private Room - One of a kind chance in East Harlem,28280376211,verified,Ari,Manhattan,East Harlem,40.79677,-73.93484000000001,United States,US,False,flexible,Private room,2017,$574 ,$115 ,30,19,1/20/2022,0.26,2,1,152,,
32376947,Stunning Central Park West Location,31309668005,unconfirmed,Jarett,Manhattan,Upper West Side,40.777640000000005,-73.97771,United States,US,False,flexible,Entire home/apt,2010,$873 ,$175 ,30,65,1/20/2022,0.92,3,1,78,,
32377499,*BluebirdLavish1BR|Close to Hospitals|Times Square,73799703378,verified,Bluebird,Manhattan,Hell's Kitchen,40.762159999999994,-73.99969,United States,US,True,moderate,Entire home/apt,2006,"$1,185 ",$237 ,30,3,1/20/2022,0.18,3,19,313,,
32378051,Private bedroom in artsy NYC apartment.,17501219247,verified,Eean,Bronx,Norwood,40.87251,-73.87727,United States,US,True,moderate,Private room,2014,$110 ,$22 ,3,36,1/20/2022,0.59,4,2,317,,
32378604,Sunny room,83551314704,unconfirmed,Giselle,Manhattan,East Harlem,40.793040000000005,-73.94193,United States,US,False,strict,Private room,2014,$532 ,$106 ,30,104,1/20/2022,1.85,5,2,69,,
32379156,Carol's cozy Private Room,83746674259,verified,Benny,Queens,Glendale,40.69786,-73.89350999999999,United States,US,False,strict,Private room,2022,$920 ,$184 ,30,5,1/20/2022,0.08,5,4,365,,
32379708,"Sunny Chelsea studio, queen bed, sleep loft, WiFi",98618892438,verified,Michael,Manhattan,Chelsea,40.74957,-73.99637,United States,US,False,moderate,Entire home/apt,2008,$534 ,$107 ,120,11,1/20/2022,0.2,2,20,276,,
32380261,"""HELLO BROOKLYN"" PARK SIDE VIEW NEWLY RENO APT.",38497973558,unconfirmed,R.J,Brooklyn,Bedford-Stuyvesant,40.6884,-73.94714,United States,US,True,moderate,Entire home/apt,2018,$783 ,$157 ,1,309,1/20/2022,5.28,4,4,40,,
32380813,Bright and Spacious apt with Private Entrance,39749370897,verified,Yamin,Brooklyn,Bensonhurst,40.622170000000004,-74.00133000000001,United States,US,False,moderate,Entire home/apt,2018,$673 ,$135 ,30,14,1/20/2022,0.29,5,1,365,,
32381365,Bright studio facing 455 CPW. Walk to Columbia U.,61466506268,unconfirmed,Amy,Manhattan,Upper West Side,40.79687,-73.96032,United States,US,True,strict,Entire home/apt,2015,"$1,067 ",$213 ,30,13,1/20/2022,0.27,3,19,149,,
32381917,2 Floors Huge Luxury Penthouse + Private Terrace,91862713884,unconfirmed,Justin,Manhattan,East Village,40.726273,-73.991714,United States,US,False,flexible,Entire home/apt,2004,$416 ,$83 ,4,29,1/20/2022,0.88,4,1,320,,
32382470,Brand New Brooklyn 1.5 Bedroom in Hip Greenpoint,7130552570,unconfirmed,Tracey,Brooklyn,Greenpoint,40.72883,-73.96002,United States,US,False,flexible,Entire home/apt,2011,$820 ,$164 ,30,2,1/20/2022,0.24,4,1,24,,
32383022,Stylish & Cozy Private Studio Apartment (UES),86044952497,verified,Judah,Manhattan,Upper East Side,40.7633,-73.95971,United States,US,False,strict,Entire home/apt,2014,$976 ,$195 ,5,29,1/20/2022,0.66,5,1,5,,
32383574,99St Rockaway Beach getaway!,95386507160,unconfirmed,Juan,Queens,Rockaway Beach,40.58295,-73.81936999999999,United States,US,False,strict,Entire home/apt,2008,$186 ,$37 ,30,37,1/20/2022,0.86,3,1,278,,
32384127,Brooklyn Style - with a Balcony!!!,12226053255,verified,Kevin,Brooklyn,Bedford-Stuyvesant,40.69171,-73.9587,United States,US,True,strict,Private room,2007,"$1,138 ",$228 ,2,89,1/20/2022,2.1,4,2,8,,
32384679,Modern & Sun-filled 1BR Condo in Prospect Heights,80963219871,unconfirmed,Bertrand,Brooklyn,Prospect Heights,40.67995,-73.96526,United States,US,False,moderate,Entire home/apt,2016,$202 ,$40 ,100,27,1/20/2022,0.66,3,1,77,,
32385231,Great private Space,94452414581,verified,Celin,Manhattan,Harlem,40.82375,-73.94704,United States,US,True,moderate,Private room,2019,$843 ,$169 ,21,10,1/20/2022,0.3,5,1,51,,
32385784,Charming Private Room with Laundry in Williamsburg,8017453199,unconfirmed,"Sharon, Ivy And Andrew",Brooklyn,Williamsburg,40.71139,-73.96554,United States,US,False,moderate,Private room,2003,"$1,108 ",$222 ,2,30,1/20/2022,0.75,2,6,344,,
32386336,家庭式旅馆獨立衛生間套房K,38670711307,unconfirmed,Fiona,Queens,Flushing,40.76337,-73.82944,United States,US,False,strict,Private room,2009,$370 ,$74 ,1,27,1/20/2022,0.74,3,3,86,,
32386888,"LaGuardia airport,  JFK airport, citi fields,",67437043063,unconfirmed,Jing,Queens,Flushing,40.730959999999996,-73.80357,United States,US,False,moderate,Entire home/apt,2015,$377 ,$75 ,3,72,1/20/2022,1.86,2,1,22,,
32387440,Brooklyn artistic studio apartment!,15423967847,unconfirmed,James And Laureta,Brooklyn,Bedford-Stuyvesant,40.68358,-73.95284000000001,United States,US,True,flexible,Entire home/apt,2010,$777 ,$155 ,1,122,1/20/2022,3.44,2,7,225,,
32387993,1-Bedroom Newly Renovated Cozy Apartment,9195334261,verified,Vlad,Staten Island,Arden Heights,40.54652,-74.17551,United States,US,True,flexible,Entire home/apt,2008,$889 ,$178 ,30,15,1/20/2022,0.42,5,1,357,,
32388545,Entire 1 bedroom private home with an office.,76538678560,unconfirmed,Mark,Queens,Woodhaven,40.69104,-73.84691,United States,US,False,moderate,Entire home/apt,2011,"$1,115 ",$223 ,5,34,1/20/2022,1.0,2,4,177,,
32389097,Newly renovated bedroom in the heart of Manhattan.,69206800091,verified,Niki,Manhattan,Midtown,40.74405,-73.98696,United States,US,False,strict,Private room,2020,$597 ,$119 ,2,14,1/20/2022,0.42,3,1,181,,
32389650,Rest best,781166913,verified,John,Brooklyn,East New York,40.66565,-73.87524,United States,US,False,flexible,Private room,2017,$263 ,$53 ,3,6,1/20/2022,0.31,5,11,90,,
32390202,Private getaway in the heart of the city,82627226746,unconfirmed,Yelena,Queens,Forest Hills,40.73361,-73.85461,United States,US,True,strict,Entire home/apt,2006,"$1,016 ",$203 ,4,47,1/20/2022,1.8,3,1,223,,
32390754,Exclusive AirBnB Private Apt.  20 min to Manhattan,81182578036,verified,William,Queens,Ditmars Steinway,40.7768,-73.90887,United States,US,False,strict,Entire home/apt,2007,$285 ,$57 ,5,48,1/20/2022,1.6,2,1,107,,
32391307,Columbus Circle/Times Sq./Central Park. Back patio,38546766117,unconfirmed,Rick,Manhattan,Hell's Kitchen,40.76797,-73.98513,United States,US,True,strict,Entire home/apt,2007,"$1,107 ",$221 ,30,4,1/20/2022,0.16,2,3,339,,
32391859,Romantic studio in New York best Bushwick,64906312057,verified,Alex,Brooklyn,Bushwick,40.699,-73.92639,United States,US,False,moderate,Entire home/apt,2010,$183 ,$37 ,30,9,1/20/2022,0.37,4,2,336,,
32392411,Beautiful Bushwick Oasis,36773691900,verified,Britt & Greg,Brooklyn,Bushwick,40.7021,-73.91759,United States,US,False,strict,Entire home/apt,2010,$660 ,$132 ,1,82,1/20/2022,4.05,5,2,73,,
32392963,"Great 1 Bedroom apt, 6 mins away from SIUH",80933366345,verified,Jon,Staten Island,Grant City,40.57877,-74.11005,United States,US,False,flexible,Entire home/apt,2007,$409 ,$82 ,3,11,1/20/2022,0.58,3,1,294,,
32393516,RENO 3BR/1BA APT NEAR CENTRAL PARK W/WASHER/DRYER,31578467631,unconfirmed,Inna,Manhattan,Upper West Side,40.795322,-73.962921,United States,US,False,moderate,Entire home/apt,2008,$997 ,$199 ,30,3,1/20/2022,0.21,4,32,339,,
32394068,Luxury Studio apartment in Williamsburg,40824418021,verified,Virginia,Brooklyn,Williamsburg,40.70988,-73.96978,United States,US,True,flexible,Entire home/apt,2017,$326 ,$65 ,30,1,1/20/2022,0.67,5,1,105,,
32394620,The plush suite,70034777516,verified,Sean And  Vanessa,Queens,Springfield Gardens,40.66446,-73.75251,United States,US,False,moderate,Private room,2016,$511 ,$102 ,2,3,1/20/2022,0.56,3,4,54,,
32395173,"Brooklyn Beauty, Entire 1bdrm Apt in Prospect Hgts",44004326607,verified,Janelle,Brooklyn,Crown Heights,40.67389,-73.95817,United States,US,False,flexible,Entire home/apt,2003,$406 ,$81 ,2,52,1/20/2022,4.06,3,1,155,,
32395725,"Sleeper Sofa in Large, Stylish Living Room",98200021082,verified,Shane & Shreshth,Queens,Kew Gardens,40.70507,-73.83219,United States,US,True,moderate,Shared room,2019,$685 ,$137 ,3,26,1/20/2022,2.02,4,1,64,,
32396277,NYC 1 bedroom Apartment,46117544145,verified,Annie,Queens,Woodhaven,40.69314,-73.86693000000001,United States,US,True,flexible,Entire home/apt,2005,$87 ,$17 ,7,4,1/20/2022,0.37,2,3,172,,
32396830,Beautiful Oasis Near JFK Airport &Green Acres Mall,45040318410,unconfirmed,Angel,Queens,Rosedale,40.66166,-73.73931999999999,United States,US,True,moderate,Entire home/apt,2021,"$1,034 ",$207 ,1,14,1/20/2022,1.7,5,2,65,,
32397382,Master bedroom w/ private Bath R/shared com area,75572060855,unconfirmed,Ally,Brooklyn,Bushwick,40.69775,-73.93055,United States,US,False,moderate,Private room,2020,$535 ,$107 ,3,22,1/20/2022,2.51,5,1,75,,
32397934,Mott Haven Best Location & Price New & Clean house,7526536314,verified,Lina Jie,Bronx,Mott Haven,40.8087,-73.91909,United States,US,True,moderate,Entire home/apt,2022,$588 ,$118 ,1,16,1/20/2022,2.03,5,4,90,,
32398486,"5 people, Bunk bed ,Center of Manhattan",57740997722,unconfirmed,Val,Manhattan,Midtown,40.74633,-73.98894,United States,US,True,strict,Entire home/apt,2012,$346 ,$69 ,1,7,1/20/2022,0.88,3,6,316,,
32399039,Spacious Studio in Downtown BK,86959614649,unconfirmed,SoCo Property,Brooklyn,Fort Greene,40.69017,-73.97979000000001,United States,US,False,strict,Entire home/apt,2022,$143 ,$29 ,3,9,1/20/2022,1.53,3,4,7,,
32399591,☆Newly Updated True 2bd Apt in the Heart of LES☆,590025811,unconfirmed,Boris,Manhattan,Lower East Side,40.72088,-73.98669,United States,US,True,flexible,Entire home/apt,2008,$84 ,$17 ,5,2,1/20/2022,0.78,5,1,331,,
32400143,Spacious light filled bedroom in 2bdrm apartment w huge backyard,1321398534,verified,Lindsay,Brooklyn,Bushwick,40.68936,-73.91636,United States,US,True,moderate,Private room,2004,$354 ,$71 ,1,2,1/20/2022,1.22,3,1,145,,
32400696,Private cozy room with queen size bed in Hollis.,1711355342,unconfirmed,Ahmed,Queens,Hollis,40.713429999999995,-73.76253,United States,US,True,moderate,Private room,2010,$102 ,$20 ,30,1,1/20/2022,0.67,2,4,134,,
32401248,Cozy Artist 1 Bedroom in Soho,42346859583,verified,Barb,Manhattan,SoHo,40.7252,-74.00174,United States,US,True,moderate,Entire home/apt,2016,"$1,114 ",$223 ,1,5,1/20/2022,1.65,5,1,0,,
32401800,Dawn place 2,61667896509,verified,Dawn,Queens,South Ozone Park,40.67014,-73.79786999999999,United States,US,False,flexible,Private room,2019,$287 ,$57 ,1,5,1/20/2022,2.0,2,2,343,,
32402353,New Luxury  1 bedroom aprt with private backyard,41842829776,unconfirmed,Olga,Manhattan,Upper East Side,40.772781,-73.949997,United States,US,True,flexible,Entire home/apt,2012,$344 ,$69 ,1,1,1/20/2022,0.67,4,2,356,,
32402905,Manhattan Private ROOM,78717626426,unconfirmed,Oleksandr,Manhattan,Harlem,40.81638,-73.94344,United States,US,True,flexible,Private room,2007,"$1,002 ",$200 ,30,1,1/20/2022,0.67,5,20,365,,
32403457,Large Flatiron 2 bedroom,89779677669,verified,Samuel,Manhattan,Midtown,40.744690000000006,-73.9888,United States,US,False,strict,Entire home/apt,2004,$753 ,$151 ,31,88,1/19/2022,0.83,2,1,60,,
32404009,Brooklyn Garden Two Bedrooom/Two Bathroom,44886645940,unconfirmed,Wendy,Brooklyn,Boerum Hill,40.6847,-73.98728,United States,US,True,flexible,Entire home/apt,2011,$373 ,$75 ,30,43,1/19/2022,0.43,4,3,338,,
32404562,Sunny Warm Quiet NYC Retreat,8488721802,unconfirmed,Carrie,Manhattan,Washington Heights,40.84581,-73.94211999999999,United States,US,False,strict,Private room,2017,$801 ,$160 ,1,327,1/19/2022,3.57,4,2,81,,
32405114,SWEET BOHO OASIS ROOM Steps to Ferry! Great Value!,47434172477,unconfirmed,Meghan,Staten Island,St. George,40.644890000000004,-74.07789,United States,US,False,moderate,Private room,2005,$172 ,$34 ,3,162,1/19/2022,2.12,5,1,126,,
32405666,HUGE Beautiful Brooklyn Loft,98361073496,unconfirmed,Kimberly Nicky,Brooklyn,Red Hook,40.679759999999995,-74.00631,United States,US,True,moderate,Private room,2008,"$1,126 ",$225 ,3,20,1/19/2022,0.24,3,1,295,,
32406219,Private Tiny Artist Studio,57147280473,unconfirmed,Ayesha,Bronx,Williamsbridge,40.8791,-73.86345,United States,US,True,flexible,Private room,2021,$143 ,$29 ,5,114,1/19/2022,1.62,2,1,254,,
32406771,Retreat Near Manhattan (Clean & Sanitized),72730369085,unconfirmed,Jae,Brooklyn,Bedford-Stuyvesant,40.68385,-73.95461,United States,US,False,strict,Entire home/apt,2022,$992 ,$198 ,3,164,1/19/2022,2.03,2,2,339,,
32407323,The Mahogany Suite(Private Studio Apartment),41510969344,unconfirmed,The Mahogany Suite(Studio Apartment,Brooklyn,Crown Heights,40.66539,-73.93179,United States,US,True,flexible,Entire home/apt,2021,"$1,065 ",$213 ,30,142,1/19/2022,1.99,4,2,122,,
32407876,Modern 1-bdrm apt near Manhattan and Central Park,55257148424,unconfirmed,Negra,Queens,Astoria,40.75502,-73.91622,United States,US,True,strict,Entire home/apt,2012,$663 ,$133 ,30,166,1/19/2022,2.47,2,2,308,,
32408428,521 West 48-Spacious Studio,31141574218,verified,Jeniffer,Manhattan,Hell's Kitchen,40.764109999999995,-73.99371,United States,US,False,strict,Entire home/apt,2003,$112 ,$22 ,30,13,1/19/2022,0.2,5,186,208,,
32408980,Central Park Loft,32910469439,verified,Evan,Manhattan,Upper West Side,40.782140000000005,-73.97626,United States,US,False,flexible,Entire home/apt,2005,"$1,015 ",$203 ,30,225,1/19/2022,3.25,5,6,161,,
32409532,"Garden, Spacious, Great Location,  1 stop to City.",55108390418,unconfirmed,Timothy,Brooklyn,Boerum Hill,40.6833,-73.98103,United States,US,True,strict,Entire home/apt,2006,$231 ,$46 ,4,157,1/19/2022,2.54,2,1,226,,
32410085,very clean and spacious,45074350764,unconfirmed,Carlos,Manhattan,Washington Heights,40.842420000000004,-73.93789,United States,US,False,flexible,Private room,2014,"$1,088 ",$218 ,1,217,1/19/2022,3.43,5,2,151,,
32410637,Coney Island  Amphitheat  MCU 1 br  Wifi Cable **,81996814911,unconfirmed,Ed,Brooklyn,Coney Island,40.576569,-73.98520699999999,United States,US,False,strict,Entire home/apt,2010,$577 ,$115 ,3,142,1/19/2022,2.39,5,5,276,,
32411189,"Large, spacious, and comfortable house",93729731163,verified,Shiva,Bronx,Edenwald,40.88677,-73.83411,United States,US,True,strict,Private room,2006,$466 ,$93 ,3,52,1/19/2022,0.87,3,1,294,,
32411742,"Luxurious, Spacious Loft in Williamsburg",12770234416,verified,Philippe,Brooklyn,Williamsburg,40.70874,-73.96321999999999,United States,US,False,flexible,Entire home/apt,2019,$949 ,$190 ,5,45,1/19/2022,0.76,4,1,0,,
32412294,Large Clean Safe Private Bedroom by Lehman College,67121122736,verified,David,Bronx,Kingsbridge,40.87063,-73.8983,United States,US,False,strict,Private room,2019,$772 ,$154 ,30,36,1/19/2022,0.62,4,1,89,,
32412846,Stylish Brooklyn Studio,20269649237,unconfirmed,Tal & Amarelle,Brooklyn,Bedford-Stuyvesant,40.682320000000004,-73.93023000000001,United States,US,False,strict,Entire home/apt,2019,$593 ,$119 ,5,104,1/19/2022,1.84,4,3,88,,
32413399,crème de la crème  - Luxurious 1 BR Grand Central,11623360084,verified,Stay With Vibe,Manhattan,Murray Hill,40.75057,-73.97861,United States,US,False,flexible,Entire home/apt,2006,$195 ,$39 ,30,13,1/19/2022,0.38,5,108,250,,
32413951,Brand New apt heart of Manhattan,41319059884,unconfirmed,Stay With Vibe,Manhattan,Midtown,40.746359999999996,-73.98014,United States,US,False,flexible,Entire home/apt,2016,$411 ,$82 ,30,14,1/19/2022,0.31,3,108,315,,
32414503,Home Sweet Home in Flatbush,59259830932,unconfirmed,Cesar,Brooklyn,Flatbush,40.65336,-73.96231,United States,US,False,strict,Private room,2005,$399 ,$80 ,5,22,1/19/2022,0.49,4,2,335,,
32415055,"New York Kosher Place for LE$$ (Ave J , ""Q"" Train)",58327143461,verified,Uri,Brooklyn,Midwood,40.62441,-73.96072,United States,US,False,moderate,Entire home/apt,2003,$382 ,$76 ,2,23,1/19/2022,0.66,2,3,326,,
32415608,Fabulous Private Room with Laundry - Williamsburg,52506911676,verified,"Sharon, Ivy And Andrew",Brooklyn,Williamsburg,40.70963,-73.96484,United States,US,True,strict,Private room,2011,"$1,050 ",$210 ,3,100,1/19/2022,2.28,4,6,342,,
32416160,Great Location in Midtown! ESB,28270996204,unconfirmed,Studioplus,Manhattan,Midtown,40.747209999999995,-73.98795,United States,US,False,flexible,Entire home/apt,2012,$390 ,$78 ,2,59,1/19/2022,1.54,2,14,347,,
32416712,"Best of NYC! Location and Lux Apt 1 Bed 
& SofaBed",71008177110,unconfirmed,Sherry,Manhattan,Chelsea,40.75142,-73.99457,United States,US,True,moderate,Entire home/apt,2006,$99 ,$20 ,30,46,1/19/2022,1.23,3,1,189,,
32417265,Home away from home lodging #2  with 1 full bed,5209043106,verified,Vena,Brooklyn,East Flatbush,40.6496,-73.9282,United States,US,False,moderate,Private room,2014,$82 ,$16 ,1,18,1/19/2022,0.49,4,3,364,,
32417817,Spacious RM with own Bathroom 20min > Manhattan,47922503832,unconfirmed,Kaz,Queens,Woodside,40.7448,-73.90643,United States,US,False,moderate,Private room,2018,$622 ,$124 ,30,4,1/19/2022,0.19,5,161,277,,
32418369,Newly renovated high end unit,93352810699,unconfirmed,Doris,Brooklyn,Flatlands,40.617290000000004,-73.94049,United States,US,False,flexible,Entire home/apt,2021,$377 ,$75 ,4,21,1/19/2022,0.59,5,1,180,,
32418922,Classy 2 Bedroom 10 mins from BARCLAYS CTR,20372203715,unconfirmed,Emma,Brooklyn,Clinton Hill,40.6933,-73.96911999999999,United States,US,False,flexible,Entire home/apt,2017,$327 ,$65 ,3,60,1/19/2022,1.96,2,1,66,,
32419474,Skyline Luxury - Essex House apt on Central Park,26850001561,verified,Mighty Tree Properties,Manhattan,Midtown,40.765609999999995,-73.97729,United States,US,False,flexible,Entire home/apt,2018,$974 ,$195 ,30,5,1/19/2022,0.21,5,5,249,,
32420026,WILLIAMSBURG CONDO - Central & Modern 1BR,55713603867,verified,Atay,Brooklyn,Williamsburg,40.715070000000004,-73.95768000000001,United States,US,False,flexible,Entire home/apt,2017,$966 ,$193 ,5,3,1/19/2022,0.12,4,1,0,,
32420578,Incredible studio with private backyard.,59596048156,verified,Margarita,Brooklyn,Williamsburg,40.71409,-73.96236,United States,US,True,strict,Entire home/apt,2008,"$1,120 ",$224 ,30,65,1/19/2022,2.65,5,2,154,,
32421131,Spacious 1 bdroom apt  with office & private yard,63997893965,verified,Le'Roy,Queens,Glendale,40.70528,-73.89548,United States,US,True,moderate,Entire home/apt,2008,"$1,053 ",$211 ,5,13,1/19/2022,0.72,3,1,31,,
32421683,Cozy Nook Minutes away from major JFK/LGA airport,58119141102,unconfirmed,Michael,Queens,Richmond Hill,40.7037,-73.82797,United States,US,True,strict,Entire home/apt,2009,$54 ,$11 ,7,13,1/19/2022,0.8,2,4,90,,
32422235,407 West 51st-2 bedroom apartment,29875267326,unconfirmed,Jeniffer,Manhattan,Hell's Kitchen,40.765190000000004,-73.99013000000001,United States,US,False,flexible,Entire home/apt,2020,$782 ,$156 ,30,4,1/19/2022,0.26,2,186,321,,
32422788,Nice warm bedroom in a cool house N calm building,76456608626,unconfirmed,Audrey,Bronx,Tremont,40.84592,-73.89141,United States,US,True,strict,Private room,2008,"$1,088 ",$218 ,1,35,1/19/2022,3.11,3,1,179,,
32423340,433 West 53rd-2 bedroom Apartment in Midtown West,83508253733,verified,Jeniffer,Manhattan,Hell's Kitchen,40.76566,-73.98977,United States,US,False,strict,Entire home/apt,2017,$813 ,$163 ,30,3,1/19/2022,0.29,5,186,197,,
32423892,Arlo Midtown - Two Double Room,70864363817,unconfirmed,Arlo,Manhattan,Hell's Kitchen,40.75658,-73.99268000000001,United States,US,True,flexible,Private room,2007,$898 ,$180 ,1,26,1/19/2022,2.78,2,6,127,,
32424445,Lovely Ground Floor Bronx Apartment,90627008278,verified,Badal,Bronx,Kingsbridge,40.88204,-73.90479,United States,US,False,strict,Entire home/apt,2007,$555 ,$111 ,3,9,1/19/2022,1.49,4,2,166,,
32424997,7 Minutes from JFK Airport Iris Garden2,34259622286,verified,Iris,Queens,Laurelton,40.66794,-73.74435,United States,US,False,flexible,Private room,2020,$614 ,$123 ,2,13,1/19/2022,1.69,2,2,348,,
32425549,Cozy private room near Columbia University,37081873696,verified,Thomas,Manhattan,Upper West Side,40.80151,-73.96798000000001,United States,US,True,strict,Private room,2020,$793 ,$159 ,5,1,1/19/2022,0.65,2,1,95,,
32426101,Bright Comfortable Cozy room with skylight for 1,68294407864,unconfirmed,Hughes,Brooklyn,Windsor Terrace,40.64913,-73.97196,United States,US,True,strict,Private room,2004,"$1,113 ",$223 ,1,9,1/19/2022,3.65,3,2,156,,
32426654,*Stylish Studio Gem in the Heart of Chelsea*,65503273953,verified,Venelina,Manhattan,Chelsea,40.74228027,-73.99938108,United States,US,True,strict,Entire home/apt,2004,$107 ,$21 ,30,1,1/19/2022,0.65,3,6,324,,
32427206,Big Beautiful Brooklyn Apt @ Park!,4221342198,unconfirmed,Marc,Brooklyn,Prospect-Lefferts Gardens,40.65712,-73.96105,United States,US,True,flexible,Entire home/apt,2019,$106 ,$21 ,4,121,1/18/2022,1.01,5,1,27,,
32427758,Cozy Love Nest Prospect Heights,34907700616,unconfirmed,Ada,Brooklyn,Prospect Heights,40.673790000000004,-73.96623000000001,United States,US,True,strict,Private room,2014,$169 ,$34 ,2,160,1/18/2022,1.48,5,1,353,,
32428311,"Spacious 1 Bedroom Apt, Prospect Hts/Park Slope",16044257128,verified,Rita,Brooklyn,Prospect Heights,40.67617,-73.96849,United States,US,True,strict,Entire home/apt,2018,$417 ,$83 ,30,19,1/18/2022,0.18,2,1,85,,
32428863,Historic Park Slope Gem - 1br,89419688628,verified,Valeria,Brooklyn,Park Slope,40.674409999999995,-73.97295,United States,US,True,strict,Entire home/apt,2019,$810 ,$162 ,30,39,1/18/2022,0.42,5,1,271,,
32429415,"Prime Chelsea/ Hudson Yards location,  Free WiFi",44241850760,unconfirmed,Michael,Manhattan,Chelsea,40.75022,-73.99585,United States,US,False,flexible,Entire home/apt,2016,$115 ,$23 ,180,47,1/18/2022,0.46,5,20,283,,
32429968,Cozy 2 Bedroom Chelsea,88411987115,verified,Dimitri,Manhattan,Chelsea,40.740429999999996,-74.00078,United States,US,False,flexible,Entire home/apt,2015,$731 ,$146 ,3,60,1/18/2022,0.72,3,1,237,,
32430520,Cozy 4 bedrm house 2nd floor 5min LGA /15min JFK,72554264083,verified,Rosario,Queens,East Elmhurst,40.764990000000004,-73.87628000000001,United States,US,True,moderate,Entire home/apt,2018,$281 ,$56 ,3,136,1/18/2022,1.64,4,2,283,,
32431072,"Loft style, spacious, warm East Village sanctuary",72132527838,unconfirmed,Anna,Manhattan,Lower East Side,40.72099,-73.98268,United States,US,True,moderate,Entire home/apt,2009,$780 ,$156 ,3,41,1/18/2022,0.5,2,1,167,,
32431624,arty east village,76584124704,unconfirmed,D,Manhattan,Lower East Side,40.719570000000004,-73.98639,United States,US,False,moderate,Entire home/apt,2016,$778 ,$156 ,31,173,1/18/2022,2.3,3,1,264,,
32432177,BK'S FINEST CLOSE 2 TRANSPORTATION-,18575189703,unconfirmed,Joyell,Brooklyn,Bushwick,40.69446,-73.92809,United States,US,False,moderate,Private room,2019,"$1,159 ",$232 ,1,92,1/18/2022,1.3,4,5,22,,
32432729,Longer Stays! Beautifully Designed Garden Suite,922293985,unconfirmed,Malene,Brooklyn,Bedford-Stuyvesant,40.682109999999994,-73.94028,United States,US,False,flexible,Entire home/apt,2017,$606 ,$121 ,4,150,1/18/2022,2.19,5,1,136,,
32433281,Perfect 2 bedroom in Brooklyn,43618734140,unconfirmed,Dragica,Brooklyn,Crown Heights,40.67682,-73.96283000000001,United States,US,True,strict,Entire home/apt,2019,"$1,056 ",$211 ,30,21,1/18/2022,0.31,3,1,255,,
32433834,Cozy Escape- 35 min from NYC center by Subway,70496920725,verified,Amina,Bronx,North Riverdale,40.91137,-73.89414000000001,United States,US,False,moderate,Entire home/apt,2020,$820 ,$164 ,1,226,1/18/2022,3.35,4,1,45,,
32434386,Riverside Park Nest,5272409207,verified,Eric,Manhattan,Upper West Side,40.79455,-73.97488,United States,US,False,moderate,Entire home/apt,2008,$432 ,$86 ,30,10,1/18/2022,0.18,4,1,204,,
32434938,Sweet Home Away from Home - 1 Bedroom Apt,85685903317,unconfirmed,Patrick,Queens,Glendale,40.70393,-73.89412,United States,US,False,moderate,Entire home/apt,2021,"$1,106 ",$221 ,4,107,1/18/2022,1.84,3,1,62,,
32435491,Beautiful two bedroom apt in Crown Heights/Bedsty,31066496094,verified,Peter,Brooklyn,Crown Heights,40.67615,-73.9336,United States,US,False,moderate,Entire home/apt,2009,$585 ,$117 ,2,82,1/18/2022,1.46,5,1,71,,
32436043,twin bed in sharing room near Grand Central,3926079443,unconfirmed,Mizue,Manhattan,Murray Hill,40.750370000000004,-73.9782,United States,US,False,strict,Shared room,2014,$50 ,$10 ,6,174,1/18/2022,3.17,4,6,45,,
32436595,The Cozy Cove in Queens | Home Away From Home!,7063619397,verified,Hector Sr,Queens,Elmhurst,40.746559999999995,-73.88558,United States,US,True,moderate,Entire home/apt,2016,$273 ,$55 ,5,102,1/18/2022,1.95,4,3,335,,
32437147,“Tilt A Whirl “ Beach House -Parking for 6 cars,56242457568,unconfirmed,Bobby,Queens,Rockaway Beach,40.58515,-73.81838,United States,US,False,strict,Entire home/apt,2004,$805 ,$161 ,2,92,1/18/2022,2.06,5,1,311,,
32437700,"Spacious, Bright Harlem Treetop Duplex",71085068878,unconfirmed,Jean,Manhattan,East Harlem,40.80764,-73.94039000000001,United States,US,True,flexible,Entire home/apt,2004,$295 ,$59 ,4,64,1/18/2022,1.48,5,1,175,,
32438252,Bronx ROOM #2 NYC-BEST DEAL,63177427549,unconfirmed,Steve,Bronx,Morris Park,40.85322,-73.85231999999999,United States,US,False,strict,Private room,2007,"$1,017 ",$203 ,15,16,1/18/2022,0.39,3,6,105,,
32438804,Modern Luxury Brooklyn Zen with Private Garden,40981724677,unconfirmed,Jenni,Brooklyn,Carroll Gardens,40.68373,-73.98995,United States,US,False,flexible,Entire home/apt,2007,$695 ,$139 ,7,78,1/18/2022,2.0,3,2,214,,
32439357,LONG/short TERM Room/Columbia University-Hudson,19936676999,unconfirmed,Eddie&Vlad,Manhattan,Harlem,40.8202,-73.95519,United States,US,True,flexible,Private room,2011,$169 ,$34 ,1,25,1/18/2022,0.68,4,8,262,,
32439909,Great access/2min! U can use 5 lines(7EFMR) !,5655457898,verified,Shogo,Queens,Woodside,40.745329999999996,-73.89134,United States,US,False,strict,Private room,2013,"$1,038 ",$208 ,30,8,1/18/2022,0.22,5,125,30,,
32440461,Luxurious Family apartment-20min to Manhattan,38175719061,verified,Alexa,Brooklyn,Bedford-Stuyvesant,40.68405,-73.9301,United States,US,False,moderate,Entire home/apt,2004,$409 ,$82 ,7,34,1/18/2022,1.0,3,1,47,,
32441014,Huge Private room with two queen size bed near LGA,43200828090,verified,Jma,Queens,East Elmhurst,40.765229999999995,-73.87308,United States,US,True,flexible,Private room,2004,"$1,199 ",$240 ,30,58,1/18/2022,1.72,5,5,59,,
32441566,Stylish locked private room W/TV GREAT LOCATION3,38189153346,verified,Alex,Brooklyn,Flatbush,40.634640000000005,-73.95168000000001,United States,US,False,flexible,Private room,2017,$921 ,$184 ,1,133,1/18/2022,4.58,2,7,154,,
32442118,"Bright, Spacious, 1 bedroom in center of NYC.",48961608755,unconfirmed,Andreas Per Daniel,Manhattan,Upper East Side,40.76075,-73.96459,United States,US,True,strict,Entire home/apt,2005,$101 ,$20 ,30,10,1/18/2022,0.34,5,4,13,,
32442670,2BR with BACKYARD in a renovated brownstone,42919813553,verified,Isidro And Patricia,Brooklyn,Crown Heights,40.676429999999996,-73.94031,United States,US,False,flexible,Entire home/apt,2018,$526 ,$105 ,4,10,1/18/2022,0.99,3,1,80,,
32443223,Lux 2 bedroom in Bushwick with a garden,64739763913,verified,Elizabeth,Brooklyn,Bushwick,40.696659999999994,-73.91435,United States,US,False,moderate,Entire home/apt,2015,$275 ,$55 ,30,7,1/18/2022,0.38,4,1,42,,
32443775,138 Bowery-Modern Queen Studio,85203488235,verified,Jeniffer,Manhattan,Lower East Side,40.719840000000005,-73.99391,United States,US,True,strict,Entire home/apt,2010,$475 ,$95 ,15,11,1/18/2022,0.51,4,51,36,,
32444327,Comfy Place by Bronx Lebanon Hospital &  Stadium!,97183254999,verified,Juliana,Bronx,Concourse Village,40.83582,-73.91450999999999,United States,US,False,strict,Entire home/apt,2013,$192 ,$38 ,5,42,1/18/2022,2.03,3,1,200,,
32444880,Private suite near JFK & LIRR,63562352043,verified,Christopher,Queens,Rosedale,40.6662,-73.73507,United States,US,True,flexible,Entire home/apt,2007,$457 ,$91 ,1,39,1/18/2022,1.79,5,4,360,,
32445432,Private Room Shared Bathroom Near the Sea,36902652093,unconfirmed,Chris,Queens,Arverne,40.59301,-73.79325,United States,US,True,moderate,Private room,2013,$896 ,$179 ,30,4,1/18/2022,0.44,4,2,365,,
32445984,1-BD Upper East Side Apt (extended stay available),73568525703,unconfirmed,Karen,Manhattan,Upper East Side,40.78294,-73.94998000000001,United States,US,False,flexible,Entire home/apt,2012,$686 ,$137 ,2,4,1/18/2022,0.29,5,1,21,,
32446537,Beautiful apt @ Midtown South.,44707615360,unconfirmed,Daia,Manhattan,Midtown,40.74542,-73.98106,United States,US,False,flexible,Entire home/apt,2014,$988 ,$198 ,30,1,1/18/2022,0.64,3,25,49,,
32447089,ALL Brand NEW~ Prime Location~ STUDIO ~W&D in unit,32855178720,unconfirmed,Jt,Manhattan,Upper East Side,40.77187,-73.95685999999999,United States,US,False,strict,Entire home/apt,2017,$365 ,$73 ,30,7,1/18/2022,0.55,5,59,97,,
32447641,Newly renovated townhome,92462780041,verified,John,Manhattan,Morningside Heights,40.80385,-73.9585,United States,US,False,moderate,Entire home/apt,2012,$163 ,$33 ,30,3,1/18/2022,0.54,4,1,278,,
32448193,Cute and Comfy 1 Bedroom Apt with Easy Parking,91712400367,verified,Sara & Dan,Brooklyn,East Flatbush,40.64502,-73.94295,United States,US,False,flexible,Entire home/apt,2018,$233 ,$47 ,5,15,1/18/2022,1.32,4,1,10,,
32448746,Vintage Brooklyn Room 1 minute to Subway,61286980587,unconfirmed,Patnaree,Brooklyn,Bedford-Stuyvesant,40.689479999999996,-73.95425999999999,United States,US,True,strict,Private room,2014,$700 ,$140 ,2,35,1/18/2022,3.41,2,7,286,,
32449298,HUGE ROOM-WASHER DRYER-RENT BY THE CALENDAR MONTH,14150408193,verified,Ozzy,Manhattan,Harlem,40.82443,-73.9471,United States,US,True,strict,Private room,2007,$296 ,$59 ,30,1,1/18/2022,0.64,4,4,246,,
32449850,Sunny and Spacious West Village Gem,81933110251,unconfirmed,Jenny,Manhattan,West Village,40.73123,-74.00523000000001,United States,US,False,strict,Entire home/apt,2016,$169 ,$34 ,4,3,1/18/2022,0.37,4,1,24,,
32450403,Deluxe Room with Two Beds,92924365838,verified,Kristina,Manhattan,Hell's Kitchen,40.75533,-73.99556,United States,US,False,moderate,Private room,2021,$476 ,$95 ,5,6,1/18/2022,0.76,3,67,350,,
32450955,Modern  1-bedroom in the heart of the L.E.S.,95978412658,unconfirmed,Thyme,Manhattan,Lower East Side,40.717459999999996,-73.99088,United States,US,False,strict,Entire home/apt,2008,"$1,165 ",$233 ,3,11,1/18/2022,1.38,5,1,14,,
32451507,Clean Central Apartment w/ wifi & breakfast,9189315794,unconfirmed,Rachel,Manhattan,Gramercy,40.73746,-73.98193,United States,US,False,strict,Entire home/apt,2017,$200 ,$40 ,3,5,1/18/2022,0.86,3,1,4,,
32452060,Central Park Apts Furnished studio apartments 35,39362277831,unconfirmed,JRAC Manhattan Realty,Manhattan,Upper West Side,40.7959,-73.96374,United States,US,True,strict,Entire home/apt,2019,$453 ,$91 ,30,2,1/18/2022,0.48,2,34,125,,
32452612,Spacious 1 bedroom and bathroom with full kitchen,78846900047,unconfirmed,Luchiano,Queens,Kew Gardens Hills,40.71673,-73.81687,United States,US,True,moderate,Entire home/apt,2015,$344 ,$69 ,3,12,1/18/2022,2.45,5,1,362,,
32453164,Lovely one bedroom apartment on the UWS of NYC.,70594960481,unconfirmed,Richard,Manhattan,Upper West Side,40.80036,-73.97105,United States,US,True,moderate,Entire home/apt,2020,"$1,015 ",$203 ,14,2,1/18/2022,0.95,5,1,30,,
32453716,Perfect room in Times Square,65260007192,unconfirmed,Antonio,Manhattan,Hell's Kitchen,40.75508,-73.9925,United States,US,True,strict,Private room,2022,$68 ,$14 ,1,11,1/18/2022,2.21,4,3,350,,
32454269,"1 br unit in the heart of queens, pvt entrance",8498858238,verified,Safain,Queens,Middle Village,40.71098,-73.87998,United States,US,True,moderate,Entire home/apt,2003,$820 ,$164 ,2,11,1/18/2022,2.62,2,3,361,,
32454821,"Brooklyn: Bright, Spacious & Cozy + Good Vibes",26691796406,unconfirmed,Antoinette,Brooklyn,Crown Heights,40.66385,-73.93229000000001,United States,US,False,strict,Entire home/apt,2014,$608 ,$122 ,30,33,1/17/2022,0.29,2,2,238,,
32455373,Loft Suite,45261748115,unconfirmed,The Box House Hotel,Brooklyn,Greenpoint,40.73778,-73.95366,United States,US,False,flexible,Entire home/apt,2011,$64 ,$13 ,3,127,1/17/2022,1.09,4,30,229,,
32455926,Spacious 3BD/2BA - Parking Included,12472366400,verified,Nancy,Brooklyn,Bedford-Stuyvesant,40.68936,-73.93685,United States,US,False,flexible,Entire home/apt,2007,$257 ,$51 ,3,290,1/17/2022,2.92,3,2,220,,
32456478,Stay in the heart of the East side!,65613369633,unconfirmed,Alejandro,Manhattan,Upper East Side,40.760490000000004,-73.96208,United States,US,False,flexible,Private room,2012,$964 ,$193 ,2,83,1/17/2022,0.88,5,1,346,,
32457030,ColumbusCircle~W/D~new BLDG~Balcony,40092707267,verified,Eran,Manhattan,Hell's Kitchen,40.76469,-73.98694,United States,US,True,moderate,Entire home/apt,2016,$369 ,$74 ,30,13,1/17/2022,0.15,2,33,266,,
32457583,Central Park-Lincoln Center,5460248415,verified,Mariela,Manhattan,Upper West Side,40.77189,-73.98011,United States,US,False,strict,Private room,2022,"$1,019 ",$204 ,7,229,1/17/2022,2.51,3,2,12,,
32458135,Penthouse w/Terrace Williamsburg,97857903361,unconfirmed,Matt,Brooklyn,Greenpoint,40.72283,-73.93921,United States,US,False,strict,Entire home/apt,2015,$757 ,$151 ,3,130,1/17/2022,1.44,5,1,256,,
32458687,Bright Harlem Home in New Building!,56566712772,verified,Gregory,Manhattan,Harlem,40.82051,-73.94754,United States,US,True,moderate,Private room,2010,$847 ,$169 ,1,45,1/17/2022,0.52,2,2,334,,
32459239,Park Block Studio,34609409833,unconfirmed,Nick,Brooklyn,Park Slope,40.6662,-73.97799,United States,US,False,strict,Entire home/apt,2006,$159 ,$32 ,2,364,1/17/2022,4.31,3,1,287,,
32459792,Empire State Building Views!!!!,47045544350,unconfirmed,Loydeen,Manhattan,East Harlem,40.80276,-73.93789,United States,US,True,flexible,Private room,2012,$274 ,$55 ,3,23,1/17/2022,0.31,4,3,123,,
32460344,Cozy apartment in Nolita/SoHo,84101678419,verified,Nat,Manhattan,Nolita,40.72375,-73.99623000000001,United States,US,True,moderate,Entire home/apt,2011,"$1,029 ",$206 ,2,150,1/17/2022,1.91,5,1,253,,
32460896,Relaxing Clean Private Room,39062713060,verified,Jeff And Michelle,Brooklyn,Bensonhurst,40.61481,-73.9906,United States,US,True,moderate,Private room,2016,$472 ,$94 ,2,34,1/17/2022,0.88,4,2,48,,
32461449,"Stuyvesant, East Village",63482380622,unconfirmed,Naomi,Manhattan,East Village,40.73088,-73.98893000000001,United States,US,True,strict,Entire home/apt,2013,$433 ,$87 ,30,8,1/17/2022,0.1,2,4,160,,
32462001,Entire 1BR apartment in NYC,43810806240,unconfirmed,Luis,Queens,Sunnyside,40.74495,-73.92421999999999,United States,US,False,moderate,Entire home/apt,2014,$889 ,$178 ,10,5,1/17/2022,0.07,4,1,0,,
32462553,Manhattan Hidden Gem-Space & Convenience,20882181304,verified,Jennifer,Manhattan,Washington Heights,40.83488,-73.93855,United States,US,True,strict,Entire home/apt,2015,$760 ,$152 ,5,147,1/17/2022,2.02,5,1,66,,
32463106,Large Quiet Bedroom in South Harlem,43396216052,verified,Kim,Manhattan,Harlem,40.806020000000004,-73.95366999999999,United States,US,False,strict,Private room,2006,$291 ,$58 ,5,138,1/17/2022,1.93,3,1,15,,
32463658,Cozy Condo on Time Square 42nd st,59992988847,verified,Lawrence,Manhattan,Theater District,40.754529999999995,-73.98554,United States,US,True,moderate,Entire home/apt,2015,$922 ,$184 ,2,38,1/17/2022,0.55,3,1,28,,
32464210,"Private room 1 Full Bed , Lower Level Close to NYP",51919971371,unconfirmed,Shirley,Queens,Flushing,40.750479999999996,-73.8275,United States,US,False,moderate,Private room,2005,$281 ,$56 ,30,28,1/17/2022,0.4,5,12,365,,
32464762,Modern 2-bedroom apartment near subway and parks,54654178136,verified,Negra,Queens,Astoria,40.75631,-73.91424,United States,US,False,flexible,Entire home/apt,2008,$547 ,$109 ,30,182,1/17/2022,2.68,2,2,170,,
32465315,Bright One BR w/ Balcony | Bohemian Brooklyn Apt,81121212021,verified,Mateo,Brooklyn,Bedford-Stuyvesant,40.6893,-73.95181,United States,US,False,moderate,Entire home/apt,2015,$348 ,$70 ,30,77,1/17/2022,1.15,2,1,126,,
32465867,Boerum Hill Charming Studio,28936447840,unconfirmed,Masoud,Brooklyn,Boerum Hill,40.687090000000005,-73.98552,United States,US,True,moderate,Entire home/apt,2020,"$1,083 ",$217 ,2,235,1/17/2022,3.62,4,1,141,,
32466419,Comfortable & Perfect location by Subway!,21323029169,verified,Nilu,Brooklyn,Clinton Hill,40.68443,-73.96432,United States,US,True,flexible,Entire home/apt,2007,$442 ,$88 ,4,58,1/17/2022,0.91,5,1,19,,
32466972,"East Village, private room with free breakfast",55976067522,verified,Adi And Evangel,Manhattan,East Village,40.726279999999996,-73.98782,United States,US,True,flexible,Private room,2022,$620 ,$124 ,1,67,1/17/2022,1.1,5,2,72,,
32467524,Thelonious Monk room at The Harlem Flophouse,29129721374,unconfirmed,René,Manhattan,Harlem,40.80888,-73.94986999999999,United States,US,False,moderate,Private room,2017,$693 ,$139 ,1,73,1/17/2022,1.17,5,4,0,,
32468076,"Luxury/3 bdrms/2 baths/private parking/1,000 sqft",12987291866,verified,Amy,Brooklyn,Sheepshead Bay,40.60095,-73.95055,United States,US,False,moderate,Entire home/apt,2005,$927 ,$185 ,3,150,1/17/2022,2.46,4,1,306,,
32468629,"UES: Bdrm Sunny Corner Apt, 3 flights of stairs up",73398031599,unconfirmed,Eileen,Manhattan,Upper East Side,40.76709,-73.95298000000001,United States,US,True,moderate,Entire home/apt,2017,$398 ,$80 ,3,60,1/17/2022,1.09,3,1,26,,
32469181,SoHa Jewel,29734749334,verified,Ronald,Manhattan,Harlem,40.80206,-73.95442,United States,US,False,strict,Private room,2007,"$1,110 ",$222 ,2,167,1/17/2022,3.02,4,1,301,,
32469733,Modern 3BR/2Bath Home 10 mins From JFK,22477232556,verified,Sydney,Queens,Jamaica,40.68107,-73.76878,United States,US,False,flexible,Entire home/apt,2006,"$1,065 ",$213 ,1,226,1/17/2022,4.36,3,1,180,,
32470285,"Entire Home for 8 Guests, Fully Equipped",45773220235,unconfirmed,Jerry,Queens,Flushing,40.7536,-73.81956,United States,US,True,strict,Entire home/apt,2018,$227 ,$45 ,30,66,1/17/2022,1.26,5,1,183,,
32470838,Sunny Private Bedroom w/ Private Bathroom!,50906301860,unconfirmed,Agustina,Brooklyn,Williamsburg,40.70105,-73.94221,United States,US,False,strict,Private room,2018,$606 ,$121 ,3,99,1/17/2022,1.93,3,1,204,,
32471390,Beautiful Bed-stuy Bedroom,95465715296,verified,Amber,Brooklyn,Bedford-Stuyvesant,40.68573,-73.92294,United States,US,False,flexible,Private room,2004,$250 ,$50 ,28,75,1/17/2022,1.48,4,2,62,,
32471942,2FComfy Clean Room in Quiet House-3mins to N train,45342258052,unconfirmed,Cristina,Brooklyn,Bensonhurst,40.61287,-73.98448,United States,US,True,flexible,Private room,2021,"$1,101 ",$220 ,3,47,1/17/2022,0.97,3,4,313,,
32472495,Relaxing Garden Floor Apartment,28765700042,verified,Jamal,Brooklyn,Bedford-Stuyvesant,40.68459,-73.92879,United States,US,False,flexible,Entire home/apt,2008,$69 ,$14 ,3,11,1/17/2022,1.83,3,1,53,,
32473047,3 bedroom Tourist's heaven 2nd floor,94463884974,unconfirmed,Ali,Queens,Long Island City,40.76133,-73.92961,United States,US,True,flexible,Entire home/apt,2004,$970 ,$194 ,2,67,1/17/2022,1.47,2,1,307,,
32473599,Beautiful Historic Harlem Townhouse,4650348953,unconfirmed,Billy,Manhattan,Harlem,40.82127,-73.94875,United States,US,False,flexible,Private room,2005,$854 ,$171 ,1,113,1/17/2022,2.56,3,1,294,,
32474152,Bright 2BR Apartment in Woodside,11568999456,unconfirmed,Suah,Queens,Woodside,40.74423,-73.90886,United States,US,False,flexible,Entire home/apt,2014,$350 ,$70 ,30,23,1/17/2022,0.51,2,1,155,,
32474704,Cozy | Harlem | North Central Park | Private Bath,84797151611,verified,Trinity,Manhattan,Harlem,40.79992,-73.95096,United States,US,False,moderate,Private room,2003,"$1,080 ",$216 ,3,108,1/17/2022,2.49,5,1,21,,
32475256,#2BED Luxury Midtown Full Kitchen,78858466202,unconfirmed,Beekman,Manhattan,Midtown,40.7534,-73.96616999999999,United States,US,False,flexible,Entire home/apt,2021,$690 ,$138 ,3,18,1/17/2022,0.44,5,7,357,,
32475808,Charming Tribeca Keyed Elevator loft,16037744147,unconfirmed,Kay,Manhattan,Tribeca,40.7152,-74.00733000000001,United States,US,False,moderate,Entire home/apt,2014,$863 ,$173 ,3,11,1/17/2022,0.39,3,1,42,,
32476361,Hendrix Upstairs Oasis Rm #3,5448478266,unconfirmed,Tonisha,Brooklyn,East New York,40.666990000000006,-73.88915,United States,US,False,moderate,Private room,2006,$400 ,$80 ,1,123,1/17/2022,3.12,4,6,172,,
32476913,Private Room In West Brooklyn,73850944547,unconfirmed,Jaime,Brooklyn,Bensonhurst,40.61378,-73.99769,United States,US,False,strict,Private room,2020,$352 ,$70 ,5,22,1/17/2022,0.63,3,2,84,,
32477465,Living In Art,78342622832,verified,Antoaneta,Queens,Woodside,40.75325,-73.9032,United States,US,False,moderate,Entire home/apt,2017,"$1,096 ",$219 ,3,55,1/17/2022,1.5,5,1,105,,
32478018,Art Deco Charm in the heart of The Village!,209566505,unconfirmed,Walker Hotel Greenwich Village,Manhattan,Greenwich Village,40.735440000000004,-73.99746999999999,United States,US,False,flexible,Hotel room,2012,$716 ,$143 ,1,60,1/17/2022,1.71,5,2,360,,
32478570,Seasons change in our sunny space in Brooklyn,85690764311,verified,Tj,Brooklyn,Bedford-Stuyvesant,40.684490000000004,-73.923,United States,US,False,strict,Entire home/apt,2022,$284 ,$57 ,4,43,1/17/2022,1.27,5,4,202,,
32479122,FIDI SPACE 2 BED 2 BATHROOM LARGE LIVINGROOM,83608809868,verified,Joel,Manhattan,Financial District,40.71026,-74.00571,United States,US,False,strict,Entire home/apt,2013,"$1,014 ",$203 ,3,31,1/17/2022,1.23,4,2,77,,
32479675,★TRUE 2 BR APT(W)  5 SHORT BLOCKS TO CENTRAL PARK★,38544650078,unconfirmed,Inna,Manhattan,East Harlem,40.789291,-73.94274899999999,United States,US,True,strict,Entire home/apt,2018,$657 ,$131 ,30,9,1/17/2022,0.32,3,32,199,,
32480227,Perfect 1-Bedroom Beach Escape,41614704435,unconfirmed,Jak,Queens,Arverne,40.58866,-73.79361999999999,United States,US,False,flexible,Entire home/apt,2016,$967 ,$193 ,15,14,1/17/2022,0.54,2,1,315,,
32480779,Affordable 2BD Apt in Bushwick 5 Min from L Train!,86994103180,verified,Eliana,Queens,Ridgewood,40.709920000000004,-73.91360999999999,United States,US,True,moderate,Entire home/apt,2014,$938 ,$188 ,30,5,1/17/2022,0.17,3,2,180,,
32481331,The Residences at W New York - Downtown - Apt 29G,18475090898,verified,Zeus,Manhattan,Financial District,40.71014,-74.01448,United States,US,True,flexible,Entire home/apt,2013,$811 ,$162 ,30,4,1/17/2022,0.26,5,34,243,,
32481884,"Heart of NYC! Cozy, Artsy Perfect Midtown Getaway!",15889489600,verified,Mischa,Manhattan,Midtown,40.7646,-73.98262,United States,US,False,strict,Entire home/apt,2012,$210 ,$42 ,30,3,1/17/2022,0.43,2,1,259,,
