id,NAME,host id,host_identity_verified,host name,neighbourhood group,neighbourhood,lat,long,country,country code,instant_bookable,cancellation_policy,room type,Construction year,price,service fee,minimum nights,number of reviews,last review,reviews per month,review rate number,calculated host listings count,availability 365,house_rules,license
50874026,Spacious 1 bedroom in the heart of downtown NYC,93883384781,verified,Maura,Manhattan,East Village,40.725429999999996,-73.99129,United States,US,False,flexible,Entire home/apt,2006,"$1,023 ",$205 ,2,18.0,6/3/2019,0.7,2.0,1.0,68,1. Do adjust the heat/central air to your liking. 2. Do feel free to use all the amenities in the kitchen/bathroom. 3. Don't mind the neighbors. 4. Don't use the backyard space. 5. Park on the street - the parking space is for the downstairs neighbor only. 6. Smoke outdoors.,
50874578,"Sunny Basement Studio Apartment, 1 block to Park",58162942271,unconfirmed,Deborah,Brooklyn,Flatbush,40.64849,-73.96585,United States,US,True,flexible,Entire home/apt,2004,$167 ,$33 ,2,9.0,10/1/2018,0.29,2.0,1.0,0,"This is a smoke-free house. Otherwise, we just ask you to be respectful and considerate of others.",
50875131,AWESOME CHARMING ROOM C WITH ROOF DECK ACCESS :),69811948224,verified,Katie Graham,Brooklyn,Clinton Hill,40.69307,-73.96183,United States,US,True,strict,Private room,2006,$553 ,$111 ,30,13.0,5/20/2019,0.41,5.0,6.0,332,"Please be respectful of other guests.  Keep the common areas clean and pick up after your self.  No loud music after 10:00PM.  It is a safe neighborhood but please, keep doors locked for safety No smoking in the house (smoking is allowed on the front or back decks).",
50875683,AWESOME CHARMING ROOM B WITH ROOF DECK ACCESS :),64839725857,verified,Katie Graham,Brooklyn,Bedford-Stuyvesant,40.694590000000005,-73.96103000000001,United States,US,False,flexible,Private room,2010,$689 ,$138 ,30,7.0,5/16/2018,0.24,1.0,6.0,97,No pets are allowed in the house.,
50876235,"Beautiful, Spacious Harlem Home",22736792029,verified,Perry,Manhattan,Harlem,40.81153,-73.94528000000001,United States,US,True,flexible,Private room,2014,$781 ,$156 ,7,0.0,,,2.0,1.0,0,"House quiet hours are 10PM to 8AM. No smoking, No Pets.",
50876788,Stanhope,18035625534,verified,Timbrooke,Brooklyn,Bushwick,40.69477,-73.92489,United States,US,True,strict,Private room,2009,$584 ,$117 ,7,0.0,,,5.0,2.0,362,,
50877340,Penthouse,61510949681,unconfirmed,David,Manhattan,East Harlem,40.79142,-73.9398,United States,US,True,moderate,Entire home/apt,2009,$541 ,$108 ,4,33.0,6/26/2019,1.2,3.0,1.0,346,Please be respectful to other tenants.,
50877892,Modern Apt in Harlem steps from Central Park!,54984521469,unconfirmed,Sade,Manhattan,Harlem,40.79942,-73.95128000000001,United States,US,False,strict,Entire home/apt,2006,$423 ,$85 ,3,11.0,10/25/2017,0.36,2.0,1.0,0,"not smocking in the apt, you can smoke in the porch down stairs parties allowed in the porch downstairs",
50878444,Beautiful spacious Greenpoint Apartment,94596366209,unconfirmed,Zdzislawa,Brooklyn,Greenpoint,40.72623,-73.94972,United States,US,True,flexible,Private room,2007,$786 ,$157 ,2,37.0,11/2/2017,1.23,2.0,1.0,0,Please be respectful to the apartment and the other people who live in the space.,
50878997,Sunny 1 Bedroom Apt. in Brooklyn,76405697510,unconfirmed,Christopher,Brooklyn,Bedford-Stuyvesant,40.67902,-73.95085,United States,US,True,moderate,Entire home/apt,2019,$394 ,$79 ,2,5.0,12/29/2018,0.19,1.0,1.0,0,"No smoking, drugs, or drinking, please.",
50879549,Fabulous Chelsea Triplex (2 bdrm/1.5 bath),16016370500,unconfirmed,Sara,Manhattan,Chelsea,40.74289,-73.9953,United States,US,True,moderate,Entire home/apt,2015,$449 ,$90 ,6,0.0,,,2.0,1.0,0,"Treat the home as if it were your own. If you need to smoke, you can smoke on the porch",
50880101,Great room in charming Fort Greene Brooklyn,81912241964,verified,Ariane,Brooklyn,Fort Greene,40.69357,-73.97235,United States,US,True,moderate,Private room,2004,$939 ,$188 ,6,0.0,,,4.0,1.0,0,,
50880654,Sunny Room in East Williamsburg close to L Train,6296756524,unconfirmed,Sascha,Brooklyn,Williamsburg,40.70669,-73.94334,United States,US,False,strict,Private room,2019,$763 ,$153 ,3,10.0,7/1/2019,0.38,2.0,1.0,4,,
50881206,Wonderful room located in charming East Village,96383346053,verified,Calvin,Manhattan,East Village,40.72087,-73.98079,United States,US,False,flexible,Private room,2014,$779 ,$156 ,1,2.0,6/7/2018,0.15,2.0,1.0,0,Clean is a must.. No smoking cigars.,
50881758,1 (twin) private room in bushwick +roof +living rm,36210350028,unconfirmed,Zarrin,Brooklyn,Bushwick,40.6984,-73.92273,United States,US,True,moderate,Private room,2006,$367 ,$73 ,3,2.0,1/11/2017,0.07,3.0,1.0,0,This is a private room with access to a private rooftop deck. The bathroom is shared with one roommate who is at work from 6am-6pm. The kitchen is available for your use. The room has a minifridge with water and cold brewed coffee.  We ask that you don't smoke.,
50882311,Spacious and bright 1 bedroom apartment,4085712530,unconfirmed,Shara,Manhattan,Harlem,40.8087,-73.95142,United States,US,True,strict,Entire home/apt,2011,$523 ,$105 ,7,0.0,,,4.0,1.0,0,"Please be respectful of other guests.  Keep the common areas clean and pick up after your self.  No loud music after 10:00PM.  It is a safe neighborhood but please, keep doors locked for safety  No smoking in the house (smoking is allowed on the front or back decks).",
50882863,Lovely Spacious Bedroom in Brooklyn,17821643488,verified,Yoni,Brooklyn,Clinton Hill,40.69546,-73.96188000000001,United States,US,False,strict,Private room,2004,$632 ,$126 ,3,163.0,6/12/2019,5.22,2.0,2.0,53, No smoking in house but on the balcony it's ok. No more than 2 people. One real bed and one Murphy's bed (pull-out). Shared bath in the (URL HIDDEN) overnight guests. keep noise level down. Have fun but be respectful of the type of neighborhood that we are in. no pets (URL HIDDEN) more than 3 night stays at a time.,
50883415,Spacious 2 BDR - Hell's Kitchen/Times Square,50737993998,verified,Sy,Manhattan,Hell's Kitchen,40.762840000000004,-73.98849,United States,US,False,strict,Entire home/apt,2017,$171 ,$34 ,4,2.0,11/30/2017,0.07,5.0,1.0,0,No Smoking in the Apartment.  Pretty laid back home here with two cats that have free reign.  Not a huge place so don't party here. Social & Respectful w/ cleaning after ourselves.  Respecting quiet at night.,
50883967,"Williamsburg Experience, Quick Manhattan Access",93934945682,unconfirmed,Inese & Michæl,Brooklyn,Williamsburg,40.71002,-73.96236999999999,United States,US,False,moderate,Private room,2011,$213 ,$43 ,2,71.0,6/7/2019,2.32,2.0,1.0,70,"Please be respectful of other guests.  Keep the common areas clean and pick up after your self.  No loud music after 10:00PM.  It is a safe neighborhood but please, keep doors locked for safety No smoking in the house (smoking is allowed on the front or back decks).",
50884520,"UWS Landmarked Townhouse 1BR, APT 3B",36135536875,verified,Lisa,Manhattan,Upper West Side,40.78297,-73.98141,United States,US,True,moderate,Entire home/apt,2013,$635 ,$127 ,90,2.0,11/15/2017,0.07,3.0,8.0,125,"- Bathroom and kitchen are shared, so please clean up after yourself immediately to respect the other guests!",
50885072,RG - Budget Friendly room in the Greenpoint area!,34761753956,unconfirmed,Max,Brooklyn,Greenpoint,40.73731,-73.95493,United States,US,False,moderate,Private room,2020,$918 ,$184 ,2,85.0,6/16/2019,2.73,2.0,3.0,171,Absolutely no smoking/drugs Keep the place as clean as you found it Keep the noise down at night,
50885624,Private cozy room near LGA airport,31951816350,unconfirmed,Juel,Queens,East Elmhurst,40.76432,-73.87227,United States,US,False,moderate,Private room,2007,"$1,163 ",$233 ,1,333.0,6/24/2019,10.64,5.0,5.0,139,No smoking in the unit ( strict)  No pets (strict)  No bringing guys inside (strict)  No open flame There is a $100 charge for lost key due to the tap system installed in building  Please keep your volume down to respect other neighbors,
50886177,Private large room near LGA airport with queen bed,49092265465,unconfirmed,Juel,Queens,East Elmhurst,40.76509,-73.8717,United States,US,False,strict,Private room,2020,$552 ,$110 ,1,255.0,6/23/2019,8.17,2.0,5.0,175,Guests are encouraged to feel at home but be respectful and gentle.  A welcome sheet is provided in your room with useful information,
50886729,The Fenihouse Brooklyn,74381072173,verified,Renee,Brooklyn,Prospect-Lefferts Gardens,40.65868,-73.94991999999999,United States,US,True,flexible,Entire home/apt,2016,$679 ,$136 ,2,46.0,6/16/2019,1.5,2.0,1.0,234,No Smoking Please leave all things the way you found them.  No pets allowed. We will leave more detailed guidelines in the apartment.,
50887281,Chic & Cosy Lower East Side Apartment,1798370524,unconfirmed,Sophie,Manhattan,Chinatown,40.717040000000004,-73.99081,United States,US,True,flexible,Private room,2013,$577 ,$115 ,2,2.0,7/2/2017,0.06,3.0,1.0,0,No shoes inside the house,
50887834,Room at Home in Lower East Side,93838676909,unconfirmed,Andrea,Manhattan,Lower East Side,40.71833,-73.98555999999999,United States,US,True,flexible,Private room,2015,$671 ,$134 ,4,,6/25/2019,0.63,4.0,2.0,244,"I spent a lot of time and effort renovating my property, so I ask that you respect it as your own. Please be cognizant of neighbors - no loud music, no parties, and no people who aren't a part of the reservation should be staying overnight. Please leave all used sheets/towels in the bathroom. * No SMOKING in the unit * No PETS",
50888386,Private room near LGA Airport with queen bed,75978982003,unconfirmed,Juel,Queens,East Elmhurst,40.76582,-73.87153,United States,US,False,moderate,Private room,2016,$890 ,$178 ,1,306.0,6/20/2019,9.82,5.0,5.0,155,"House Rules 1. Check-in is 4 pm local time. If the unit is ready earlier, we’ll let you know. Check-out is normally 11 am local time, but we’d be happy to extend it as long as we don’t have a cleaning scheduled. Just let us know.  2. All bookings require a security deposit of at least $300, which will be refunded within 7 days of your check-out. 3. For security measures we require all guests to provide proof of identification through ID verification on our own website. In order to check in we'll need a photo of your ID.  4. Our cancellation policy is as shown on our ad and defined by the site you are booking through.  5. Don’t let $300 go up in smoke. There's no smoking allowed in any Flatbook and a $300 fine for breaking this rule.  6. Unfortunately we don’t allow pets in any of our apartments. 7. Unless you’re staying in one of our specialty apartments, we don’t allow parties or excessive noise. 8. If we find the place very messy, we have to charge an extra $40 for every extra hour o",
50888938,Room In Bed-Stuy Apartment,586021509,verified,Darren,Brooklyn,Bedford-Stuyvesant,40.689009999999996,-73.95371,United States,US,False,flexible,Private room,2021,"$1,148 ",$230 ,1,0.0,,,2.0,1.0,0,"Please be respectful of other guests.  Keep the common areas clean and pick up after your self.  No loud music after 10 pm.  No pets. It is a safe neighborhood but please, keep doors locked for safety No smoking in the house (smoking is allowed on the front or back decks).",
50889490,Stylish & Spacious Apartment,78399892172,unconfirmed,Bertus,Brooklyn,Canarsie,40.6315,-73.90760999999999,United States,US,False,flexible,Entire home/apt,2010,"$1,140 ",$228 ,2,88.0,6/21/2019,2.85,3.0,1.0,349,,
50890043,Ft Greene: 2-3 Bedroom Duplex w/Garden,76640973672,unconfirmed,Heather,Brooklyn,Fort Greene,40.69601,-73.97114,United States,US,False,moderate,Entire home/apt,2014,$174 ,$35 ,6,7.0,8/29/2018,0.23,4.0,2.0,5,"Pets: No pets are allowed in the apartment. There are no exceptions. Smoking: No smoking is allowed in the apartment. There are no exceptions. Parties: Small, quiet gatherings of six to eight people are fine. But large parties in the apartment are strictly off-limits.  Internet: Network name is [provided upon arrival]. Password is [provided upon arrival]. TV: We have cable service through Xfinity. Remote controls are in the TV console. You are free to watch the channels included in our package, but please do not order any movies or shows. Coffee: The coffeepot in the kitchen is a Bunn coffee maker. If you are not familiar with brewing coffee with a Bunn, please read the instructions behind the coffeepot (red pamphlet). If you don’t, you will be sorry because there will probably be coffee all over the counter and floor! Laundry: In the basement there are two washers and two dryers, which you are free to use. Please use the detergent, fabric softener, and dryer sheets in the plastic bin ",
50890595,Bright & cozy 1BR/Balcony next to 3 subways!,75579835794,verified,Gala,Brooklyn,Williamsburg,40.70581,-73.95004,United States,US,True,moderate,Entire home/apt,2014,$981 ,$196 ,3,72.0,6/22/2019,2.31,1.0,2.0,302,,
50891147,big room in Hell's Kitchen close to Times Square,85483476757,verified,Jose Diego,Manhattan,Hell's Kitchen,40.75997,-73.98781,United States,US,False,strict,Private room,2009,$237 ,$47 ,1,0.0,,,4.0,1.0,0,,
50891700,Cozy in Cobble Hill,60819267671,unconfirmed,Karen,Brooklyn,Carroll Gardens,40.68577,-73.9928,United States,US,True,flexible,Entire home/apt,2019,$205 ,$41 ,2,0.0,,,2.0,1.0,0,"We expect respect during the workweek as any other working professional would! Otherwise enjoy have fun, go out and enjoy what Boston has to offer. Also for Parties and events we love to have everything pre-cleared with us. Thanks!",
50892252,Cute Bedroom in Hip Bushwick,42828237544,verified,Vanessa,Brooklyn,Bushwick,40.70279,-73.9289,United States,US,False,strict,Private room,2010,$376 ,$75 ,7,2.0,1/15/2017,0.06,4.0,1.0,89,"House Rules 1. All bookings made at least a week before check in are fully refundable if cancelled within 24 hours of booking. After this, you will receive a 50% refund if you cancel at least 7 days before the start of your trip. 2. Check-in time is any time after 4 pm local time. If the unit is ready earlier, we’ll let you know. Check-out is normally 11 am local time, but we’d be happy to extend it as long as we don’t have a cleaning scheduled. Just let us know.  3. All bookings require a security deposit of at least $300. 4. For security measures we require all guests to provide proof of identification through ID verification on our own website. In order to check in, we'll need a photo of your ID.  5. Don’t let $300 go up in smoke. There's no smoking allowed in any Flatbook and a $300 fine for breaking this rule.  6. Unfortunately we don’t allow pets in most of our apartments. 7. Unless you’re staying in one of our specialty apartments, we don’t allow parties or excessive noise. 8. I",
50892804,"Spacious, cozy, quiet 1.5 bedroom",7933881818,verified,Audrey,Queens,Ridgewood,40.705009999999994,-73.91065,United States,US,False,flexible,Entire home/apt,2017,$756 ,$151 ,4,1.0,1/2/2017,0.03,5.0,1.0,0,"No pets, no smoking of any manner or tobacco products allowed.  This is my home and I expect guests to treat it with the same respect and consideration as they would give their own homes.",
50893357,Amazing 3BR Triplex Family Apartment w/ Garden,36291318103,unconfirmed,Lisa,Manhattan,Upper West Side,40.78467,-73.98192,United States,US,True,strict,Entire home/apt,2004,$867 ,$173 ,30,0.0,,,4.0,8.0,362,"No smoking, no drugs, no partying, no pets. This is not a party pad. We would like you to respect all personal belongings in the apartment and ask you to leave everything the way it was when we gave it to you.  We ask that you water the plants (4 of them) once a week. Please leave the apartment clean and the way we left it, as per AirBnB terms and conditions.",
50893909,Light filled private room in Red Hook!,33843673266,unconfirmed,Mattia,Brooklyn,Red Hook,40.67414,-74.00707,United States,US,False,strict,Private room,2006,$804 ,$161 ,4,4.0,6/20/2019,0.13,1.0,1.0,0,,
50894461,Charming Bedroom on the Lower East Side,9774276492,unconfirmed,Emily,Manhattan,Lower East Side,40.72007,-73.98559,United States,US,True,flexible,Private room,2021,$517 ,$103 ,5,0.0,,,1.0,1.0,0,"Please be respectful of other guests.  Keep the common areas clean and pick up after your self.  No loud music after 10:00PM.  It is a safe neighborhood but please, keep doors locked for safety No smoking in the house (smoking is allowed on the front or back decks).",
50895013,Clean Comfortable Room in Amazing NYC Neighborhood,75258341219,unconfirmed,Jake,Queens,Ridgewood,40.70412,-73.90171,United States,US,True,flexible,Private room,2011,$209 ,$42 ,3,2.0,12/31/2016,0.06,4.0,1.0,0,,
50895566,Luxury Apartment Located in Riverdale.,49607528785,verified,Don,Bronx,North Riverdale,40.901540000000004,-73.89791,United States,US,False,strict,Entire home/apt,2004,$746 ,$149 ,7,0.0,,,3.0,1.0,89,"- No smoking anywhere (non-smokers only) - No cologne/perfume/scented sprays due to allergy (deodorant roll/stick OK, hairspray OK) - Cat in the house, free roaming, please don't feed her - No disturbance - Visitors not permitted - Recycling, conserve resources, reusable shopping bag provided - Please avoid single use plastic bags - NO parking, don't bring a car - Light kitchen use: microwave, refrigerator/freezer, toaster, electric tea pot",
50896118,--Into The Heart Of Greenpoint--,78805963442,verified,Chris,Brooklyn,Greenpoint,40.728790000000004,-73.95689,United States,US,True,strict,Entire home/apt,2009,$571 ,$114 ,3,37.0,5/27/2019,1.18,2.0,1.0,258,"quiet after midnight, no smoking on premises (smoke on the sidewalk only, cigarette smoke goes into open windows and the building is full of non-smokers), no guests",
50896670,"Very spacious and sunny room in Harlem, Manhattan!",42400798831,unconfirmed,Tatiana,Manhattan,Harlem,40.83036,-73.94346,United States,US,False,strict,Private room,2016,$752 ,$150 ,15,0.0,,,2.0,1.0,0,,
50897223,Sun-drenched room in quiet Ridgewood neighborhood,2068962038,unconfirmed,Norberto,Queens,Ridgewood,40.707229999999996,-73.91107,United States,US,False,moderate,Private room,2009,"$1,110 ",$222 ,5,0.0,,,3.0,1.0,0,"No loud music after 10:00PM.  It is a safe neighborhood but please, keep doors locked for safety No smoking in the house (smoking is allowed on the front or back decks).",
50897775,"Bright, airy, calm Brooklyn space",82731373365,unconfirmed,Clare,Brooklyn,Bedford-Stuyvesant,40.68314,-73.9566,United States,US,True,flexible,Private room,2013,$138 ,$28 ,2,4.0,1/24/2017,0.13,4.0,1.0,0,"Have FUN! Wireless Internet is Foster St. Castle and Password is Brighton169171 No smoking inside, but feel free to smoke outside or on the deck! Just please properly dispose of butts. Bigger black remote turns on the TV and Volume, Smaller black remote is for the Blue Ray Player. Comcast remote is for Cable. No loud music after 10:30, but head out on the town!! Uber and Lyft are great for getting cheaper, faster rides. The Buses are usually quicker and cleaner than the T, especially the B line. If taking the T, definitely walk to the C/D in Cleveland Circle. There are awesome fields and parks very close (walking) to the house.  Make sure to pick up after your dog.",
50898327,Modern Ridgewood Apartment!,70919359064,unconfirmed,Manuel,Queens,Ridgewood,40.698570000000004,-73.90618,United States,US,True,strict,Private room,2011,$637 ,$127 ,4,20.0,12/27/2017,0.64,3.0,1.0,0,,
50898880,Cozy with Great location !!!!,73859449701,unconfirmed,Nora,Brooklyn,Sheepshead Bay,40.59813,-73.95432,United States,US,False,moderate,Shared room,2005,$491 ,$98 ,1,47.0,6/23/2019,1.58,1.0,5.0,354,,
50899432,Brooklyn Style Apartment!,50216945431,unconfirmed,Sandra&Orlando,Brooklyn,Flatbush,40.64438,-73.95484,United States,US,True,flexible,Entire home/apt,2008,"$1,118 ",$224 ,7,15.0,1/2/2019,0.49,5.0,2.0,281,,
50899984,A dose of Williamsburg cool,92281088961,unconfirmed,Matt,Brooklyn,Williamsburg,40.70885,-73.94586,United States,US,False,moderate,Private room,2007,$249 ,$50 ,2,3.0,4/8/2017,0.1,4.0,1.0,0,,
50900536,Large room with private bath & kitchen near train,94029614223,unconfirmed,Adil,Brooklyn,Flatbush,40.639,-73.96661999999999,United States,US,True,strict,Entire home/apt,2008,$239 ,$48 ,1,124.0,6/24/2019,3.97,1.0,1.0,64,"No pets, no smoking. Please remove your shoes upon entering. We have very sensitive floors and would like to keep them looking new ;)",
50901089,Cozy room in Brooklyn,88293911387,verified,Yagil,Brooklyn,Bedford-Stuyvesant,40.68997,-73.92742,United States,US,False,strict,Private room,2006,$906 ,$181 ,8,11.0,2/28/2018,0.35,3.0,2.0,0,Please do not smoke. Be respectful of other guests.,
50901641,Charming Chelsea Studio,39724861917,unconfirmed,Charles,Manhattan,Chelsea,40.74753,-74.00395999999999,United States,US,False,moderate,Entire home/apt,2021,$550 ,$110 ,3,7.0,2/13/2019,0.31,2.0,1.0,9,"- No gatherings/parties for more than 12 people,  - Please keep noise down after 9 pm",
50902193,River View Apartment in the Bronx,31839238443,verified,Germaine,Bronx,Kingsbridge,40.86605,-73.90694,United States,US,False,moderate,Entire home/apt,2003,$731 ,$146 ,26,3.0,8/23/2018,0.16,4.0,1.0,37,"Three simple rules! No smoking (indoors) or visitors, please. Please remember to lock up when you enter and exit. Please turn off the lights when you are not using them.  Thanks!",
50902746,Comfortable room in quite home with queen size bed,95890841403,unconfirmed,Carla,Brooklyn,East New York,40.66192,-73.86764000000001,United States,US,True,strict,Private room,2009,$957 ,$191 ,2,37.0,1/29/2019,1.21,5.0,4.0,158,No smoking indoors (a big porch with seating available for smokers)  Guests are expected to clean up after themselves in the bathroom and in the kitchen.,
50903298,Private Room on Roosevelt Island,37457173289,unconfirmed,Erik,Manhattan,Roosevelt Island,40.76182,-73.94879,United States,US,False,strict,Private room,2005,$635 ,$127 ,1,8.0,4/28/2019,0.32,5.0,2.0,0,,
50903850,Cozy room in 3 BR Williamsburg apartment,96878392274,unconfirmed,Charlotte,Brooklyn,Williamsburg,40.71457,-73.96332,United States,US,True,strict,Private room,2014,$173 ,$35 ,2,1.0,1/1/2017,0.03,1.0,1.0,0,"Please respect the other neighbors. This building contains professionals and is very quiet. Please no smoking, parties, and pets. Must be over 21.",
50904403,Super Great Williamsburg Apartment- Private Room,43046603481,unconfirmed,Bridgid,Brooklyn,Williamsburg,40.7133,-73.95036999999999,United States,US,True,moderate,Private room,2011,"$1,172 ",$234 ,1,1.0,3/27/2017,0.04,5.0,1.0,0,#NAME?,
50904955,Comfy Bedroom in Spacious Manhattan apartment,93884035066,verified,Victor,Manhattan,East Harlem,40.79639,-73.93319,United States,US,False,moderate,Private room,2014,$414 ,$83 ,3,24.0,6/29/2019,0.86,3.0,2.0,81,"No smoking anywhere in or out of home (guest must be non-smoker) Cologne/perfume/spray use are not allowed any time anywhere (allergy prevent) Please be aware of your actions and always look back before leaving bathroom to make sure everything is left clean Please cause no disturbance and walk the stairs slower to prevent much noise OK to eat in your room but not in bed, always clean/cover food Keep your room clean during your stay Recycle and use reusable shopping bag (provided, please carry with you) Please do not bring plastic bags from stores Ask for help/assistance/information at any time, we want you to feel comfortable Night time help please call from the same phone number twice or more if the call is not answered Do not give mailing address to anyone (ask me why) If guest breaks rule about mailing address, the charge is $205",
50905507,Charming attic Room in Home + Backyard/Near Metro,21501781333,verified,Ciprian,Bronx,Fordham,40.87093,-73.8934,United States,US,False,flexible,Private room,2003,$249 ,$50 ,3,84.0,6/23/2019,2.74,1.0,4.0,75,"Unlike most other Airbnb listings, what we do here is long-term rentals by the year, or by the semester and we can welcome compatible short-term guests.  We try to keep the atmosphere conducive to studying and resting and a couple of house-rules are in place to this end.    1. No smoking on the premises.  2. No loud music or TV etc.   3. Only for one person (no couples, no visitors). We seldom have visitors, let alone overnight guests. We know this will be a major turn-off to many people, but we believe we can find a like-minded roommate who can have fun outside the house.   4. If you re not sure about your check-out date, you can reserve the minimum days and extend your stay at a discounted rate.   5. Check-in time is flexible, but it has to be coordinated at least 24 hours ahead. On arrival, a short registration process with a picture ID is needed in exchange for keys and wifi access.",
50906059,"Charming Central 1- Bedroom Apartment, Gramercy",68533078508,unconfirmed,Jenna,Manhattan,Gramercy,40.73794,-73.98423000000001,United States,US,True,strict,Entire home/apt,2019,"$1,058 ",$212 ,10,4.0,1/2/2019,0.15,5.0,1.0,48,"This is a smoke free home. If parking, please leave space for other cars to get around and in and out of the drive. The fireplace is non-working. The back porch is closed for renovations, but feel free to enjoy the back yard (also being renovated, but still a great place to sit and relax).",
50906612,Artsy Apt in Bushwick!,23311689441,verified,Tracy,Brooklyn,Bushwick,40.68376,-73.91121,United States,US,False,strict,Private room,2008,$683 ,$137 ,2,5.0,5/16/2017,0.16,5.0,1.0,206,,
50907164,"Cozy Sunny Room in New Apartment by G, J, M trains",24846874833,verified,Andrei,Brooklyn,Bedford-Stuyvesant,40.69442,-73.94362,United States,US,False,strict,Private room,2008,$871 ,$174 ,7,0.0,,,1.0,2.0,0,"Share our house as a guest, don't worry about cost of snacks or an occasional beer.  No smoking and no pets. Please consult first if travelling with small children.",
50907716,Great Duplex in Crown Heights,8265056063,unconfirmed,Tania,Brooklyn,Prospect-Lefferts Gardens,40.66075,-73.94549,United States,US,False,strict,Entire home/apt,2004,"$1,141 ",$228 ,3,0.0,,,2.0,1.0,0,No shoes inside the house,
50908269,Cozy place in a diverse city,38799463871,verified,Mabel,Queens,Elmhurst,40.74572,-73.87556,United States,US,False,moderate,Private room,2006,"$1,179 ",$236 ,1,2.0,1/20/2017,0.07,3.0,1.0,0,"No smoking, no parties. Quiet building. Sorry, no pets.",
50908821,Entire 1 Bedroom Apt with Great Light & Vibes :),11953680065,verified,Meli And Daniel,Manhattan,Chinatown,40.714890000000004,-73.99438,United States,US,False,strict,Entire home/apt,2011,$621 ,$124 ,7,11.0,10/30/2018,0.35,4.0,1.0,188,,
50909373,Cozy & Sunlit Three Bedroom Apartment,36921530828,unconfirmed,Dana,Manhattan,Harlem,40.82548,-73.94983,United States,US,False,flexible,Entire home/apt,2012,$161 ,$32 ,2,1.0,1/1/2017,0.03,5.0,1.0,0,No smoking please - Please just leave the place as you found it.,
50909926,"Cozy, Quiet, 1 bedroom apartment - Lower East Side",20558409176,verified,Al,Manhattan,Lower East Side,40.7178,-73.98448,United States,US,True,flexible,Entire home/apt,2021,$936 ,$187 ,1,46.0,6/23/2019,1.5,1.0,1.0,31,"- Peanut/Nut Free, Gluten Free house please for the safety of many people including the cleaning crew, myself, and others who wish to stay here in the future do not bring these items (i.e. peanut butter or peanuts) into the house - Please let me know if you plan to bring an animal as I do occassionally have a foster animal here, I'd want to make sure I wasn't fostering at that time, or make other arrangements. - No smoking in doors, it WILL set off the fire alarms in the building, which is loud and causes the entire building to have to evacuate and wait outside (and trust me, it is loud enough and annoying enough it WILL wake you from a dead sleep and you'll be rushing to get out and save your ears from the sound! Also there is a $100-$200 fee for smoking inside or for smoking infront of the building (or either building on each side). But, you are welcome to walk across or down the street a bit or around the block, etc to smoke - You may order movies or anything else On Demand, but ple",
50910478,Quiet Room in Unique Carroll Gardens,51758812823,verified,Kristan,Brooklyn,Carroll Gardens,40.67711,-73.99691999999999,United States,US,False,strict,Private room,2011,$517 ,$103 ,2,2.0,3/2/2017,0.07,3.0,1.0,0,,
50911030,Sunny room in BK for your NYC stay!,14561046609,verified,Eric,Brooklyn,Crown Heights,40.67306,-73.92334,United States,US,False,moderate,Private room,2004,$769 ,$154 ,2,34.0,6/4/2019,1.11,4.0,5.0,29,Guests need to be respectful of other tenants. This is the ground floor apartment of a 3 story house; all apartments have separate entrances.,
50911582,Elegant 3BR with Backyard (15 Mins to Manhattan!),89160270856,unconfirmed,Nikita,Brooklyn,Bedford-Stuyvesant,40.68314,-73.93124,United States,US,False,strict,Entire home/apt,2003,$182 ,$36 ,2,67.0,6/21/2019,2.27,2.0,3.0,250,"Please just keep your area reasonably clean and pick up after yourself.  Nothing special.  All the kitchen appliances that are there are available for your use.  Just wash your dishes and pick up any trash you have.   If anything gets dirty, no need to be embarrassed.  Just let us know so we can take care of it as soon as possible.   Also no smoking and no loud parties.  Come, enjoy yourself and have fun.",
50912135,a budget comfy room,57384591808,verified,Mei,Queens,Bayside,40.75377,-73.7726,United States,US,True,flexible,Private room,2021,$719 ,$144 ,15,22.0,6/2/2019,0.7,3.0,2.0,145,There is  light breakfast - cereal with milk that is served.,
50912687,Full Apartment in Upper West Side.,49432381866,unconfirmed,Per Byholt Leibøl,Manhattan,Upper West Side,40.795190000000005,-73.96945,United States,US,True,flexible,Entire home/apt,2020,$286 ,$57 ,2,2.0,1/14/2017,0.07,2.0,1.0,0,"No smoking, no pets.",
50913239,Brooklyn Brownstone Serenity,84605857879,unconfirmed,Tali,Brooklyn,Bedford-Stuyvesant,40.68588,-73.92784,United States,US,False,moderate,Entire home/apt,2017,$397 ,$79 ,6,55.0,6/30/2019,1.81,1.0,1.0,59,,
50913792,UES Beautiful Apartment off Park Av,84796686771,verified,Natalia,Manhattan,Upper East Side,40.76786,-73.96973,United States,US,False,flexible,Entire home/apt,2017,$752 ,$150 ,4,23.0,7/7/2019,0.76,3.0,1.0,17,"Please be respectful of other guests.  Keep the common areas clean and pick up after your self.  No loud music after 10:00PM.  It is a safe neighborhood but please, keep doors locked for safety No smoking in the house (smoking is allowed on the front or back decks).",
50914344,Wyndham 2 doubles hotel room,97864745101,unconfirmed,Rich,Manhattan,Midtown,40.75169,-73.97174,United States,US,True,strict,Entire home/apt,2021,$731 ,$146 ,2,2.0,1/1/2017,0.06,5.0,4.0,0,,
50914896,Spectacular Townhouse 4Floor 5BD West Village NYC,87416527747,unconfirmed,Maud,Manhattan,West Village,40.73726,-74.00085,United States,US,True,strict,Entire home/apt,2018,"$1,100 ",$220 ,1,8.0,12/27/2018,0.41,5.0,1.0,361,"Be clean and respectful Be clean: I will do my best to have the place always clean when you arrive. The expectation is that you maintain it clean when you are here and that you leave it clean. Please clean the bathroom sink, wc and tub after you use them (e.g. if you shave, your hears should not remain in the sink) If you use the bathroom bin, you have to empty it.  If you use dishes, glasses, pans, pots, silverware that are available for your use in the kitchen, the expectation is that you rinse everything you used and put it in the dishwasher. In a few wards, clean after yourself. Please remember this is my house that I open to you and share with you for a modest fee. This fee does not include daily housekeeping. I should not be cleaning after you. I am easy going, but I will give you a bad review if you do not clean METICULOUSLY after yourself. Doing this means you are being respectful. I will observe these rules to the fullest. Thanks",
50915449,"Amazing location, East Village full 3BR apartment",56411664041,unconfirmed,Ben,Manhattan,East Village,40.72357,-73.98796999999999,United States,US,True,flexible,Entire home/apt,2012,$162 ,$32 ,2,0.0,,,2.0,4.0,0,,
50916001,Studio in West Village,61946860397,verified,Eric,Manhattan,West Village,40.73243,-74.00932,United States,US,False,strict,Entire home/apt,2018,$549 ,$110 ,4,1.0,1/2/2017,0.03,4.0,1.0,0,"According to general house rules: no smoking, pets are not allowed in the complex. ",
50916553,Hamilton Heights Townhouse Apartment,29053674152,verified,Michael,Manhattan,Harlem,40.82255,-73.94807,United States,US,True,flexible,Private room,2013,$724 ,$145 ,4,30.0,6/17/2019,1.18,2.0,1.0,28,,
50917105,Cozy Bedroom in the heart of Williamsburg,64662310052,verified,Laura,Brooklyn,Williamsburg,40.719570000000004,-73.95828,United States,US,False,moderate,Private room,2019,"$1,153 ",$231 ,4,0.0,,,3.0,1.0,0,#NAME?,
50917658,Cozy room Williamsburg,59309836934,verified,Helena,Brooklyn,Williamsburg,40.712920000000004,-73.94136999999999,United States,US,False,strict,Private room,2007,$427 ,$85 ,3,4.0,5/28/2018,0.13,2.0,3.0,0,"No pets, no smoking of any manner or tobacco products allowed.  This is my home and I expect guests to treat it with the same respect and consideration as they would give their own homes.",
50918210,Charming Modern 1 Bedroom in Bedstuy.,93294779588,unconfirmed,Shaun-Curtis,Brooklyn,Bedford-Stuyvesant,40.683690000000006,-73.94896999999999,United States,US,False,flexible,Entire home/apt,2016,"$1,124 ",$225 ,4,2.0,1/2/2018,0.07,5.0,1.0,0,**No cigarettes in the house please.  **There is a strict $50 additional fee for each additional guest not on the original reservation (Emergency situations will be reviewed for accommodation.) - If you are coming in from outside the country please confirm your arrival time before your trip. Also if you are e-mailing me from an e-mail address that is different from your Air Bnb account please reference the name on the booking when you e-mail to avoid confusion. ** ABSOLUTELY NO parking in the driveway. There is ample street parking. Please keep the gate closed Feel free to use the patio and backyard Consider us & the neighbors by keeping noise down Smoking is permitted outside ONLY Please dispose of your cigarettes appropriately Have fun & Feel free to contact us for anything that you may need!,
50918762,"Private Studio along the park in Greenpoint, BK",26184961266,verified,Colin,Brooklyn,Greenpoint,40.7234,-73.94136,United States,US,True,flexible,Entire home/apt,2015,$706 ,$141 ,3,5.0,7/7/2019,0.17,1.0,1.0,0,,
50919315,Cozy Attic RM in Private Home Backyard/Near Metro,15967977120,unconfirmed,Ciprian,Bronx,Fordham,40.86909,-73.89395999999999,United States,US,False,moderate,Private room,2018,$274 ,$55 ,3,74.0,6/19/2019,2.42,4.0,4.0,84,,
50919867,Lavish Upscale  Room. Unforgettable.,1698429006,unconfirmed,Iza,Manhattan,East Harlem,40.78983,-73.94419,United States,US,False,strict,Private room,2015,$890 ,$178 ,1,73.0,7/1/2019,3.32,1.0,2.0,34,"No smoking and please be respectful of our downstairs neighbors when it comes to late night fun!  If you plan to have a party or event, please let us know in advance of booking!",
50920419,Serene atmosphere in Manhattan,7441029146,unconfirmed,Natalia,Manhattan,Inwood,40.87247,-73.91927,United States,US,True,flexible,Private room,2004,$987 ,$197 ,2,11.0,6/28/2019,0.36,5.0,1.0,29,No pets allowed. No smoking.,
50920972,Charming East Village Apartment with Patio,27285804286,unconfirmed,Mary Grace,Manhattan,East Village,40.72528,-73.98854,United States,US,False,strict,Private room,2005,$428 ,$86 ,3,0.0,,,2.0,1.0,0,"No Pets, No Smoking",
50921524,New Years Eve in a bright and airy UWS one bedroom,10941049112,unconfirmed,Sarah,Manhattan,Upper West Side,40.785920000000004,-73.97331,United States,US,False,moderate,Entire home/apt,2010,$911 ,$182 ,2,1.0,1/2/2017,0.03,2.0,1.0,0,,
50922076,"Great Room &Host, steps from #1 train",17623893479,unconfirmed,Dee,Manhattan,Harlem,40.82378,-73.95354,United States,US,True,strict,Private room,2010,$812 ,$162 ,60,13.0,8/15/2018,0.67,3.0,4.0,0,No smoking or parties please. Kaya (the fluffiest dog you have ever seen) also insists that you pet her at least once during your stay :-),
50922628,Luxurious Studio In heart of NYC!,47669030970,unconfirmed,Amit,Manhattan,Theater District,40.75527,-73.98507,United States,US,False,flexible,Entire home/apt,2014,"$1,014 ",$203 ,2,5.0,11/8/2017,0.16,2.0,1.0,0,"We expect our guests to be respectful of our space, belongings and neighbors. Check out time is 11am and Check in time is 3pm.",
50923181,Quiet and cozy apartment in Greenwich Village,72005742039,verified,Sandra,Manhattan,NoHo,40.72571,-73.99506,United States,US,False,strict,Entire home/apt,2012,$991 ,$198 ,3,3.0,3/17/2017,0.1,2.0,1.0,0,,
50923733,Cozy and sunny 2 BR apartment in trendy Greenpoint,84490147433,verified,Suzanne,Brooklyn,Greenpoint,40.73475,-73.95543,United States,US,True,flexible,Entire home/apt,2014,$502 ,$100 ,4,4.0,1/1/2019,0.13,4.0,1.0,0,,
50924285,Great Bedroom in East Williamsburg (+ ROOFTOP!!),30065134489,verified,Brian,Brooklyn,Williamsburg,40.708059999999996,-73.9427,United States,US,True,flexible,Private room,2019,$111 ,$22 ,5,1.0,1/1/2017,0.03,5.0,2.0,0,Quiet hours are 10PM to 8AM. No Smoking no pets,
50924838,"Private 1 BR in 4 BR apartment, by L Train",71975482998,verified,Sasha,Brooklyn,Williamsburg,40.71443,-73.96154,United States,US,True,flexible,Private room,2014,$118 ,$24 ,1,4.0,6/24/2017,0.13,5.0,5.0,0,,
50925390,Luxury apartment in the heart of Williamsburg,67046189611,unconfirmed,Florian,Brooklyn,Williamsburg,40.718090000000004,-73.95383000000001,United States,US,True,moderate,Entire home/apt,2008,$511 ,$102 ,3,2.0,1/1/2018,0.07,2.0,1.0,0,Taking off shoes will be appreciated!,
50925942,East Village Studio Apt w/private Courtyard Oasis,30533927685,verified,Steven,Manhattan,East Village,40.7292,-73.98156,United States,US,True,strict,Entire home/apt,2021,$309 ,$62 ,6,1.0,1/5/2017,0.03,5.0,1.0,0,"Come as you are (only request: no smoke, no pets).",
50926495,Cozy shared male room at center of Manhattan III\),37158260151,unconfirmed,Max,Manhattan,Lower East Side,40.71239,-73.98626,United States,US,False,strict,Shared room,2016,$154 ,$31 ,14,0.0,,,1.0,28.0,342,"Please be respectful of other guests.  Keep the common areas clean and pick up after your self.  No loud music after 10:00PM.  It is a safe neighborhood but please, keep doors locked for safety No smoking in the house (smoking is allowed on the front or back decks).",
50927047,Private Room in Sun-drenched Apartment,91156982879,verified,Anne,Manhattan,Harlem,40.80883,-73.94577,United States,US,True,moderate,Private room,2021,$402 ,$80 ,30,20.0,9/14/2018,0.65,3.0,1.0,15,"No pets, no smoking of any manner or tobacco products allowed.  This is my home and I expect guests to treat it with the same consideration and respect as they would show their own homes.",
50927599,Cozy Stylish Central Park Private Suite,39304526217,unconfirmed,Jack - Philippe,Manhattan,East Harlem,40.79677,-73.94823000000001,United States,US,False,moderate,Private room,2016,"$1,132 ",$226 ,2,85.0,7/1/2019,2.79,2.0,1.0,117,,
50928151,"Charming bedroom, great location !",11868026696,unconfirmed,Maude,Brooklyn,Williamsburg,40.70769,-73.94548,United States,US,False,strict,Private room,2006,$606 ,$121 ,2,2.0,1/8/2017,0.07,1.0,1.0,0,,
50928704,"Cozy Apartment in Brooklyn, NY",82865464333,unconfirmed,Clifton,Brooklyn,Crown Heights,40.67816,-73.95111999999999,United States,US,True,moderate,Entire home/apt,2014,$819 ,$164 ,7,0.0,,,2.0,1.0,0,,
50929256,Sunny Studio Apartment,10027633564,verified,Felix,Manhattan,Harlem,40.82179,-73.94776999999999,United States,US,False,moderate,Entire home/apt,2020,"$1,144 ",$229 ,4,0.0,,,3.0,1.0,0,Shoes must be removed after entering the house. The cats are strictly indoor. No smoking,
50929808,Room in The Heights!,12140885054,verified,Mordechai,Manhattan,Washington Heights,40.85204,-73.92886,United States,US,True,strict,Private room,2013,"$1,167 ",$233 ,4,0.0,,,3.0,2.0,0,"NO SMOKING AND PETS ANYWHERE ON THE PROPERTY 1. Be respectful of the other tenants 2. When walking up the back stairwell into the unit, please minimize the amount of talking, door closing, and foot noise (these stairs border bedrooms) 3. If you use the grill, be sure to turn off the gas 4. Notify the owner of any discrepancies or things not functioning properly immediately 5. Please treat carpet stains promptly (or notify the owner) 6. Kindly turn off lights, air conditioners, and other electrical items when they aren't needed",
50930361,Private Studio & Kitchen in Renovated Brownstone,34876036868,verified,Mónica,Brooklyn,Bedford-Stuyvesant,40.68974,-73.94283,United States,US,False,flexible,Entire home/apt,2007,$418 ,$84 ,2,68.0,6/30/2019,2.28,5.0,1.0,232,,
50930913,Apartment in the heart of Williamsburg Brooklyn!,62430372606,unconfirmed,Mat,Brooklyn,Williamsburg,40.713809999999995,-73.95040999999999,United States,US,False,strict,Entire home/apt,2004,$824 ,$165 ,1,112.0,6/23/2019,3.65,1.0,1.0,221,"Absolutely not smoking in the house. I am looking for easy going people, not for party people. This is a quiet neighborhood. People who can take care of our stuff.",
50931465,Bright and Cozy 1BR in Crown Heights,683750012,verified,Morgan,Brooklyn,Crown Heights,40.677690000000005,-73.95309,United States,US,False,moderate,Entire home/apt,2018,$851 ,$170 ,3,5.0,6/25/2019,0.17,3.0,1.0,8,"No smoking, keep clean and respect property",
50932018,"浪漫民宿,环境优美,停车方便,独立洗手间和马桶,浴室共用｡ (Website hidden by Airbnb)",87679028323,verified,Emmy,Queens,Flushing,40.75482,-73.80368,United States,US,True,moderate,Private room,2011,"$1,181 ",$236 ,1,52.0,2/14/2019,2.03,3.0,4.0,0,,
50932570,PENTHOUSE OASIS IN THE HEART OF CHELSEA /FLATIRON,62463290697,unconfirmed,Rami,Manhattan,Gramercy,40.73741,-73.99003,United States,US,True,strict,Entire home/apt,2019,"$1,006 ",$201 ,10,9.0,2/17/2019,0.29,3.0,1.0,19,1.  No pets allowed. 2.  No smoking in the rooms. You may smoke in the yard but please don't leave the stubs in the grass etc.  3.No food in the bedroom.  4.Only water is allowed to drink in the bedroom. 5. Use slippers provided at the entrance or use your own slippers when you enter the house.  6. Please do not put your luggage on the top of the bed cover. 7. Living room and kitchen are closed at 10:00pm unless you need to get some water.,
50933122,COZY ROOM,35440947603,unconfirmed,Genya,Brooklyn,Sheepshead Bay,40.606640000000006,-73.95402,United States,US,True,strict,Private room,2011,$105 ,$21 ,1,0.0,,,2.0,1.0,0,#NAME?,
50933674,Midtown Loft,79773771792,unconfirmed,Lou,Manhattan,Midtown,40.75092,-73.98635999999999,United States,US,False,moderate,Entire home/apt,2017,$660 ,$132 ,2,5.0,4/16/2017,0.16,1.0,1.0,0,* No smoking * No pets * No loud music,
50934227,Sunny and large bedroom in Williamsburg Apartment,42924045056,verified,Shachi,Brooklyn,Williamsburg,40.71451,-73.93959,United States,US,False,strict,Private room,2014,"$1,056 ",$211 ,1,7.0,5/22/2019,0.23,4.0,2.0,89,"- Absolutely NO SMOKING, vape-ing, drugs, or alcohol in the house. - Please no children under 10. The  house isn't child proofed. - Quiet hours 10p-8a. - Please no showering after midnight.    (The bathroom is attached to our bedroom. Unfortunately, we've had very loud guests.) - Laundry available per request. Thank you!",
50934779,Comfy Room in Cobble Hill,62721382438,verified,Jessica,Brooklyn,Carroll Gardens,40.683840000000004,-73.99065,United States,US,False,flexible,Private room,2006,"$1,043 ",$209 ,1,8.0,3/16/2018,0.26,5.0,1.0,0,#NAME?,
50935331,Studio in West Village,75065088863,unconfirmed,Dennis,Manhattan,West Village,40.73021,-74.00663,United States,US,True,moderate,Entire home/apt,2007,$990 ,$198 ,2,0.0,,,4.0,1.0,0,,
50935884,Beautiful Newly Renovated BK Apt with W&D in Unit,96759912058,verified,K.,Brooklyn,Bedford-Stuyvesant,40.6836,-73.93495,United States,US,True,flexible,Entire home/apt,2006,$108 ,$22 ,4,68.0,5/26/2019,2.3,2.0,1.0,0,"1.     No pets allowed.  2.   No smoking inside the house, please.     3.   No wearing shoes inside the house. We will give you slippers (you could bring your own slippers) 4.  Quiet time starts at 10pm, and living room and kitchen are closed at that time.",
50936436,Brand New &Cozy  Room Close to Subway Station,81770968552,unconfirmed,Marlon,Manhattan,Harlem,40.82112,-73.95482,United States,US,False,moderate,Private room,2015,$412 ,$82 ,4,22.0,12/31/2018,0.71,,6.0,0,,
50936988,Bond Street 2 bedroom 2 bath great Noho location,27792147537,unconfirmed,Donna,Manhattan,NoHo,40.72501,-73.99323000000001,United States,US,False,strict,Entire home/apt,2007,$481 ,$96 ,2,26.0,4/12/2019,0.9,,1.0,10,,
50937541,"Near the City, Classic Brooklyn!",84821114797,unconfirmed,Yuki,Brooklyn,Bedford-Stuyvesant,40.68712,-73.94708,United States,US,True,strict,Entire home/apt,2015,$916 ,$183 ,2,168.0,6/29/2019,5.45,,1.0,203,,
50938093,Large Basement Bedroom With Kitchen,77873238953,verified,Jonathon,Brooklyn,Crown Heights,40.66713,-73.9411,United States,US,False,flexible,Private room,2006,$433 ,$87 ,4,46.0,6/30/2019,1.94,,2.0,272,"No parties, no smoking.",
50938645,Bronx Beauty: Renovated historic rowhouse,55144070667,verified,Steven,Bronx,Hunts Point,40.81841,-73.89067,United States,US,False,flexible,Private room,2010,$405 ,$81 ,14,18.0,5/31/2019,0.68,,4.0,332,No Smoking No Pets,
50939197,Cute and cozy space in Chinatown,1353780435,unconfirmed,Erika,Manhattan,Chinatown,40.71513,-73.9981,United States,US,True,flexible,Private room,2007,$362 ,$72 ,2,1.0,12/30/2016,0.03,,1.0,0,"1. No wearing shoes inside the house. We will give you slippers (you could bring your own slippers) 2. Living room and kitchen are closed at 10 pm, and please be quiet after 10 pm",
50939750,South Slope Brooklyn Apartment!,13543109516,unconfirmed,Saquib,Brooklyn,Sunset Park,40.66033,-73.99623000000001,United States,US,True,strict,Entire home/apt,2021,"$1,118 ",$224 ,2,0.0,,,,1.0,0,,
50940302,Cute room near Columbia University,45358528888,verified,Mary,Manhattan,Morningside Heights,40.80324,-73.96432,United States,US,False,strict,Private room,2018,$615 ,$123 ,4,0.0,,,4.0,1.0,0,Please no smoking.,
50940854,Charming and Convenient East Village Apartment,39962813926,unconfirmed,Mei Ni,Manhattan,East Village,40.72638,-73.97752,United States,US,False,moderate,Private room,2020,$258 ,$52 ,4,2.0,1/1/2018,0.07,4.0,1.0,39,"The house is absolutely NO SMOKING & NO PETS of any kind or size.   Please remove shoes when going in & settling down. You will find the place clean & spotless on your arrival so please be respectful of efforts made to deliver it as such to every guest and every time.  Please be respectful of apartment and its amenities. The rented apartment shall be occupied by no more than the number of listed adults and/or children on the reservation.  Visiting friends are welcome, however the establishment of obvious residence by such persons is NOT permitted.  Parties, large gatherings, or group events are absolutely not allowed in or around the property.  Please remove all trash from unit and place in trash & recycle containers outside the unit at corner of house by back porch.  Please collect all of your personal belongings upon your departure (double check bathrooms for personal items of any kind!).  Please try & help us keep all aspects of managing the apartment within budgeted costs: do not t",
50941407,Private room in beautiful apartment,19597083818,verified,Isaac,Brooklyn,Bedford-Stuyvesant,40.68635,-73.95535,United States,US,True,moderate,Private room,2007,$113 ,$23 ,15,3.0,12/26/2016,0.1,2.0,1.0,0,Respectful and Responsible Keep room clean and tidy Clean up after using kitchen or bathroom,
50941959,Cozy Harlem Jewel,65960957536,verified,Liliana,Manhattan,Harlem,40.8228,-73.93956,United States,US,True,flexible,Private room,2011,"$1,153 ",$231 ,2,119.0,6/24/2019,3.82,1.0,,198,We love our home and enjoy sharing it with others. We hope you'll treat it as with as much care as we do. Our neighbors are friendly and quiet. We hope you'll fit right in.,
50942511,"Chic, Sunny East Village Entire Apartment",78112496485,verified,Caitlin,Manhattan,East Village,40.72477,-73.9859,United States,US,False,strict,Entire home/apt,2011,$104 ,$21 ,4,10.0,12/22/2017,0.33,3.0,,26,,
50943064,1st Floor room available in 3 br 2bath Apt,64400570389,unconfirmed,Nikolas,Queens,Astoria,40.76875,-73.92769,United States,US,True,moderate,Private room,2009,$416 ,$83 ,1,0.0,,,3.0,,0,"1.     No pets allowed.  2.   No smoking inside the house, please.     3.   No wearing shoes inside the house. We will give you slippers (you could bring your own slippers) 4.  Living room and kitchen are closed at 10 pm, and please be quiet after 10 pm",
50943616,"Super Cute, Cozy, Sun-filled And Private",58110877158,unconfirmed,Katarina,Queens,Ridgewood,40.698209999999996,-73.8974,United States,US,True,moderate,Entire home/apt,2007,$669 ,$134 ,3,63.0,6/28/2019,4.42,1.0,,50,,
50944168,Beautiful room in Brooklyn,40113348327,verified,Thai,Brooklyn,Bedford-Stuyvesant,40.68643,-73.95548000000001,United States,US,False,strict,Private room,2003,$428 ,$86 ,1,3.0,1/14/2017,0.1,4.0,,0,This is a condominium with a resident below. Please be respectful of that.,
50944720,Holidays in NYC,30790608053,verified,Julia,Brooklyn,South Slope,40.66383,-73.983,United States,US,False,flexible,Entire home/apt,2021,$304 ,$61 ,4,0.0,,,1.0,,0,,
50945273,Huge full floor loft on Broadway and Bleecker,43358262296,verified,David,Manhattan,Greenwich Village,40.727470000000004,-73.9969,United States,US,True,flexible,Entire home/apt,2009,$219 ,$44 ,3,15.0,7/2/2019,0.56,4.0,,45,No smoking and illegal drug use. Please Minimize noise after 1030pm No guests,
50945825,Large 2 bed 2 bath modern apt. - Brooklyn Bridge,43092213404,unconfirmed,Andrew,Brooklyn,Downtown Brooklyn,40.695840000000004,-73.98465999999999,United States,US,False,strict,Entire home/apt,2019,$673 ,$135 ,4,0.0,,,5.0,,102,,
50946377,2 Bedrooms Entire Beautiful Apt in Williamsburg!,21494095923,verified,Sebastian,Brooklyn,Williamsburg,40.71372,-73.96231999999999,United States,US,True,strict,Entire home/apt,2016,$332 ,$66 ,4,9.0,1/6/2019,0.42,4.0,,291,No smoking  Ask about additional fee for pets,
50946930,Entire Duplex In The East Village,69726847053,verified,Douglas,Manhattan,East Village,40.72363,-73.97972,United States,US,True,moderate,Entire home/apt,2004,$697 ,$139 ,1,0.0,,,1.0,,0,Respectful and with great attitudes,
50947482,Loft in Brooklyn,91583613964,unconfirmed,Shauna,Brooklyn,Bedford-Stuyvesant,40.68009,-73.94676,United States,US,False,strict,Entire home/apt,2010,$472 ,$94 ,3,6.0,11/25/2017,0.2,2.0,1.0,0,We love our home and enjoy sharing it with others. We hope you'll treat it as with as much care as we do. Our neighbors are friendly and quiet. We hope you'll fit right in.,
50948034,Cozy and Modern apartment in Astoria,45460109066,verified,Liliana,Queens,Astoria,40.771209999999996,-73.92846999999999,United States,US,False,flexible,Entire home/apt,2007,"$1,024 ",$205 ,7,1.0,12/30/2016,0.03,1.0,1.0,0,Shoes must be removed after entering the house. The cats are strictly indoor. No smoking,
50948587,Private Room blocks from Union Square,6678894760,unconfirmed,Claudio,Manhattan,Stuyvesant Town,40.73125,-73.97891,United States,US,True,moderate,Private room,2009,"$1,162 ",$232 ,1,0.0,,,4.0,1.0,0,- $20 per extra person. Maximum 2 person for attic room.,
50949139,Cozy 2Bedroom Apt. in Astoria,3438594004,verified,Carl,Queens,Astoria,40.76793,-73.91918000000001,United States,US,False,strict,Entire home/apt,2015,$110 ,$22 ,3,2.0,1/1/2019,0.11,4.0,1.0,0,- 1 floor,
50949691,"Big, sunny bedroom in apartment with modern decor",50286616557,unconfirmed,Michael,Brooklyn,Williamsburg,40.7131,-73.94981,United States,US,False,moderate,Private room,2013,$655 ,$131 ,28,14.0,9/29/2018,0.5,2.0,2.0,0,1. No pets allowed.  2. No Children under the age of 10 allowed.  3. No smoking inside the house. You may smoke outside.  4. No wearing shoes inside the house. We will give you slippers for you to wear.  5. Quiet time starts at 11pm,
50950243,90 Washington St Luxury apartment,98590954599,verified,Raymond,Manhattan,Financial District,40.70742,-74.01544,United States,US,True,strict,Entire home/apt,2019,"$1,160 ",$232 ,30,1.0,2/4/2017,0.03,3.0,10.0,342,This listing is located in a residential area and so all the regular rules of living in a residential area apply.  Please be kind to the neighbors - we know and love them!  Please keep BBQs/outside activity to a minimum after 9 or 10PM.,
50950796,307 E 44th st 1BR great loc,31132708897,unconfirmed,Raymond,Manhattan,Midtown,40.75006,-73.97006999999999,United States,US,True,flexible,Entire home/apt,2007,$993 ,$199 ,30,3.0,5/10/2018,0.12,1.0,10.0,350,"1. You must be 25 years of age to rent this home and provide proof of age, if requested. 2. This is a non-smoking home. Any evidence of smoking in and around the property will result in forfeiture of your security deposit. 3. The home has a maximum occupancy of six people. Renters who exceed the occupancy limit and or falsify information at the time of reservation are subject to eviction. 4. Well-behaved dogs are allowed with written owner permission at time of booking, additional fee and security deposit required 5. House parties are strictly prohibited and are grounds for immediate eviction. 6. Illegal substances are strictly prohibited and are grounds for immediate eviction. 7. When you arrive, the home will be clean and we request that you leave it in good order. We will provide you with a detailed check-in and check-out procedures, as well as the code for the keyless entry lock, several days prior to your arrival. 8. Any exception to the rules here must be approved in writing in a",
50951348,7 mins from Times Sq! Modern elevator building!,15133175444,verified,Eki,Manhattan,Hell's Kitchen,40.764179999999996,-73.98885,United States,US,True,flexible,Entire home/apt,2004,$987 ,$197 ,4,0.0,,,4.0,1.0,0,We love our home and enjoy sharing it with others. We hope you'll treat it as with as much care as we do. Our neighbors are friendly and quiet. We hope you'll fit right in.,
50951900,Charming studio in midtown east,19867936587,verified,Ali,Manhattan,Midtown,40.75827,-73.96195999999999,United States,US,True,strict,Entire home/apt,2017,$755 ,$151 ,5,7.0,5/20/2018,0.38,1.0,1.0,0,"No parties, no smoking.",
50952453,Master Bedroom in Stylish Apartment,22458369786,verified,Amitis,Brooklyn,Greenpoint,40.72838,-73.94739,United States,US,True,flexible,Private room,2017,$672 ,$134 ,1,2.0,2/1/2017,0.07,1.0,1.0,0,Two guest maximum and no pets please. No smoking or candles.,
50953005,MANHATTAN MODERN NEAR CENTRAL PARK!,84846340012,verified,Peter,Manhattan,East Harlem,40.78676,-73.94376,United States,US,True,flexible,Private room,2018,$305 ,$61 ,3,21.0,6/21/2019,0.69,3.0,1.0,46,"I expect guest to respect that this is my personal home, I live here, and to fully respect the space and my belongings as you would your own.  This is not a hotel and the space does not feel like a hotel or rental that other guests are constantly moving in and out of. Please do not light candles in the house or anything that would be a fire hazard.  Please clean up after yourself.  No smoking in the house No pets please Please be respectful of my belongings and do not move anything around. When using the firepit, please use caution. If plants look like they could use a little water, feel free to give them a little!",
50953557,Brooklyn’s lovely Luxurious Suite sleeps 5,73631727891,verified,Sam,Brooklyn,Bay Ridge,40.63835,-74.02614,United States,US,True,moderate,Entire home/apt,2005,$115 ,$23 ,2,93.0,6/30/2019,3.02,1.0,1.0,217,,
50954110,Sunny Private Studio-Apartment,66216698452,unconfirmed,Alexandra,Manhattan,East Harlem,40.79583,-73.93595,United States,US,True,strict,Entire home/apt,2012,$429 ,$86 ,1,142.0,6/16/2019,4.62,5.0,3.0,11,,
50954662,Large 3bd 2 bath duplex in prime Greenpoint!,13841724354,verified,LeAndra,Brooklyn,Greenpoint,40.73292,-73.95987,United States,US,True,flexible,Entire home/apt,2015,"$1,049 ",$210 ,2,0.0,,,4.0,1.0,0,-We do not allow pets because we already have a small dog in the house but he is very friendly! -Please make sure to close the back door when you are coming in and out.,
50955214,"Не дорогая комната в Нью-Йорке, в Бруклине",29820790287,verified,Ella,Brooklyn,Coney Island,40.57751,-73.98521,United States,US,False,strict,Shared room,2022,$662 ,$132 ,2,1.0,12/18/2016,0.03,5.0,1.0,0,"Please be aware, check in is NO earlier than 6pm on weekdays. We can make no exceptions. Weekends are more flexible.",
50955766,Skyline #2 view ny skyline,14485651901,unconfirmed,Charles,Bronx,Concourse,40.823879999999996,-73.9279,United States,US,True,flexible,Private room,2019,$704 ,$141 ,2,53.0,7/1/2019,1.8,2.0,2.0,169,,
50956319,Budget stay in LUXURIOUS FIDI building,78132563570,unconfirmed,Emily,Manhattan,Financial District,40.706179999999996,-74.00385,United States,US,True,moderate,Private room,2003,$769 ,$154 ,15,3.0,10/7/2017,0.1,1.0,1.0,0,"Please no loud noise after 10pm as others do live here Check in after 3pm Check out at 11am Would appreciate it if you removed linens from bed post stay (not a requirement, just as a courtesy) NO SMOKING in room We do have an indoor porch if you're a smoker outside apartment",
50956871,Skyline #1 view ny skyline,92967668846,unconfirmed,Charles,Bronx,Concourse,40.82415,-73.92778,United States,US,True,strict,Private room,2019,$78 ,$16 ,2,63.0,7/1/2019,2.06,4.0,2.0,110,"This apartment is located on a third floor, no elevator. Guest must be considered and respectful with the noise level. No stumping or running please.",
50957423,"✨Bright, spacious apartment in the West Village❤️",27750856182,unconfirmed,Michael,Manhattan,West Village,40.73415,-74.00721,United States,US,True,strict,Entire home/apt,2007,$916 ,$183 ,1,86.0,6/22/2019,2.76,3.0,1.0,236,"We ask that you are respectful of the space you are staying in. Please take off your shoes when you enter to help keep the space clean. Space heaters are available for use but should not be left on if you leave. The space is thickly insulated and sound proof so it retains heat very well. If you use the kitchen, please clean up after yourself. This is not a party house so please be respectful at late hours by not making tons of noise outside.",
50957976,Amazing ONE bedroom. Lots of light and style,94048409612,verified,Wendy,Manhattan,Greenwich Village,40.72934,-74.00025,United States,US,False,flexible,Entire home/apt,2014,$595 ,$119 ,5,14.0,4/17/2019,0.45,4.0,1.0,9,"Enjoy our home and please leave it clean & tidy like you found it :) Thank you for not smoking. Sorry, no pets even though we love them. We have nice respectful neighbors so no loud music or parties. Hanging out & music are fine just keep others in mind :)  Thank you!",
50958528,Cozy Junior 1BR in inwood.,86425084301,unconfirmed,Richard,Manhattan,Inwood,40.86663,-73.92390999999999,United States,US,False,moderate,Entire home/apt,2022,$192 ,$38 ,2,4.0,9/4/2018,0.13,3.0,1.0,0,#NAME?,
50959080,Spacious Midtown Apt with window view & balcony,9023795378,verified,Amy,Manhattan,Hell's Kitchen,40.762170000000005,-73.99105,United States,US,False,strict,Private room,2006,$746 ,$149 ,3,0.0,,,5.0,1.0,0,No Smoking. No Pets. Enjoy a morning cup of coffee as you sit on the shady porch. Like use of the kitchen area.,
50959633,Spectacular 2BR with NYC SKYLINE VIEW + ROOF DECK,74033448715,unconfirmed,Prithvi,Brooklyn,Williamsburg,40.706140000000005,-73.9487,United States,US,False,strict,Entire home/apt,2009,$864 ,$173 ,2,1.0,1/2/2017,0.03,5.0,1.0,0,be respectful Take off your shoes at the door,
50960185,Great Movie-like East Village aptmt,19688777856,unconfirmed,Rafael,Manhattan,East Village,40.72461,-73.9892,United States,US,False,moderate,Entire home/apt,2015,$907 ,$181 ,1,0.0,,,5.0,1.0,0,,
50960737,Lovely room in the lovely area of Williamsburg BK,47355429072,verified,Freya,Brooklyn,Williamsburg,40.71385,-73.95559,United States,US,True,flexible,Private room,2006,"$1,107 ",$221 ,2,3.0,1/2/2017,0.1,5.0,1.0,0,,
50961289,Cozy 1 bedroom in the heart of Fort Greene,27377732883,unconfirmed,Ithai,Brooklyn,Fort Greene,40.68529,-73.97365,United States,US,True,strict,Entire home/apt,2008,$751 ,$150 ,3,0.0,,,5.0,1.0,0,No smoking.  No guests without previous discussion with host.,
50961842,room with view and bath,66281645406,verified,Mathilde,Queens,Flushing,40.7408,-73.82708000000001,United States,US,True,flexible,Private room,2009,$268 ,$54 ,1,0.0,,,3.0,1.0,0,No smoking  Respect to others,
50962394,Affordable bedroom in the East Village!,92586959996,unconfirmed,Nicolas,Manhattan,East Village,40.72351,-73.98389,United States,US,False,strict,Private room,2022,$184 ,$37 ,2,9.0,5/28/2017,0.29,5.0,1.0,0,"Smoking allowed outside, on grounds, pets under 10 lb sitting available additional charge and events possibly  pre aproved by owners,",
50962946,Large Private Room in Quiet BK Heights Apartment,56284070301,verified,Paige,Brooklyn,Brooklyn Heights,40.69797,-73.992,United States,US,False,flexible,Private room,2006,$918 ,$184 ,3,0.0,,,3.0,1.0,0,"Smoking: Absolutely no smoking indoors. If you need to smoke please do it on the porch and dispose of cigarette butts in the ashtrays provided. Additional Guests: Please do not arrive with more guests than are booked to stay nor invite visitors at any time. Children: The apartment is not suitable for children under the age of 12. Pets: We will graciously host friendly, well mannered, house trained dogs that are 50 pounds or less. We cannot accommodate cats or other pets. Facilities: Guests are expected to leave spaces clean and tidy after each use. Kitchen use is restricted to light use only: Kettle/Coffee, Microwave, and Refrigerator. Please take this into consideration when planning your stay. Quiqet Time: Please be aware that this is also our home.  Quiet time is from 11pm to 6am.",
50963499,Bright Spacious Home in Heart of Williamsburg NY,16336377653,verified,Ali,Brooklyn,Williamsburg,40.71385,-73.96046,United States,US,True,moderate,Entire home/apt,2009,$161 ,$32 ,2,2.0,3/27/2017,0.07,5.0,3.0,0,This bedroom is available for a female guest only.  As a guest you will not be able to bring any friends/acquaintance during your stay. Cannot make loud noises inside or outside the house.,
50964051,"Great deal, full equiped room in Times Square",83882189059,verified,Adam,Manhattan,Theater District,40.75725,-73.98796,United States,US,False,moderate,Private room,2006,"$1,169 ",$234 ,1,36.0,11/26/2017,1.18,3.0,1.0,0,"Note #1: Just be a good neighbor and respect your space and others. Note #2: Unit is second floor of building, Senior Citizens & Disabled may find difficult going upstairs.",
50964603,Cozy studio next to Wash Sq Park,81689928755,unconfirmed,Scott,Manhattan,Greenwich Village,40.73421,-73.9968,United States,US,False,moderate,Entire home/apt,2019,$470 ,$94 ,5,9.0,6/16/2017,0.29,2.0,1.0,0,,
50965156,Interfaith Retreat Guest Rooms (Bhakti),1631373893,verified,Alex And Zeena,Manhattan,Chelsea,40.747859999999996,-73.99651999999999,United States,US,False,strict,Private room,2012,"$1,126 ",$225 ,1,84.0,6/23/2019,2.71,1.0,12.0,359,"In order to provide a  healthy, comfortable and safe environment the following rules must be respected and adhered to throughout your entire stay. Most of what follows is common sense or common courtesy. The rules serve to protect you as a guest by helping ensure the environment you find here is the one that we intended to create. Please keep in mind:  You will be sharing common areas with other guests or residents, and thus the cleanliness of the common areas is far more dependent upon all guests cleaning up after themselves, than it is upon my once a week cleaning. Most guests do very well in keeping common areas clean! House rules: Please do not drag luggage up the front stairs. Please leave things as they are in your room: do not remove pictures from walls, don't move furniture around, and do not remove mattress protector from the mattress. Also, it should not be necessary to say, but since some guests have done this, I must add: please do not take any of my personal possessions ou",
50965708,Interfaith Retreats (Devotion),3058364621,unconfirmed,Alex And Zeena,Manhattan,Chelsea,40.74929,-73.99545,United States,US,True,moderate,Private room,2018,$68 ,$14 ,1,113.0,6/23/2019,3.63,1.0,12.0,360,Respectful attitude would be asked. Respect would be returned!,
50966260,Bedroom in beautiful Brooklyn apartment,70438183043,verified,Jon,Brooklyn,Fort Greene,40.687129999999996,-73.97222,United States,US,True,moderate,Private room,2013,$247 ,$49 ,7,2.0,1/2/2017,0.06,1.0,1.0,0,,
50966812,Classic Downtown Loft,40009622318,unconfirmed,Erin,Manhattan,Chinatown,40.71698,-73.99629,United States,US,False,moderate,Entire home/apt,2014,$688 ,$138 ,2,43.0,5/9/2019,1.39,1.0,1.0,66,"In order to provide a  healthy, comfortable and safe environment, the following are the rules of my house. It is your responsibility to not only read these rules once, but to be aware of and follow all of them throughout your stay at my home. Most of what follows is common sense or common courtesy. The rules serve to protect you as a guest by helping ensure that the environment you find here is the one that I intended to create. Please keep in mind:  You will be sharing common areas with other guests or residents, and thus the cleanliness of the common areas is far more dependent upon all guests cleaning up after themselves, than it is upon my once a week cleaning. Most guests do very well in keeping common areas clean! House rules: Please do not drag luggage up the front stairs. Please leave things as they are in your room: do not remove pictures from walls, don't move furniture around, and do not remove mattress protector from the mattress. Also, it should not be necessary to say, bu",
50967365,Private Bedroom + Shared House,25763532996,unconfirmed,Tak,Brooklyn,Brownsville,40.65958,-73.91113,United States,US,False,flexible,Private room,2017,$459 ,$92 ,1,7.0,3/1/2017,0.23,3.0,1.0,0,No Smoking  No unregistered guest No pets  When it rain or snow please remove shoes at the door,
50967917,Cozy & Affordable,55543108438,unconfirmed,Nash,Queens,Ridgewood,40.70443,-73.90656,United States,US,True,flexible,Private room,2005,"$1,141 ",$228 ,1,2.0,1/2/2017,0.07,4.0,1.0,0,"Enjoy our home and please leave it clean & tidy like you found it :) Thank you for not smoking. Sorry, no pets even though we love them. We have nice respectful neighbors so no loud music or parties.  Hanging out & music are fine just keep others in mind :) Thank you!",
50968469,"Beautiful Double Room - Heart of Clinton Hill, BK",234136209,unconfirmed,Loreley,Brooklyn,Clinton Hill,40.686040000000006,-73.9676,United States,US,True,strict,Private room,2014,$658 ,$132 ,1,2.0,5/16/2017,0.07,3.0,1.0,0,"No Smoking, no pets, no parties and anyone coming to visit would need to be known beforehand. Along with any issue of the other amenities of the house other than the room you will be renting.",
50969022,Hip Luxury Stay w Private Bath 5 min to Manhattan,43972110351,verified,Roberson,Brooklyn,Williamsburg,40.71499,-73.95561,United States,US,True,moderate,Private room,2012,$396 ,$79 ,3,5.0,7/13/2017,0.16,1.0,1.0,0,"House Rules This is a Non-Smoking, pet free home; and  our guests must use the outdoors if they wish to smoke.  Additionally, I love my home and my neighbors are great, so I also ask our guests to be respectful of both and treat my home as well as their own.  Enjoy your stay while here in Boston -  a great city!!",
50969574,"Master bedroom , your own bathroom in 2bed apart",2578073264,verified,Viktoria,Manhattan,East Harlem,40.79227,-73.94536,United States,US,True,strict,Private room,2014,"$1,034 ",$207 ,1,138.0,6/30/2019,5.31,4.0,1.0,34,,
50970126,Cozy room in Beautiful Brooklyn!,1557928300,verified,Elís,Brooklyn,Bedford-Stuyvesant,40.68273,-73.93397,United States,US,True,flexible,Private room,2020,$166 ,$33 ,30,2.0,12/31/2016,0.07,4.0,1.0,0,,
50970679,"Williamsburg, Private Bedroom, 2 blocks from L",37396375405,unconfirmed,Omar,Brooklyn,Williamsburg,40.71518,-73.94151,United States,US,True,moderate,Private room,2014,$804 ,$161 ,3,0.0,,,5.0,1.0,0,#NAME?,
50971231,Apartment in Soho on Edge of West Village,78500949224,unconfirmed,Carl,Manhattan,Greenwich Village,40.72829,-74.00233,United States,US,False,strict,Entire home/apt,2009,$372 ,$74 ,3,2.0,1/4/2017,0.07,3.0,1.0,0,"Available Upon Arrival - Looking for nice, neat, non smoking, responsible, and independent person(s).",
50971783,Cozy bedroom near George Washington Bridge,63962276495,verified,Yifei,Manhattan,Washington Heights,40.850190000000005,-73.94093000000001,United States,US,False,flexible,Shared room,2015,$339 ,$68 ,1,0.0,,,1.0,1.0,0,Available Upon Arrival,
50972335,Small Room,73328379851,unconfirmed,Ira,Manhattan,Lower East Side,40.71777,-73.98526,United States,US,True,strict,Private room,2005,$488 ,$98 ,1,6.0,1/1/2018,0.2,4.0,1.0,0,Have fun and be respectful of  others Pets are allowed after discussion as long as they are well trained and picked up after.,
50972888,Hidden Gem in Crown Heights,79259071801,verified,Yobiel,Brooklyn,Crown Heights,40.6754,-73.94977,United States,US,True,flexible,Entire home/apt,2020,"$1,128 ",$226 ,1,0.0,,,5.0,1.0,0,"No smoking, no pets. Use of kitchen is limited to breakfast with a continental breakfast provided and use of coffee maker, toaster and hot water.. We cannot allow cooking.  You may store drinks and snacks in the refrigerator.",
50973440,Enjoy my apartment for the summer!,21464463915,verified,Aaron,Manhattan,Washington Heights,40.83985,-73.93715,United States,US,True,flexible,Entire home/apt,2015,$557 ,$111 ,3,14.0,6/29/2019,0.45,4.0,1.0,0,"No smoking or drug use.  No parties.  No guests other than those specified in your booking. No moving of furniture without asking Turn lights off when not in use No food in rooms, food can be stored in kitchen area Front door stays unlocked until 9pm, after ring doorbell or call host ((PHONE NUMBER HIDDEN) or (PHONE NUMBER HIDDEN)) Kitchen is not for use Check-out time no later than 11am Host's food is off limits only what is serve and put out for breakfast!",
50973992,Williamsburg 2BR. Close to L train,97031519705,unconfirmed,Jazz,Brooklyn,Williamsburg,40.71058,-73.95294,United States,US,False,flexible,Entire home/apt,2005,$941 ,$188 ,1,133.0,6/29/2019,4.34,2.0,1.0,359,"No smoking or drug use.  No parties.  No guests other than those specified in your booking. No moving of furniture without asking Turn lights off when not in use No food in rooms, food can be stored in kitchen area Front door stays unlocked until 9pm, after ring doorbell or call host ((PHONE NUMBER HIDDEN) or (PHONE NUMBER HIDDEN)) Kitchen not for use Check-out time no later than 11am Host's food is off limits only what is serve and put out for breakfast!",
50974545,Columbus Circle Single Bedroom,60971046530,verified,Laurie,Manhattan,Hell's Kitchen,40.76514,-73.98550999999999,United States,US,False,flexible,Private room,2017,$333 ,$67 ,7,0.0,,,1.0,1.0,0,"No smoking or drug use.  No parties.  No drinking of alcohol in room""p No guests other than those specified in your booking. No moving of furniture without asking Turn lights off when not in use No food in rooms, food can be stored in kitchen area Kitchen not in use Check-out time no later than 11am Host's food is off limits only what is serve and put out for breakfast!",
50975097,Full 1 bedroom apt in an awesome area!,27114655391,unconfirmed,Verun,Manhattan,Kips Bay,40.74301,-73.98037,United States,US,True,strict,Entire home/apt,2021,$997 ,$199 ,4,2.0,5/27/2017,0.07,5.0,1.0,0,,
50975649,Wonderful UES Studio...,39673333551,unconfirmed,Eddie,Manhattan,Upper East Side,40.77848,-73.9486,United States,US,True,flexible,Private room,2015,$410 ,$82 ,7,1.0,1/2/2017,0.03,1.0,1.0,0,,
50976202,Private room in the heart of East village,57059119298,unconfirmed,Chris,Manhattan,East Village,40.72258,-73.98148,United States,US,True,moderate,Private room,2020,$797 ,$159 ,3,5.0,3/19/2019,0.19,5.0,2.0,0,,
50976754,Room in 3 bed apt/w parking- Wburg.,38106594422,verified,Austin,Brooklyn,Williamsburg,40.71614,-73.94134,United States,US,False,flexible,Private room,2022,$353 ,$71 ,2,0.0,,,4.0,1.0,0,,
50977306,Washington Heights Oasis,7296199161,verified,Andrew,Manhattan,Washington Heights,40.84369,-73.93890999999999,United States,US,True,flexible,Entire home/apt,2006,$280 ,$56 ,7,0.0,,,1.0,,0,,
50977858,Cheap large room with desk 10 min to JFK+ Mall,50935648237,verified,Guelma,Queens,Rosedale,40.653220000000005,-73.73366,United States,US,False,moderate,Private room,2003,"$1,056 ",$211 ,15,92.0,10/21/2018,2.96,5.0,,356,Please no smoking or drugs. No parties.,
50978411,"Cozy apartment in the Lower East Side, NYC!",45780217451,verified,Eva,Manhattan,Lower East Side,40.718,-73.98496999999999,United States,US,False,moderate,Entire home/apt,2013,$339 ,$68 ,8,3.0,11/30/2017,0.1,5.0,,0,Please be respectful and courteous of other house guests.   Please keep all common areas clean after each use i.e. kitchen and bathroom. No smoking  No pets No parties No back yard access,
50978963,Beautiful 1 Bedroom in Bedstuy with Private Yard,65669227093,unconfirmed,Nathan,Brooklyn,Bedford-Stuyvesant,40.69332,-73.95023,United States,US,True,flexible,Entire home/apt,2009,$576 ,$115 ,7,4.0,11/19/2017,0.13,1.0,,0,Absolutely NO smoking NOR use of drugs.  And NO shoes in the house! You will be requested to take off your shoes at the entrance.   Please Bring a positive attitude and fun spirit!,
50979515,Bright & Sunny Oasis in East Village,61800284354,verified,Katia,Manhattan,East Village,40.72249,-73.98145,United States,US,False,flexible,Entire home/apt,2019,$477 ,$95 ,2,24.0,6/21/2019,0.77,1.0,,0,,
50980068,Brownstone on a tree-lined street in NYC,69406603652,unconfirmed,Jeffrey,Manhattan,Harlem,40.80669,-73.9497,United States,US,True,strict,Entire home/apt,2017,$314 ,$63 ,5,2.0,7/29/2017,0.07,5.0,,0,"We don't allow smoking, drug use, excessive parties, or loud music out of respect for our neighbors.  Please treat our home like your own! ",
50980620,Small Room in Big Williamsburg Apartment,81826942614,verified,Marco,Brooklyn,Williamsburg,40.71048,-73.96292,United States,US,True,flexible,Private room,2006,$484 ,$97 ,29,17.0,11/30/2018,0.55,1.0,,0,#NAME?,
50981172,AMAZING LOCATION - Heart of CHELSEA / Manhattan,38230100079,verified,Ania,Manhattan,Chelsea,40.741820000000004,-73.99904000000001,United States,US,False,strict,Private room,2022,$542 ,$108 ,1,75.0,6/23/2019,3.95,5.0,1.0,19,"Quiet hours are 10 PM to 6 AM.  No smoking, even outside.  No pets.  We already have one.",
50981725,Artists Bright Eclectic Home & Studio,85503975979,unconfirmed,Ana Cristina,Brooklyn,Williamsburg,40.70735,-73.94032,United States,US,False,flexible,Entire home/apt,2005,$860 ,$172 ,4,41.0,2/22/2019,1.44,1.0,1.0,0,,
50982277,"Sixth Ave Chelsea, Studio Serviced Apartment",13932358137,unconfirmed,Ken,Manhattan,Chelsea,40.74569,-73.9922,United States,US,True,flexible,Entire home/apt,2015,$589 ,$118 ,30,0.0,,,2.0,87.0,357,"No smoking or drug use.  No parties.  No guests other than those specified in your booking. No moving of furniture without asking Turn lights off when not in use No food in rooms, food can be stored in kitchen area Front door stays unlocked until 9pm, after ring doorbell or call host (phone number hidden) or (phone number hidden)) Kitchen not for use Check-out time no later than 11am Host's food is off limits only what is serve and put out for breakfast!",
50982829,"Sixth Ave Chelsea, 1bd Serviced Apartment",84101861461,verified,Ken,Manhattan,Chelsea,40.74613,-73.99178,United States,US,False,strict,Entire home/apt,2018,$982 ,$196 ,30,1.0,3/15/2019,0.26,5.0,87.0,358,"Please be respectful, Thank you !",
50983381,Fort Greene apartment,82691503108,verified,Emi,Brooklyn,Fort Greene,40.69613,-73.97364,United States,US,True,moderate,Private room,2018,$240 ,$48 ,3,0.0,,,2.0,2.0,0,"Please be respectful, Thank you !",
50983934,Bright Brooklyn Room close to Manhattan,7639600957,unconfirmed,Lia,Brooklyn,Bedford-Stuyvesant,40.67988,-73.93945,United States,US,False,moderate,Private room,2014,$608 ,$122 ,21,5.0,9/18/2017,0.19,2.0,2.0,0,,
50984486,Wyndham 2 double beds hotel room,6505286313,unconfirmed,Rich,Manhattan,Midtown,40.75222,-73.97276,United States,US,True,flexible,Entire home/apt,2017,$429 ,$86 ,2,0.0,,,3.0,4.0,0,,
50985038,Bedroom in Spacious Williamsburg Loft,89559299450,unconfirmed,Andrea,Brooklyn,Williamsburg,40.70675,-73.96768,United States,US,True,moderate,Private room,2009,$968 ,$194 ,2,3.0,6/2/2017,0.11,5.0,1.0,0,,
50985591,Bronx Cozy Spacious Room close to NYC Subway,97228267073,verified,Jenny,Bronx,Longwood,40.82441,-73.89454,United States,US,True,strict,Private room,2007,"$1,018 ",$204 ,3,61.0,6/24/2019,2.17,2.0,2.0,22,No Smoking No Pets,
50986143,Prospect Park Brownstone full floor w/garden,21139450528,unconfirmed,Darryl Diego,Brooklyn,Prospect-Lefferts Gardens,40.66024,-73.95518,United States,US,True,strict,Entire home/apt,2017,$386 ,$77 ,4,26.0,6/23/2019,1.18,1.0,1.0,145,,
50986695,Spacious room with amazing view,52944251705,unconfirmed,Kenza,Manhattan,East Village,40.72726,-73.98037,United States,US,False,flexible,Private room,2022,$434 ,$87 ,2,3.0,12/20/2017,0.1,5.0,1.0,0,,
50987248,*BRAND NEW*4 BED DUPLX W PVT BCKYARD 15 MIN 2 CITY,36942094686,unconfirmed,Brendan,Brooklyn,Bedford-Stuyvesant,40.68699,-73.92258000000001,United States,US,True,flexible,Entire home/apt,2018,$879 ,$176 ,3,31.0,5/4/2019,1.03,1.0,4.0,290,"respecfull, consideret.and loving",
50987800,Private room on restaurant row,10776148144,unconfirmed,Carly,Manhattan,Hell's Kitchen,40.76007,-73.99031,United States,US,True,flexible,Private room,2022,$606 ,$121 ,1,0.0,,,5.0,1.0,0,,
50988352,Harlem Brownstone Retreat Suite,60219317764,unconfirmed,Lana,Manhattan,Harlem,40.80997,-73.9412,United States,US,False,flexible,Entire home/apt,2011,$707 ,$141 ,3,79.0,6/29/2019,3.69,1.0,1.0,257,,
50988904,Cozy and quiet 1 bedroom in great neighborhood,28676321412,unconfirmed,Melissa,Brooklyn,Park Slope,40.67514,-73.97598,United States,US,True,flexible,Entire home/apt,2014,$969 ,$194 ,2,1.0,1/1/2017,0.03,3.0,1.0,0,,
50989457,Beautiful Area. Central Park views. Classic Apt,84206051048,unconfirmed,Brooklyn,Manhattan,Upper East Side,40.77547,-73.9623,United States,US,True,strict,Private room,2011,$203 ,$41 ,2,35.0,6/28/2019,1.35,5.0,1.0,327,I would appreciate quest to show respect to the house,
50990009,Where Dreams are made of NYC,65748694744,verified,Crystal,Manhattan,East Harlem,40.804759999999995,-73.94074,United States,US,False,flexible,Shared room,2021,$212 ,$42 ,1,2.0,10/2/2018,0.19,3.0,1.0,88,"- - NO PETS!  NO SMOKING ON PREMISES!  NO PARTY! No ""DRUGS""! - Keep the Place Clean at All Times! - Do Not Ask the ""Neighbors"" for anything.  Ask Me!-  - No Neighbors Interaction! - No ""Drugs"" Please!!! - No Noise! A printed house rule will be provided. Please be respectful to others when all rooms are booked.  10 AM Check-out and Check-in is between 12 PM (noon) - 3 PM.   Late check in after 8 pm is $50, lock out is $50. Respect yourself, Respect others, clean up after yourself.  No Smoking/drinking in apt.  Thank You! Location Rules: The ""Exact Address Location Is Not Stockton St.  It Is 2 Streets Away.  It Is Not Disclosed For Security Reasons"" And Is Given Out 24 Hours Prior to Check-in.  If This Is a Problem for You, Please STOP Here And Contact Other Hosts for Your Stay.   This Is a Part Of My House Rules.",
50990561,Cute Nolita 1 Bedroom,11199235058,verified,Kaj,Manhattan,Nolita,40.72253,-73.99459,United States,US,False,flexible,Entire home/apt,2012,$918 ,$184 ,3,1.0,1/2/2017,0.03,1.0,1.0,0,"Nothing out of the ordinary...the basic considerations...being reasonably neat and tidy.   Please leave shoes in the entranceway.   NO SMOKING in apartment or deck. Kitchen is available for breakfast only;   I stock the breakfast essentials...coffee, tea, milk, cream, juice, cereal, bread, jelly, and often other items as well.  You may use the fridge for beverages and light snacks all day, but no cooking, frying baking of any meal, and no dinner in the house.   You may store items in the fridge. I'm insensitive to noise, so there is no need to tip-toe.  Plus we are 2 floors apart, you likely won't be hearing me either. I do request that guest be tidy and clean, i.e. dishes not left overnight, etc.  I do have a housekeeper a couple of times a month to handle the big stuff.",
50991114,Large Bushwick private bedroom,36863258032,unconfirmed,Neil,Brooklyn,Bushwick,40.6998,-73.93781,United States,US,True,flexible,Private room,2014,"$1,007 ",$201 ,3,19.0,6/20/2019,0.68,5.0,1.0,160,"For non-smokers only, quiet, respectful, persons.",
50991666,"Private room in Bushwick, Brooklyn",35326679430,verified,Monica,Brooklyn,Bedford-Stuyvesant,40.68881,-73.92139,United States,US,True,moderate,Private room,2014,$380 ,$76 ,1,0.0,,,4.0,2.0,0,,
50992218,"Private 2 Room Guest Suite in Queens, NY",59444419911,verified,Maria,Queens,Glendale,40.70505,-73.89041999999999,United States,US,True,strict,Entire home/apt,2013,$709 ,$142 ,4,63.0,5/20/2019,2.21,1.0,1.0,101,The Perfect home stay for clean and responsible person. Home is keep neat and clean at all times. Guest wipe up after themselves after using the kitchen. There is no smoking in home and no pets allowed in home. No overnight guest to keep the stay peaceful and quiet.,
50992771,15 min to NYC-CITY VIEWS FROM ROOM! Safe/warm home,32251452486,unconfirmed,Laura,Brooklyn,Bedford-Stuyvesant,40.69055,-73.95394,United States,US,True,moderate,Private room,2012,$901 ,$180 ,1,16.0,1/18/2019,0.52,5.0,2.0,8,"No drinking, no smoking, no parties, no pets, no drugs, no girlfriends or boyfriends moving in. Looking for a quiet, studious, clean person who is looking for a comfortable and affordable place to stay during the school year.  House is open to both sexes. No children please.",
50993323,Beautiful Studio with a top location in Manhattan,93601264632,unconfirmed,Pablo,Manhattan,Greenwich Village,40.736979999999996,-73.99675,United States,US,True,flexible,Private room,2007,$487 ,$97 ,4,5.0,7/30/2017,0.16,2.0,3.0,0,,
50993875,Studio near Central Park East!,59912408091,verified,Oscar,Manhattan,Upper East Side,40.77149,-73.95121,United States,US,False,strict,Entire home/apt,2010,$386 ,$77 ,8,1.0,1/3/2017,0.03,1.0,1.0,0,"Check-in is 2:00 pm, and checkout 11:00 am. You may bring bags in before check in time or leave it to pick up later. Let me know to arrange it. After reservation please send me your arrival and departure time for logistics Help yourself coffee or tea anytime NO shoes to the second floor  Keep the volume low before 8am and after 10pm Close the doors gently No shower after  11:30pm No laundry after  before 9am and after 8pm Keep the kitchen in a decent condition after your use Close the shower curtain well, no hair in the tub, no water around the sink on the sink there is a sponge you can use it to dry Turn off the light when you leave the room Trash out from the room  BLUE BOX recycling  Please respect this rules. Full refunded of security deposit in this case",
50994427,Beautiful room in the heart of Time Square,13312642622,unconfirmed,Carly,Manhattan,Hell's Kitchen,40.75966,-73.991,United States,US,False,strict,Private room,2017,$441 ,$88 ,3,2.0,1/1/2018,0.1,5.0,1.0,8,"- I like to keep a quiet house. Please keep all noise low, especially in the morning and late at night. - Please take your shoes off before entering the apartment. - Always bolt the apartment door when entering or exiting. - If I am away when you check out, please put the keys in the lockbox and remember to set the code to 0000. - I don't charge for cleaning or extra people. Kindly return the favor by keeping the place clean. - No smoking indoors. - You may make use of food and beverages only if they are explicitly shared. If you have any questions, please ask.",
50994980,"Spacious&Sunny bedroom near Central Park,UpperEast",88369828677,unconfirmed,Salvatore,Manhattan,Upper East Side,40.776509999999995,-73.94791,United States,US,False,strict,Private room,2020,$907 ,$181 ,7,4.0,12/29/2017,0.13,1.0,1.0,0,I except guest to be respectful of my home and follow my house rules.,
50995532,Private cozy room close to Columbia University,40709464698,unconfirmed,Jose Vicente,Manhattan,Morningside Heights,40.81626,-73.96035,United States,US,False,flexible,Private room,2014,$252 ,$50 ,3,5.0,9/2/2017,0.18,4.0,2.0,0,,
50996084,Private Bedroom in Midtown -Heart of NYC,93235897516,verified,Mo,Manhattan,Theater District,40.76384,-73.98491999999999,United States,US,True,strict,Private room,2015,"$1,143 ",$229 ,8,1.0,12/8/2017,0.05,2.0,1.0,0,No smoking No Loud Music No Bad Word,
50996637,Cozy bedroom in a home-y Bushwick place,40290984127,verified,Melkorka,Brooklyn,Bushwick,40.699690000000004,-73.92867,United States,US,False,moderate,Entire home/apt,2018,"$1,015 ",$203 ,3,3.0,10/27/2018,0.13,3.0,1.0,66,,
50997189,very clean and spacious,77533626786,unconfirmed,Carlos,Manhattan,Washington Heights,40.8439,-73.93744000000001,United States,US,True,strict,Private room,2004,$257 ,$51 ,1,165.0,6/16/2019,5.35,5.0,2.0,120,"NO PETS.  NO SMOKING.  NO PARTIES.  No recreational drugs.  No open flames.  No excess noise after 10:00 pm.  Avoid disturbing neighbors.   NO PETS.  If a pet is found on the premise, a pet surcharge of $300 will be applied. You will be asked to leave immediately and will forfeit your security deposit if an animal is on the property without permission of owner. NO SMOKING PLEASE.  A $500 cleaning fee will be deducted from your deposit if smoking occurs in the unit. This is a NO PARTY house. Parties, loud get-togethers, or gatherings are not allowed because of neighbor issues, and possible damage to property. If a party, loud gathering, or loud disturbance does occur, or if neighbors or other guests call for a loud disturbance, you will forfeit your security deposit and will be evicted immediately. Please Note:  Guests must provide their own toiletries/cleaning supplies/paper products.  We will have a starter kit of toiletries and cleaning supplies at the house, but you will need to rep",
50997741,Clean and spacious private room for your NYC trip!,68991275403,verified,Virginia,Manhattan,Harlem,40.82682,-73.95142,United States,US,False,strict,Private room,2020,$546 ,$109 ,6,4.0,7/29/2017,0.13,5.0,1.0,0,Please be respectful of the neighbors after 9 pm. Treat the home as you would your own.,
50998294,Sun Drenched Spacious Loft in NYCs Trendiest Hood,12152816904,verified,Jenny,Manhattan,Lower East Side,40.72077,-73.99023000000001,United States,US,False,flexible,Entire home/apt,2011,$848 ,$170 ,3,102.0,6/23/2019,3.36,2.0,,117,"Check-in is 2:00 pm, and checkout 11:00 am. You may bring bags in before check in time or leave it to pick up later. Let me know to arrange it. After reservation please send me your arrival and departure time for logistics Help yourself coffee or tea anytime NO shoes to the second floor  Keep the volume low before 8am and after 10pm Close the doors gently No shower after  11:30pm No laundry after  before 9am and after 8pm Keep the kitchen in a decent condition after your use Close the shower curtain well, no hair in the tub, no water around the sink on the sink there is a sponge you can use it to dry Turn off the light when you leave the room Trash out from the room  BLUE BOX recycling  Please respect this rules. Full refunded of security despoit in this case",
50998846,One Bedroom off of Franklin Avenue in Brooklyn,51247508317,unconfirmed,Tj,Brooklyn,Crown Heights,40.6706,-73.96025999999999,United States,US,False,flexible,Entire home/apt,2015,$204 ,$41 ,6,0.0,,,5.0,,0,There are no towels included,
50999398,Warm and quiet studio in heart of chinatown,76378964344,unconfirmed,Jim,Manhattan,Chinatown,40.715379999999996,-73.99669,United States,US,True,moderate,Entire home/apt,2022,$521 ,$104 ,4,12.0,8/26/2018,0.43,5.0,,151,"Check-in is 2:00 pm, and checkout 11:00 am. You may bring bags in before check in time or leave it to pick up later. Let me know to arrange it. After reservation please send me your arrival and departure time for logistics Help yourself coffee or tea anytime NO shoes to the second floor  Keep the volume low before 8am and after 10pm Close the doors gently No shower after  11:30pm No laundry after  before 9am and after 8pm Keep the kitchen in a decent condition after your use Close the shower curtain well, no hair in the tub, no water around the sink on the sink there is a sponge you can use it to dry Turn off the light when you leave the room Trash out from the room  BLUE BOX recycling  Please respect this rules. Full refunded of security deposit in this case",
50999950,Cozy modern sunny room for 2,67470313527,unconfirmed,Wesly/Jessica,Brooklyn,Crown Heights,40.67525,-73.93333,United States,US,True,strict,Private room,2008,"$1,102 ",$220 ,2,123.0,6/17/2019,4.01,4.0,,332,"I'm pretty easy going, but I expect my guests to be considerate of, me, my space, and my neighbors.  This is a non smoking/ drug free space.  No excessive noise. please keep place clean. clean any dishes you might use.  I prefer that my guests not bring any extra guests that are not on the reservation into the house unless otherwise discussed with me before hand.  Thank you. My dog Wonder is very friendly and gets along well with people and other animals.  Unfortunately though, I can not accommodate other pets at the moment.",
51000503,Bright Creative Environment,64740227483,unconfirmed,Tye,Brooklyn,Williamsburg,40.705420000000004,-73.94957,United States,US,True,flexible,Private room,2022,$963 ,$193 ,2,3.0,8/11/2018,0.1,4.0,,285,"NO PETS!  NO SMOKING ON PREMISES! NO PARTY! A printed house rule will be provided. Please be respectful to others when all rooms are booked. 10 AM Check-out and Check-in is between 12 PM (noon) - 3 PM.   Late check in after 8 pm is $50, lock out is $50. Respect yourself, Respect others, clean up after yourself.  No Smoking/drinking in apt.  Thank You! Location Rules: The ""Exact Address Location Is Not Disclosed For Security Reasons"" And Is Given Out 24 Hours Prior to Check-in.  If This Is a Problem for You, Please STOP Here And Contact Other Hosts for Your Stay.   This Is a Part Of My House Rules.",
51001055,"CLASSIC NEW YORK! Heart of UWS!
CLEAN. BRIGHT. NEW",98715247060,unconfirmed,Samuel,Manhattan,Upper West Side,40.784459999999996,-73.97189,United States,US,False,moderate,Entire home/apt,2022,$294 ,$59 ,6,9.0,1/2/2019,0.37,2.0,,0,,
51001607,Nice place,42830043116,verified,Willy,Queens,Ridgewood,40.707770000000004,-73.91053000000001,United States,US,True,strict,Entire home/apt,2020,$636 ,$127 ,3,90.0,6/8/2019,2.93,2.0,,72,,
51002160,Private Studio Apartment close to ferry and subway,93012967604,unconfirmed,Conor,Brooklyn,Greenpoint,40.73203,-73.95572,United States,US,True,flexible,Entire home/apt,2012,$201 ,$40 ,3,69.0,6/13/2019,2.25,1.0,,0,"- - NO PETS!  NO SMOKING ON PREMISES! NO PARTY! A printed house rule will be provided. Please be respectful to others when all rooms are booked. 10 AM Check-out and Check-in is between 12 PM (noon) - 3 PM.   Late check in after 8 pm is $50, lock out is $50. Respect yourself, Respect others, clean up after yourself.  No Smoking/drinking in apt.  Thank You!  Location Rules: The ""Exact Address Location Is Not Disclosed For Security Reasons"" And Is Given Out 24 Hours Prior to Check-in.  If This Is a Problem for You, Please STOP Here And Contact Other Hosts for Your Stay.   This Is a Part Of My House Rules.",
51002712,Shared Flatbush House in Brooklyn.,11185096298,verified,Daria,Brooklyn,East Flatbush,40.63899,-73.94886,United States,US,True,moderate,Shared room,2011,$966 ,$193 ,30,4.0,4/3/2018,0.15,4.0,,365,,
51003264,"Cozy Room In Heart Of Queens- Hillside, Hollis",59275888681,unconfirmed,Atif,Queens,Hollis,40.71368,-73.76337,United States,US,True,moderate,Private room,2015,$993 ,$199 ,3,0.0,,,3.0,,89,,
51003817,newly renovated apt in Brooklyn!,71269187539,unconfirmed,Rito,Brooklyn,Bedford-Stuyvesant,40.68205,-73.92833,United States,US,False,flexible,Entire home/apt,2021,$989 ,$198 ,3,73.0,6/24/2019,2.5,3.0,,329,"Nothing out of the ordinary...the basic considerations...being reasonably neat and tidy.   Please leave shoes in the entranceway.   NO SMOKING in apartment or deck. Kitchen is available for breakfast only;   I stock the breakfast essentials...coffee, tea, milk, cream, juice, cereal, bread, jelly, and often other items as well.  You may use the fridge for beverages and light snacks all day, but no cooking, frying baking of any meal, and no dinner in the house.   You may store items in the fridge. I'm insensitive to noise, so there is no need to tip-toe.  Plus we are 2 floors apart, you likely won't be hearing me either. I do request that guest be tidy and clean, i.e. dishes not left overnight, etc.  I do have a housekeeper a couple of times a month to handle the big stuff.",
51004369,Cozy modern Coliving in Flatbush/twin shared room,51939135962,verified,Daria,Brooklyn,East Flatbush,40.64233,-73.94773,United States,US,True,strict,Shared room,2007,"$1,048 ",$210 ,30,0.0,,,3.0,,365,"•Parties or Gatherings are not permitted. •Please be courteous to the neighbors and keep noise levels low, especially between the hours of 10pm-10am. •Absolutely no smoking in the apartment. Smoking only on the back porch •Overnight guests are not permitted unless included on the initial reservation. •Please help us conserve energy by turning off lights, small appliances, lamps, etc. when not being used.  •Please store recyclables separately. •Pets are not permitted at any time. •If you need flexibility around the specified check in or check out times, let us know in advance.",
51004921,Modern Apartment 7 min from JFK Airport and Casino,79291245496,verified,James,Queens,South Ozone Park,40.6727,-73.81598000000001,United States,US,False,moderate,Entire home/apt,2018,$324 ,$65 ,1,2.0,7/8/2019,2.0,4.0,1.0,42,,
51005473,Skylight loft bed room in large artist house!,63161930507,verified,Freddi,Brooklyn,Bushwick,40.69935,-73.92642,United States,US,True,flexible,Private room,2009,$959 ,$192 ,7,7.0,1/16/2019,0.24,1.0,2.0,0,NO SMOKING ON PREMISES! NO PARTY! A printed house rule will be provided. Please be respectful to others when both rooms are booked. Non-registered guest may not stay overnight  11AM check-out (FIRM) and check-in time is between 3-9PM. No check-in later than 9PM.,
51006026,Sunny private room in fabulous North Park Slope!,92967271683,verified,Sarah,Brooklyn,Park Slope,40.680890000000005,-73.97965,United States,US,False,flexible,Private room,2004,$544 ,$109 ,1,3.0,9/29/2018,0.1,1.0,1.0,108,,
51006578,Garden studio w/ private entry&bath. No smokers.,36757929526,verified,Etwin,Brooklyn,East Flatbush,40.65737,-73.92563,United States,US,False,moderate,Private room,2010,$681 ,$136 ,3,36.0,1/1/2019,1.28,2.0,1.0,50,"•Smoking is allowed outside the house.  •Sorry, not pets - my Boston Terrier prefers 2 legged visitors.  •Please take shoes off in the living room. •Do not flush anything down toilet except toilet paper •Please maintain a reasonable volume •Please respect the property •Do not purchase anything on cable Check out is at 11am on the last day of your reservation unless discussed during the booking process.  Thank you!",
51007130,Stylish and cozy East Village 2 bedroom apartment,45780152930,verified,Stephanie,Manhattan,East Village,40.72798,-73.97787,United States,US,True,strict,Entire home/apt,2007,"$1,036 ",$207 ,1,1.0,12/28/2016,0.03,4.0,1.0,0,"Check-in is 2:00 pm, and checkout 11:00 am. You may bring bags in before check in time or leave it to pick up later. Let me know to arrange it. After reservation please send me your arrival and departure time for logistics Help yourself coffee or tea anytime NO shoes to the second floor  Keep the volume low before 8am and after 10pm Close the doors gently No shower after  11:30pm No laundry after  before 9am and after 8pm Keep the kitchen in a decent condition after your use Close the shower curtain well, no hair in the tub, no water around the sink on the sink there is a sponge you can use it to dry Turn off the light when you leave the room Trash out from the room  BLUE BOX recycling  Please respect this rules. Full refunded of security deposit in this case",
51007683,Room for rent (females ONLY),20815034661,unconfirmed,Chioma,Bronx,Parkchester,40.84012,-73.86521,United States,US,True,strict,Private room,2011,$931 ,$186 ,1,1.0,1/1/2017,0.03,1.0,1.0,0,No smoking in the house. No pets.,
51008235,Williamsburg Sun-Filled Home Away From Home!,31909592492,verified,Lindsay,Brooklyn,Williamsburg,40.71304,-73.94861999999999,United States,US,False,moderate,Private room,2021,"$1,037 ",$207 ,2,7.0,9/4/2018,0.23,4.0,1.0,146,"Check-in is 2:00 pm, and checkout 11:00 am. You may bring bags in before check in time or leave it to pick up later. Let me know to arrange it. After reservation please send me your arrival and departure time for logistics Help yourself coffee or tea anytime NO shoes to the second floor  Keep the volume low before 8am and after 10pm Close the doors gently No shower after  11:30pm No laundry after  before 9am and after 8pm Keep the kitchen in a decent condition after your use Close the shower curtain well, no hair in the tub, no water around the sink on the sink there is a sponge you can use it to dry Turn off the light when you leave the room Trash out from the room  BLUE BOX recycling  Please respect this rules. Full refunded of security deposit in this case   .",
51008787,All season studio in Astoria,82528343825,unconfirmed,Elva,Queens,Ditmars Steinway,40.77677,-73.9106,United States,US,True,flexible,Entire home/apt,2011,"$1,112 ",$222 ,3,93.0,6/28/2019,3.03,1.0,1.0,12,Please respect our home .,
51009340,Large apt in prime carol gardens,26579084327,unconfirmed,Sol,Brooklyn,Carroll Gardens,40.67933,-73.99562,United States,US,True,strict,Entire home/apt,2015,"$1,155 ",$231 ,1,82.0,9/30/2018,2.67,2.0,5.0,152,"- - NO PETS!  NO SMOKING ON PREMISES!  NO PARTY! No ""DRUGS""! - Keep the Place Clean at All Times! - Do Not Ask the ""Neighbors"" for anything.  Ask Me!-  - No Neighbors Interaction! - No ""Drugs"" Please!!! - No Noise! A printed house rule will be provided. Please be respectful to others when all rooms are booked.  10 AM Check-out and Check-in is between 12 PM (noon) - 3 PM.   Late check in after 8 pm is $50, lock out is $50. Respect yourself, Respect others, clean up after yourself.  No Smoking/drinking in apt.  Thank You! Location Rules: The ""Exact Address Location Is Not Stockton St.  It Is 2 Streets Away.  It Is Not Disclosed For Security Reasons"" And Is Given Out 24 Hours Prior to Check-in.  If This Is a Problem for You, Please STOP Here And Contact Other Hosts for Your Stay.   This Is a Part Of My House Rules.",
51009892,Beautiful room in the heart of the Lower East Side,34597698529,unconfirmed,Alexander,Manhattan,Lower East Side,40.71845,-73.98572,United States,US,True,flexible,Private room,2011,$215 ,$43 ,1,0.0,,,2.0,1.0,0,,
