id,NAME,host id,host_identity_verified,host name,neighbourhood group,neighbourhood,lat,long,country,country code,instant_bookable,cancellation_policy,room type,Construction year,price,service fee,minimum nights,number of reviews,last review,reviews per month,review rate number,calculated host listings count,availability 365,house_rules,license
12931016,Plant-filled 1 BD by Prospect Park,62596001358,verified,Jazmine,Brooklyn,Flatbush,40.65258,-73.9624,United States,US,True,flexible,Entire home/apt,2014,"$1,100 ",$220 ,1,0,,,2,1,0,"This is a pretty quiet house in a residential neighborhood, so please be respectful of noise. No overnight guests without prior arrangements being made.",
12931568,Beautiful room in Brooklyn (Bushwick),26244307121,unconfirmed,Thea,Brooklyn,Bushwick,40.70108,-73.9289,United States,US,True,strict,Private room,2013,$920 ,$184 ,14,1,2/25/2017,0.03,3,1,0,"No smoking, drugs, loud volume, loud partying please. No outdoor shoes inside the house please, indoor slippers are provided. I don't charge cleaning fee so please help me keep the place clean and organized by cleaning up after yourself, thank you.",
12932121,Spacious and charming apartment in Brooklyn,51465291967,verified,Marija,Brooklyn,Cobble Hill,40.68766,-73.99125,United States,US,False,flexible,Entire home/apt,2008,$543 ,$109 ,4,8,6/3/2019,0.29,4,1,1,We ask that guest DO NOT host any additional guest. NO partying or loud music.  Please DO NOT interact with other tenants on property.  There is ABSOLUTELY NO smoking allowed on the property. NO pets allowed. ,
12932673,Furnished room-5A-1 110th st-3rd Ave.,30360813027,unconfirmed,Veronique Camille,Manhattan,East Harlem,40.795359999999995,-73.94197,United States,US,True,moderate,Private room,2007,$787 ,$157 ,30,0,,,3,8,341,You will be very comfortable in our home but we ask that guests are respectful of the artwork that we have as we want to keep the place a fun place to hang out!  Please no smoking.,
12933225,Furnished Room/ 550/3,77003304114,unconfirmed,Veronique Camille,Manhattan,Washington Heights,40.85131,-73.93235,United States,US,True,strict,Private room,2007,$297 ,$59 ,30,0,,,1,8,358,"No smoking in the apartment, even with the windows open. No excessive cologne/perfume. Please take off your shoes on the landing and don't wear any outdoor shoes inside. No food in the bedrooms, please. No food or drinks in the music room. Be considerate of the neighbors; no excessive noise, and keep quiet after 9pm. Please tell me if anything gets broken in the apartment. Talk to me first if you want to hold Yggy. Don't open the terrarium before we talk. No overnight guests without clearing with me first.",
12933778,Beautiful apartment with sweeping NYC views,61329377162,unconfirmed,Travis,Brooklyn,Carroll Gardens,40.683279999999996,-73.99846,United States,US,False,strict,Entire home/apt,2016,$438 ,$88 ,4,0,,,3,1,0,"Guests are expected to be respectful, kind, neat, and reasonably quiet. Loud noise and heavy footsteps do travel from the second floor to the downstairs neighbors, so please be nice and don't stomp or yell.   No open flames and absolutely no smoking. Be respectful of what is in the house. Do not invite over others who are not in the plan. Thank you! ",
12934330,Manhattan Midtown Vacation Home away from Home,13022142294,verified,Jj,Manhattan,Kips Bay,40.74511,-73.9778,United States,US,True,flexible,Entire home/apt,2021,$839 ,$168 ,3,72,6/21/2019,2.55,3,1,249,,
12934882,Modern 1 bd in the heart of East Village,19373587296,verified,Jesse,Manhattan,East Village,40.7261,-73.98421,United States,US,False,moderate,Entire home/apt,2006,"$1,018 ",$204 ,2,4,4/10/2017,0.14,1,2,0,"No smoking or drugs anywhere on property; no pets; no unauthorized guests. We expect guests to be respectful of our property and the neighborhood. Please remove shoes in downstairs entryway. Please confine eating to the kitchen area. Upon check out, please leave the apartment as close to how you found it as possible. Thank you!",
12935434,"Attractive Room, Quiet Area . Easy commute Man.",42442559942,unconfirmed,June,Brooklyn,Bath Beach,40.60382,-74.01083,United States,US,True,moderate,Private room,2010,$343 ,$69 ,4,17,6/7/2019,0.65,1,2,17,"I'm looking only for mature guests who would treat my home as you would your own. No smoking and no parties. This is a friendly and quiet neighborhood and the ideal guest will be the same. CHECK-OUT You don't need to clean the house, but anything you can do to make the cleaning person's job more straightforward (like throwing away any perishable food you didn't eat), would be much appreciated! SLEEPING ARRANGEMENTS There are two bedrooms so two couples will fit perfectly. I can accommodate larger groups (up to six), but those people will have to sleep on (very comfy) blow up beds that you put either in the dining room or one of the bedrooms. Sleeping masks advised for anyone who decides to sleep on an air mattress in the dining room.",
12935987,Beautiful Sunlit Retreat in Manhattan,8444898122,unconfirmed,BeautifulHarlem,Manhattan,Harlem,40.81961,-73.94583,United States,US,False,moderate,Entire home/apt,2012,$268 ,$54 ,2,145,6/23/2019,5.0,2,2,127,"No pets No Smoking indoors Please be respectful of my neighbors both inside and outside my home. This means limiting noise after hours, avoiding playing loud music, etc. Please clean up and take out the trash when you leave",
12936539,Private  suite,18159221761,unconfirmed,Irisha,Queens,Fresh Meadows,40.74227,-73.78707,United States,US,False,strict,Entire home/apt,2008,$130 ,$26 ,1,26,7/8/2019,0.9,1,3,358,"This is our family home, not a rental that we manage, so we expect you to treat it as you would your own home.",
12937091,Sweet deco room in amazing location,31353142933,verified,Paige,Brooklyn,Williamsburg,40.71018,-73.94858,United States,US,True,moderate,Private room,2005,$100 ,$20 ,1,55,6/30/2019,2.01,5,1,345,"Please pick up after yourself if you use the kitchen or other common areas, keep noise down at night, and, sorry, no smoking.  We're looking forward to having you!",
12937644,My little LOFT in Brooklyn :),74049141578,unconfirmed,Blessing,Brooklyn,Bedford-Stuyvesant,40.68336,-73.95421,United States,US,False,strict,Entire home/apt,2019,$793 ,$159 ,1,27,7/6/2019,0.98,1,1,39,"- There is no dedicated parking spot for this apartment. Use the abundant street parking. - This is a quiet residential neighborhood. No late loud partying allowed. - It's the first (bottom) floor, please do not meander to upper floors and be courteous to the neighbors. - Close all windows and lock doors whenever you leave the house. Very important. This is not a dangerous neighborhood but it's not crime free and the neighbors are very annoyed when this occurs. - No smoking indoors or outdoors close to the apartment. - This is an old house so please be mindful of the noise. - You are welcome to cook of course but leave the place as you found it - There will be basic breakfast in the fridge/freezer and cabinets: bread, chocolate spread, cereals, tea, coffee, etc. Help yourself.",
12938196,Charming place on the hippest street in NYC,15784578675,unconfirmed,Annie,Manhattan,East Village,40.727129999999995,-73.98159,United States,US,False,flexible,Entire home/apt,2005,$566 ,$113 ,2,35,6/16/2019,1.22,5,1,0,My cat is outdoor/indoor so he comes and goes. We are pretty quiet except the occasional radio news in the late morning.,
12938748,曼哈顿景色豪华公寓,45120685473,unconfirmed,Faye,Manhattan,Hell's Kitchen,40.76189,-73.99750999999999,United States,US,True,flexible,Private room,2009,$114 ,$23 ,10,2,6/16/2017,0.08,4,1,0,,
12939301,Comfortable bedroom in shared apartment,8377982508,unconfirmed,Lev,Queens,Astoria,40.763259999999995,-73.91673,United States,US,False,moderate,Private room,2012,"$1,081 ",$216 ,4,0,,,2,1,0,"We plan to treat you politely, warmly, and with respect during your visit. We hope you will do the same! We do not smoke in the house and we do no have animals in the house. We have upstairs and downstairs neighbors, and we thank you for treating them kindly during your stay.",
12939853,Live Like a Local in West Village!,75455448534,verified,Palma,Manhattan,West Village,40.73023,-74.00294,United States,US,True,moderate,Entire home/apt,2007,$59 ,$12 ,3,28,6/17/2019,1.03,3,1,51,Please be respectful of my things! I have a lot of stuff that I have collected over the years. Absolutely NO smoking and NO parties  This is a really relaxing space and the neighbors are all really cool.  -Pets are allowed -Please clean after yourself and dispose of the trash properly,
12940405,Private Room East Village near Union Square,37873831716,verified,Dane,Manhattan,East Village,40.732409999999994,-73.98878,United States,US,True,flexible,Private room,2012,$672 ,$134 ,6,1,11/12/2017,0.05,1,1,0,"This room is the perfect fit for you if you're looking for a cheap and quick few night stay! The house is laid back - smoking is allowed on the back porch, you will have access to use our refrigerator - but please bring your own food, towels will be provided, the kitchen is stocked with appliances as well. Because the space is shared with other roommates expect you may see them and keep noise and interaction to a respectful level :)",
12940957,Williamsburg Bedfd Stop 1000 sqft 1 Bed + 1.5 Bath,1498225717,unconfirmed,Cat,Brooklyn,Williamsburg,40.71372,-73.96325999999999,United States,US,False,strict,Entire home/apt,2008,$530 ,$106 ,1,63,6/27/2019,2.29,5,1,270,"- NO parties or events. -NO smoking inside. You are welcome to smoke outside. -We ask guests to maintain a low noise level after 10pm and be respectful of noise levels during the day. You are welcome to have a few friends over for dinner but no loud music. -NOTHING but toilet paper and human waste in the toilet.  -Hair dyeing are not allowed in the apartment as the wood, furniture and bathroom sink can stain very easily. -All overnight guests must be booked through Airbnb. If you plan to have visitors during your stay, please check with us beforehand.  -All overnight guests must be booked through Airbnb.  Enjoy yourself!  Ask us for anything you may need while you're here! We will do our best to help.",
12941510,Renovated Cozy room  for 2 or solo traveler,43104158809,verified,Izabel,Brooklyn,Kensington,40.647690000000004,-73.97435,United States,US,True,strict,Private room,2020,$632 ,$126 ,1,122,6/27/2019,4.21,5,3,222,"Dear Guests, Welcome to 62 Cornwall St! I hope you will enjoy your stay in Boston. General -No Smoking -You may use the washer in the laundry room. The turn-on button of dryer is broken, so it is hard to turn it on, but it is working. I usually hang clothes on hangers, they dry fairly quickly that way. -You may use the piano if you play piano.  -Please be extra careful with the floor downstairs. It is very easily scratched! -You may use the grill, but be extra careful! After use, turn off the gas on the propane tank, not only on the grill! -Please  refrain from loud talking/partying on the patio after 10 p.m.  Check  in/out: -The code for the lockbox is 1685  -When you arrive, please remove the keybox. -When you leave, place the key on the kitchen table, do not put it back in the keybox. -Please check out by 11 a.m. on your last day. The cleaners will arrive shortly after that, to prepare for the next guests potentially arriving at 3 p.m.  Internet: -WIFI: (PHONE NUMBER HIDDEN)  -WEP: ",
12942062,Private room in stylish uptown apartment,81150456023,verified,Kareem,Manhattan,Harlem,40.823159999999994,-73.95343000000001,United States,US,False,strict,Private room,2017,$330 ,$66 ,30,1,4/26/2018,0.07,3,2,133,No shoes and no smoking inside please. No smoking on the porches or around the house. The neighbors below us have a young child with severe asthma. ,
12942614,Beautiful large private room in Sunnyside Gardens,21456088261,verified,Sen,Queens,Sunnyside,40.74603,-73.91412,United States,US,True,moderate,Private room,2012,$206 ,$41 ,1,72,6/24/2019,2.98,5,2,129,No smoking. And preferably no cats. dogs welcome.,
12943167,Brownstone Studio,10156774796,unconfirmed,Michelle,Brooklyn,Bedford-Stuyvesant,40.68469,-73.947,United States,US,True,flexible,Entire home/apt,2003,$396 ,$79 ,3,116,6/21/2019,4.03,4,1,216,Tenant Agreement: House Rules: The landlord reserves the right to inspect the unit to enforce the terms of this agreement at any time. No smoking. No parties. No pets. Reduced noise after 11pm. No sublet. No more than eight people to reside on premises unless given written approval.  No refunds to be given for shortened stays.  No refunds to be given for any cable or internet WI-FI outages.  You are responsible for safe keeping of your own valuables. The landlord is not responsible for lost items.,
12943719,"Stylish, Spacious room Express train to Midtown",10572304994,unconfirmed,Shane,Manhattan,Washington Heights,40.84114,-73.93639,United States,US,True,flexible,Private room,2021,"$1,061 ",$212 ,5,33,7/2/2019,1.17,4,3,1,"Please leave your shoes in the entranceway.  I will leave the house sparkly clean for you and hope that youll do the same for me. ;) If you are a smoker you are welcome to use either the back porch or roofdeck.  There is an ashtray on the back porch.  Please be considerate of neighbors with outdoor noise levels. Congrats! You get to be surrogate parents to the other residents of 9 mark st, Turtle and Froggy, my cats.  Ill leave plenty of food for them but you are responsible for feeding them.... and they will thank you with lots of purring and snuggly lap time.",
12944271,Relaxing Stylish Room near Train and Attractions,98163461729,unconfirmed,Daniel,Manhattan,Chelsea,40.74462,-74.00139,United States,US,True,flexible,Private room,2018,$793 ,$159 ,5,77,7/7/2019,2.73,3,2,79,There are two other units in the same building and we respect each other with noise.  Guests are asked not to have loud music or any parties. We don't charge a cleaning fee so please leave the house in good shape when you leave.  Please load the dishwasher and run it prior to departing. Thank you!,
12944824,Huge beautiful apartment - entire floor!,13577674976,verified,Phuong,Brooklyn,Crown Heights,40.676559999999995,-73.93705,United States,US,False,flexible,Entire home/apt,2012,"$1,112 ",$222 ,2,106,6/16/2019,3.72,2,1,28,,
12945376,"Bright, comfy, elegant room near Express Train",61445954057,unconfirmed,Shane,Manhattan,Washington Heights,40.840990000000005,-73.93694,United States,US,True,moderate,Private room,2008,$276 ,$55 ,5,41,6/21/2019,1.45,5,3,228,,
12945928,Large Modern 3-bdrm Duplex Apt near Manhattan,464928641,unconfirmed,Diana,Queens,Astoria,40.75651,-73.91485,United States,US,False,moderate,Entire home/apt,2020,$56 ,$11 ,2,70,7/1/2019,2.64,3,1,175,"Please be respectful of my things! I have a lot of stuff that I have collected over the years. Absolutely NO smoking.  This is a really relaxing space and the neighbors are all really cool.  -Pets are allowed -If you cook, please clean after yourself and make proper use of the garbage disposal.",
12946480,One Bedroom Apt in NYC on 1st Floor!,88228377422,verified,Christopher,Manhattan,Washington Heights,40.84417,-73.94063,United States,US,False,flexible,Entire home/apt,2014,$440 ,$88 ,1,4,1/7/2018,0.14,5,1,0,"Please reserve for yourself rather than for someone else. Air B&B has this as a basic requirement so the host than look at reviews of the guest, not of the person making the reservation. You can smoke on the back porch.  Well-behaved, non-barky, friendly dogs are welcome to sleep on the floor or in their own dogbed.",
12947033,Spacious Brooklyn One Bedroom/Loft***Morgan L Stop,25712187498,unconfirmed,Joey,Brooklyn,Williamsburg,40.70552,-73.93,United States,US,True,moderate,Entire home/apt,2016,"$1,164 ",$233 ,4,0,,,3,1,0,"Please clean after yourself, wipe spilled water after using the bathroom, do not smoke in the apartment and treat the place as you would treat your home! Please let us know about pets or service animals in advance.",
12947585,Private Apt Near NYC Airport & Northshore Hospital,78024406673,verified,Adisson,Queens,Douglaston,40.76978,-73.73915,United States,US,False,strict,Entire home/apt,2016,$592 ,$118 ,1,49,6/30/2019,1.7,1,1,247,No Smoking No Pets No Parties but few friends always welcome Its a private space but keep sounds moderate for neighbors and me,
12948137,Great spacious room in Stylish apt near Highline,93380545354,verified,Daniel,Manhattan,Chelsea,40.7456,-74.00107,United States,US,True,moderate,Private room,2009,$324 ,$65 ,5,66,7/1/2019,2.37,2,2,99,,
12948690,Large Cozy 1 bedroom Apt in South Williamsburg,63076156478,unconfirmed,Cris,Brooklyn,Williamsburg,40.707440000000005,-73.95416999999999,United States,US,False,flexible,Entire home/apt,2020,$688 ,$138 ,6,10,1/3/2019,0.36,4,1,239,,
12949242,Lovely Bedroom in Quiet Prospect Heights Apartment,42390495867,unconfirmed,Johanna,Brooklyn,Prospect Heights,40.67305,-73.96824000000001,United States,US,True,moderate,Entire home/apt,2019,$891 ,$178 ,5,1,8/22/2017,0.04,4,2,0,,
12949794,Awesome Manhattan Midtown Apartment,97687553818,unconfirmed,Wenli,Manhattan,Roosevelt Island,40.76253,-73.95000999999999,United States,US,True,flexible,Entire home/apt,2003,$683 ,$137 ,2,9,8/27/2017,0.32,2,1,0,Quiet after 11pm.  Other guests sleeping.,
12950347,"Greenpoint, Brooklyn - Spacious Private Room",51442129200,verified,Rachel,Brooklyn,Greenpoint,40.7355,-73.95676999999999,United States,US,True,strict,Private room,2010,$114 ,$23 ,28,3,5/27/2017,0.11,1,1,0,,
12950899,An Oasis in the Big Apple,15874783163,verified,Arianna,Manhattan,Morningside Heights,40.803909999999995,-73.96576,United States,US,True,moderate,Entire home/apt,2006,"$1,180 ",$236 ,5,0,,,1,2,0,"- NO parties or events. -NO smoking inside. You are welcome to smoke outside. -We ask guests to maintain a low noise level after 10pm and be respectful of noise levels during the day. You are welcome to have a few friends over for dinner but no loud music. -NOTHING but toilet paper and human waste in the toilet.  -Hair dyeing are not allowed in the apartment as the wood, furniture and bathroom sink can stain very easily. -All overnight guests must be booked through Airbnb.  Enjoy yourself!  Ask us for anything you may need while you're here! We will do our best to help.",
12951451,"Modern & Luxurious 1 Bedroom, close to A/J Trains!",24511911817,verified,Amin,Queens,Ozone Park,40.68572,-73.8493,United States,US,False,moderate,Entire home/apt,2007,$862 ,$172 ,4,0,,,4,1,0,"The unit is a condo, with another unit upstairs.  Please be considerate of our neighbors, and respect the shared spaces (front porch, backyard) and limit any noise after 10 PM.  Guests are not allowed to use the bbq or smoker during their stay (sorry!).",
12952003,3 Bed/ 1.5 Bath Midtown Apt near Empire State,317082945,unconfirmed,Peggy,Manhattan,Kips Bay,40.7443,-73.97925,United States,US,False,moderate,Entire home/apt,2019,$724 ,$145 ,5,69,6/26/2019,2.44,3,1,163,,
12952556,"Cozy 1 bedroom, Lower East Side",37164094485,unconfirmed,Francesco,Manhattan,East Village,40.72117,-73.98215,United States,US,False,moderate,Entire home/apt,2017,$888 ,$178 ,3,31,1/13/2019,1.08,2,1,136,"Leave shoes by door No strong scents (perfumes, hair sprays, etc.) No events, drunkenness, or loud music No noise in the stairway",
12953108,Bedroom + Private Bath Near Central Park & Subways,30830158093,verified,Nicolle,Manhattan,Harlem,40.80113,-73.95286999999999,United States,US,True,strict,Private room,2008,$817 ,$163 ,4,35,12/9/2017,1.24,5,1,0,No Smoking No Pets No Parties,
12953660,Chic Space in Chelsea,58053291882,unconfirmed,Ivan,Manhattan,Chelsea,40.7435,-74.00119000000001,United States,US,True,moderate,Private room,2022,$417 ,$83 ,2,128,6/17/2019,4.52,5,1,252,"You must disclose at what time you are planning to arrive when booking.  If it's too late at night, we may not be able to accommodate you.  If you don't disclose the information, your reservation will be canceled immediately.  International guests:  Please make sure your visa/work permits are in order.  We cannot refund your money if you are unable to come because your paperwork was not in order.  If you are booking far in advance because of work/study issues, please be aware that if things change because of whatever circumstance we are not able to give you a full refund.  Please understand that we have kept your place for months foregoing other bookings.  The policy is that if you let us know a week in advance, you will receive 50% of what you have paid.  Also, the money that you pay upfront to secure the place is kept by airbnb which handles all money transactions.  No smoking indoors, only on the deck.  No pets.  Come and go as you please.  No loud music please.  Own housekeeping du",
12954213,PRIVATE ROOM - Sunny and Spacious - Brooklyn Loft,4451648077,unconfirmed,Aurelien,Brooklyn,Williamsburg,40.70616,-73.92918,United States,US,True,flexible,Private room,2009,$672 ,$134 ,2,58,2/11/2019,2.02,5,2,0,I'm a semi kosher vegetarian which means that I don't bring any pork or shelled fish into the house.  Chicken/Red meat is fine.,
12954765,Superhost HUGE Room+Private Bath -Yankee Stadium,29052583895,unconfirmed,Amílcar,Bronx,Highbridge,40.83173,-73.92824,United States,US,False,moderate,Private room,2017,"$1,046 ",$209 ,1,127,6/30/2019,4.45,1,1,134,- Minimum two night stay  - No smoking or drugs  - No parties and please be respectful of neighbors - Pets are welcome for an extra $50/night,
12955317,"Cozy 1BD near JFK, Beach, Subway, Buses, & Kitchen",65061767214,unconfirmed,Francisca,Queens,Far Rockaway,40.59745,-73.76032,United States,US,True,strict,Private room,2005,$782 ,$156 ,1,61,6/6/2019,2.12,5,2,124,"Please! No parties, no pets, no smoking, no illegal downloading from the Internet.",
12955870,Cabins at Chelsea (NYC),10877984270,unconfirmed,Maria,Manhattan,Chelsea,40.74819,-73.9954,United States,US,False,moderate,Private room,2020,$346 ,$69 ,1,147,6/23/2019,5.08,2,5,292,,
12956422,"Amazin 1BD in Queens, JFK, St John's Hosp, Kitchen",43793028330,verified,Francisca,Queens,Far Rockaway,40.596920000000004,-73.7602,United States,US,False,flexible,Private room,2015,$361 ,$72 ,1,42,5/30/2019,1.52,4,2,124,Events or parties are a separate charge at our Bed and Breakfast. Nothing after 10 pm.,
12956974,Cozy room in Prospect Heights,92321840574,verified,Allegra,Brooklyn,Crown Heights,40.679190000000006,-73.95918,United States,US,True,strict,Private room,2004,$833 ,$167 ,2,12,6/28/2019,0.47,5,1,120,"No smoking, No animals—we already have enough! No house parties. The maximum number of guests allowed in this room is two. Additional guests are not allowed unless they're just stopping in for a brief visit—still, please do clear it with me first.  I am trustworthy, clean and respectful and I expect my guests to be the same.  This is a calm, quiet neighborhood, so we ask that guests please adjust their decibels accordingly.  I ask that guests leave rooms the same way  they found them, making sure to clean up after cooking, to take hair out of the drains, and to put trash in trashcans.  Please  make yourself at home and feel free to use all my kitchen stuff, though I do have to play kitchen Nazi with a few items that require special cleaning (wok! cast iron frying pan!).  No pets allowed. No smoking. No storage permitted outside of rented room, outside of basket for toiletries in bathroom that I'll  point out to you.  Guests will please keep perishables in the college-size refrigerator ",
12957526,Spacious Private Room in Beautiful Audubon Park,12759541570,verified,Brad,Manhattan,Washington Heights,40.83712,-73.94664,United States,US,True,moderate,Private room,2014,$580 ,$116 ,2,2,12/27/2017,0.1,3,1,0,,
12958079,Gem In Park Slope,49580674538,verified,Nina & Keith,Brooklyn,Park Slope,40.67005,-73.97981,United States,US,True,flexible,Entire home/apt,2014,$351 ,$70 ,3,125,6/25/2019,4.51,1,2,61,,
12958631,"Room at  Artist  Apt in Wburg, BK",43944147597,verified,Cacho,Brooklyn,Williamsburg,40.71304,-73.96497,United States,US,False,strict,Private room,2013,$481 ,$96 ,3,5,10/8/2017,0.18,5,1,0,,
12959183,Nice clean room in Brooklyn,72924636232,verified,Bradford,Brooklyn,Bedford-Stuyvesant,40.68469,-73.9375,United States,US,False,flexible,Private room,2010,$303 ,$61 ,5,69,6/13/2019,2.4,3,1,104,"There is no smoking in or immediately around the building. The building's quiet hours begin at 9pm. After this time it's very important that you not play music loudly, have noisy guests over, etc.",
12959736,*Rare Find* Fantastic 2 Bed Apt inTimes Square,37831056475,verified,Trendi,Manhattan,Hell's Kitchen,40.7621,-73.99354,United States,US,False,flexible,Entire home/apt,2015,$884 ,$177 ,3,84,6/16/2019,2.92,2,2,74,,
12960288,Immaculate 1BR in quiet Bedstuy brownstone.,53079137028,unconfirmed,Robinette,Brooklyn,Bedford-Stuyvesant,40.681459999999994,-73.94757,United States,US,True,strict,Entire home/apt,2021,$764 ,$153 ,2,3,3/1/2017,0.1,4,1,0,"No smoking in the apartment, even with the windows open. No excessive cologne/perfume. Please take off your shoes on the landing and don't wear any outdoor shoes inside. No food in the bedroom, please. No food or drinks in the music room. Be considerate of the neighbors; no excessive noise, and keep quiet after 9pm. Please tell me if anything gets broken in the apartment. Talk to me first if you want to hold Yggy. Don't open the terrarium before we talk. No overnight guests.",
12960840,Large sunny park slope apartment,29235630775,verified,Elizabeth,Brooklyn,Park Slope,40.67135,-73.97759,United States,US,False,moderate,Entire home/apt,2007,$82 ,$16 ,1,0,,,5,1,0,"- We have a very friendly cat and two chickens (in our outdoor coop in the back of the yard). Chickens and cat will be cared for/fed ( including cat litter box) by a pet sitter through a private basement entrance. We just ask that you let our indoor/outdoor cat in and out when you are home and please enjoy our fresh ""daily"" eggs.",
12961393,Prime Williamsburg Location! 10 min from Manhattan,60686680031,unconfirmed,Marco,Brooklyn,Williamsburg,40.71059,-73.96002,United States,US,False,moderate,Private room,2007,$755 ,$151 ,3,46,6/24/2019,1.62,3,2,141,"Please keep cats out of bedrooms and bathroom, by keeping those doors closed.  Don't let cats outside the apartment.  No smoking.  Make sure front door is locked when you come in.",
12961945,Cozy modern studio in heart of LES,44456432283,verified,Eric,Manhattan,Lower East Side,40.72056,-73.98539,United States,US,False,strict,Entire home/apt,2006,$699 ,$140 ,2,2,9/22/2017,0.09,5,1,180,"Please care for our home as you would your own. This is not a vacation rental, it is our real home :)  Upon your departure please load and run the dishwasher, and take out your garbage and recycling. Instructions will be provided for you.",
12962497,Georgeous 1BR - Modern Cozy Clean - Great location,26584917568,unconfirmed,Annabelle,Manhattan,Upper East Side,40.77279,-73.94696,United States,US,False,flexible,Entire home/apt,2020,$967 ,$193 ,4,2,9/18/2017,0.08,5,1,0,Please be respectful.  Keep noise to a minimum after 9pm. No Smoking. No recovering patients from medical procedures. Thanks!,
12963049,"Quiet, Bright, 2 Story Home Close to It All",80004268397,unconfirmed,David,Queens,Briarwood,40.71512,-73.81928,United States,US,True,flexible,Entire home/apt,2014,"$1,189 ",$238 ,4,6,6/1/2019,0.29,5,2,353,"No candles, smoking or flame of any kind is allowed.  No pets and please be sensitive to the environment and our bills by turning off lights, heat and water when not in the apartment.",
12963602,INCREDIBLE TOWNHOUSE 4 STORIES 5 BEDROOMS 3 BATH,13449965826,verified,Vinit,Manhattan,West Village,40.73444,-74.00129,United States,US,False,moderate,Entire home/apt,2015,$338 ,$68 ,2,93,6/23/2019,3.38,2,1,251,"You will be sharing a bathroom, so you must be considerate of time spent in the bathroom in the morning when getting ready. If you use the kitchen, please put the dirty cups, bowls, plates, and silverware in the dirty dishes tub, and hand wash all of the pots, pans, and cooking tools you use. Please clean up any mess you may have made. Remember to turn on the fan when using the stove or oven so the fire alarm does not go off from the steam! Please only smoke outside, away from the apartment building, and dispose of your cigarettes responsibly. Checkout: Checkout is at 11:00 am, please inquire if you would like to check out later or leave your bags with us for the day. If we are not awake/home when you leave, please leave the passes on the desk in your room, lock the front door behind you, and put your keys in the lock box behind the front stair case.",
12964154,Spacious beautiful bedroom:),26564658584,unconfirmed,Dioni,Queens,Ditmars Steinway,40.77367,-73.91516999999999,United States,US,False,flexible,Private room,2021,$362 ,$72 ,3,0,,,3,2,82,,
12964706,★ NEW 2 BEDROOM APT NEXT TO CENTRAL PARK WEST★,61284067047,unconfirmed,Inna,Manhattan,Upper West Side,40.795840000000005,-73.96242,United States,US,False,moderate,Entire home/apt,2006,$400 ,$80 ,30,5,5/11/2019,0.21,5,16,200,"-Please no pets -Quiet hours are from 10pm - 8am -No smoking inside, outside is fine -Please be respectful of the place, and cleaning up after yourself",
12965259,"@Ferry,HUGE 2Br/3beds. Private,Renovated/Stylish..",25231346586,verified,Dine,Staten Island,St. George,40.645959999999995,-74.08059,United States,US,True,moderate,Entire home/apt,2010,$677 ,$135 ,4,96,7/1/2019,3.42,5,6,147,"Please tell me about who you will be traveling with and your purpose for the trip. I will accept adults traveling with a child over 7 years old. But I do not accept more than 2 guests at a time. So 1 adult and 1 child is fine. Are you traveling for work, visiting friends in this area, or a tourist on vacation? This is a friendly house hold, reasonably quiet. You will have to pass through our part of the house in order to get to the third floor. We expect guests to be reasonably quiet coming in and out before (9AM and after 10PM. Kindly remove your shoes as well.  No smoking. No pets. For safety reasons please do not invite other people to our place without permission. There is a fire ladder under the bed in the bedroom, as a second means of egress.  Please recycle. I will provide a paper bag for you to put your recycled items in. For summer months, there are two AC units provided. PLEASE keep doors and windows closed whenever you are using the AC. Otherwise please shut the AC off, if y",
12965811,Spacious Brooklyn Bedroom For the Month of Nov.,75280510934,verified,Luciana,Brooklyn,Crown Heights,40.67561,-73.93138,United States,US,False,strict,Private room,2015,$244 ,$49 ,20,0,,,4,1,0,No pets that shed; If you have a hypo-allergenic dog that is ok. ,
12966363,Brooklyn's Cozy Jewel,31465884021,unconfirmed,Faith,Brooklyn,Crown Heights,40.67018,-73.93224000000001,United States,US,False,flexible,Entire home/apt,2009,$827 ,$165 ,4,55,6/26/2019,2.06,3,2,17,"All I ask is that you don't make too big a mess, don't smoke, don't break anything, and be respectful of my roommates/neighbors.",
12966916,MONTHLY PRICE- Perfect for one person in Astoria,56625559244,verified,Luiza,Queens,Astoria,40.75832,-73.91448000000001,United States,US,True,flexible,Private room,2012,$842 ,$168 ,15,23,5/31/2019,0.83,5,2,31,"- The building and its premises and grounds are 100% smoke free. No smoking of any kind is allowed, neither inside or outside. No smoking in front of the house please. - Please use only the front stairs for access - We apologize but the tub is not available for use. - Please make sure to return any furniture you take out to the deck at night, to prevent it from getting it wet from rain or dew. Thanks!",
12967468,Cozy PRIVATE bathroom CLEAN New Construction,36688494681,unconfirmed,Hiroki,Queens,Elmhurst,40.738890000000005,-73.87713000000001,United States,US,False,moderate,Private room,2018,$825 ,$165 ,30,0,,,3,37,33,Smoking whatever is your preference is ok on the decks.  Please use ashtrays and dispose of debris.    Clean up after your pet but feel free to use the yard for bathroom activities.,
12968020,Light-Filled Flatiron: Double Bed 'n Private Bath,25066449879,verified,Cassia,Manhattan,Gramercy,40.738279999999996,-73.98954,United States,US,False,flexible,Private room,2019,$785 ,$157 ,3,33,5/6/2019,1.18,2,1,167,"No Smoking.  Smoke alarms will sound (not just in the unit, but throughout the other units in the building as well).  Please keep the outside gate closed.  No parties. Overnight guests, other than those listed on the reservation, are not allowed.",
12968572,Intimate Williamsburg Apartment,58839894725,unconfirmed,Michael,Brooklyn,Williamsburg,40.714929999999995,-73.95084,United States,US,False,flexible,Entire home/apt,2012,"$1,073 ",$215 ,5,2,5/7/2017,0.07,2,1,0,There is no smoking on the property. No outside guests are allowed. The building's quiet hours begin at 9pm.,
12969125,Cozy charming room close to Prospect Park,35630913355,unconfirmed,Helen,Brooklyn,Prospect-Lefferts Gardens,40.656420000000004,-73.96085,United States,US,True,strict,Private room,2014,$681 ,$136 ,14,7,6/30/2019,0.27,3,1,173,We expect guests to treat this as they would their own home.  We don't allow pets.  We don't allow smoking.,
12969677,"Private Entrance,Room and Bathroom!",2706675536,verified,Mariano,Manhattan,East Harlem,40.7993,-73.93305,United States,US,False,strict,Private room,2021,"$1,053 ",$211 ,2,37,8/3/2018,1.33,3,2,304,"We ask guests to leave the house as they found it and to respect our home, our belongings, and our privacy. No smoking or drug use in our home at any time.",
12970229,Sunny & Spacious - Private Master Bedroom near JFK,14901574164,verified,Pearl,Brooklyn,Crown Heights,40.67293,-73.93273,United States,US,True,flexible,Private room,2005,$375 ,$75 ,2,53,6/2/2019,2.3,2,1,8,I appreciate guests on the quiet side who are mindful that this is my home. Non-smoking please. No open flames permitted. No pets.,
12970782,First Floor Studio on the Upper East Side!,61310320827,verified,Leyla,Manhattan,Upper East Side,40.78007,-73.94803,United States,US,True,strict,Entire home/apt,2006,$809 ,$162 ,3,30,6/28/2019,1.08,1,1,4,"We live on the premises - two women,  two dogs and a cat. We are a strictly NON-SMOKING household - this includes all smokeable substances. We tend to stay up late, so late arrivals to about 11 pm or so are OK. We can arrange for a later check-in via a key box, but we may not meet you in person until the next morning. Check-in is after 5 pm except by prior arrangement, and checkout is at 11 am promptly to allow time for the unit to be cleaned before the next guest. This is a quiet residential neighborhood so please, no parties or loud music. There is door from the 3rd floor onto the roof as a safety exit, but the rubber roof is very delicate.  If you are tempted to walk out on the roof, please do so in your bare feet only.  There is no railing for the roof.  Under no circumstances may children access the roof. Thank you for not smoking any substance on the roof, on the deck or anywhere on the premises.",
12971334,Sunny Studio near Central Park,32308694503,verified,Jacob,Manhattan,Upper East Side,40.76684,-73.96203,United States,US,True,moderate,Entire home/apt,2014,$220 ,$44 ,1,31,1/3/2019,1.12,5,1,0,"-No shoes in our home. Please leave them at the door in the foyer. -No smoking in the house indoors. There are ashtrays outside. -No stealing cutlery, utensils, other kitchen items or of any kind. -No damaging walls or windows. -No alterations, decorations, structural changes or additions to the premises. -No lock combinations shall be shared, nor a new lock installed. -Please do not take any of the local town guides. They are for information purposes. -All children should be supervised. -No early check-in or late checkout without prior approval from the property manager. -The maximum occupancy (per contract) {and conditional pet request} may not be exceeded at any time during reservation. -When showering please keep shower curtain inside the tub",
12971886,Joy,93799090473,unconfirmed,Rachel,Queens,South Ozone Park,40.66561,-73.81103,United States,US,True,moderate,Private room,2021,$444 ,$89 ,15,2,4/19/2019,0.39,3,4,190,No Parties allow  Non smoking,
12972439,NYC - Upper west side Studio,30929863799,verified,Camilo,Manhattan,Upper West Side,40.80355,-73.96831,United States,US,False,moderate,Entire home/apt,2016,$892 ,$178 ,7,3,7/31/2017,0.11,4,1,0,,
12972991,2 cozy rooms in a quiet building,18917310426,unconfirmed,Polina,Queens,Ridgewood,40.69934,-73.90348,United States,US,True,moderate,Private room,2015,$80 ,$16 ,3,0,,,2,1,0,"This is a home, not a hotel.  Conservation is important. Please do not waste water or electricity. We recycle, reuse, compost and minimize waste. Clean up after yourself and put things away It's a family friendly, urban neighborhood with incidents of crime; please lock doors and windows. Basic self-awareness of the impact of your choices. Communication is important. Let me know what you need. The dining area is not a work space. There is a desk and chaise lounge in guest room that should be used for workspace. I have a study/living room which is not meant for guests.",
12973543,"Small Basic Room in Great Area: Long Term, 2 beds!",52897395544,unconfirmed,Leo & Family,Queens,East Elmhurst,40.75602,-73.88110999999999,United States,US,True,flexible,Private room,2006,"$1,097 ",$219 ,4,2,12/13/2018,0.09,2,1,355,No smoking.,
12974095,Space for Creating and Staying  in Bed-Stuy,53615325879,unconfirmed,Doretha,Brooklyn,Bedford-Stuyvesant,40.69392,-73.9472,United States,US,True,strict,Entire home/apt,2007,"$1,036 ",$207 ,2,6,6/9/2019,0.93,2,1,359,,
12974648,Ultimate Studio Sublet in heart of Williamsburg,50008018008,unconfirmed,Diana,Brooklyn,Williamsburg,40.71813,-73.95822,United States,US,True,strict,Entire home/apt,2007,$218 ,$44 ,3,7,7/19/2018,0.26,4,1,0,Like it is their own house. I've had problems in the past with AirBnB so I need to be assured that guests will treat the house with respect and care.,
12975200,Huge  Bedroom in Astoria for One (1) Professional,17269397136,unconfirmed,Varos,Queens,Astoria,40.75851,-73.92555,United States,US,True,strict,Private room,2016,$427 ,$85 ,4,40,7/5/2019,1.41,4,2,47,"Stay kinda quiet after 11, don't leave the door open, and you're good to go. Have fun!",
12975752,"Huge room, Social Home!",8160144357,verified,Kelly,Brooklyn,Kensington,40.64465,-73.97870999999999,United States,US,True,moderate,Private room,2014,"$1,108 ",$222 ,3,5,4/12/2017,0.18,4,1,0,,
12976305,Luxury Apt Close to JFK Airport,7038240192,verified,Cordelia,Queens,Cambria Heights,40.69206,-73.74546,United States,US,False,strict,Entire home/apt,2021,$526 ,$105 ,2,65,6/26/2019,2.33,2,1,263,"- NO parties or events. -NO smoking inside. You are welcome to smoke outside. -We ask guests to maintain a low noise level after 10pm and be respectful of noise levels during the day. You are welcome to have a few friends over for dinner but no loud music. -NOTHING but toilet paper and human waste in the toilet.  -Hair dyeing are not allowed in the apartment as the wood, furniture and bathroom sink can stain very easily. -All overnight guests must be booked through Airbnb.  Enjoy yourself!  Ask us for anything you may need while you're here! We will do our best to help.",
12976857,"Spacious, Private 2 BR , 4 Bathrooms in Brooklyn",82854355948,verified,Estie,Brooklyn,Crown Heights,40.669709999999995,-73.94351,United States,US,True,strict,Entire home/apt,2017,"$1,172 ",$234 ,1,26,6/21/2019,0.96,1,3,271,"You will be sharing a bathroom, so you must be considerate of time spent in the bathroom in the morning when getting ready. If you use the kitchen, please put the dirty cups, bowls, plates, and silverware in the dishwasher, and hand wash all of the pots, pans, and cooking tools you use. Please clean up any mess you may have made. Remember to turn on the fan when using the oven/stove. Please only smoke outside, away from the apartment building, and dispose of your cigarettes responsibly. Checkout: Checkout is at 11:00 am, please inquire if you would like to check out later or leave your bags with us for the day. If we are not awake/home when you leave, please leave the passes on the desk in your room, lock the front door behind you, and put your keys in the lock box behind the front stair case.",
12977409,Beautiful Light Filled 1 Bedroom in Kosher Apt,28554031943,verified,Esther,Brooklyn,East Flatbush,40.66067,-73.93796,United States,US,False,moderate,Private room,2012,$588 ,$118 ,2,16,6/15/2019,0.57,1,3,43,"You're welcome to use our kitchen, we just ask that you clean up when you're done. There is no smoking, including on the porch.  If you use our frying pans, please use only wood or silicone utensils on them and clean only with the soft side of the sponge.  Please be careful when coming and going not to let the cat out. She can get very curious when the door's open.",
12977962,"Huge, Clean & Classy Studio Room in Shared Apt",82539799026,verified,Ula,Brooklyn,Bedford-Stuyvesant,40.68083,-73.94445,United States,US,False,flexible,Private room,2015,$504 ,$101 ,5,8,5/29/2019,1.31,4,2,0,,
12978514,Cozy modern stay,4155016386,unconfirmed,Cathy,Brooklyn,Borough Park,40.645509999999994,-73.9981,United States,US,True,flexible,Entire home/apt,2008,$100 ,$20 ,2,45,7/6/2019,1.65,1,1,342,"Absolutely no smoking inside No pets Family friendly! Our home media center is connected to the TV, giving you access to our library of hundreds of movies and shows, including a kid friendly selection Nespresso and a Keurig machines are available for you to make espresso and coffee. We also have a selection of teas. Our yard, shared with two other units, is also available, and features a grill and a table with seating Parking on the street requires an adhesive residential permit. We have free off street parking, which will save you from a ticket There is a fourth, crib size mattress and a bassinet available should you need them Laundry is coin operated and available in the basement",
12979066,Sunny Quiet Room in Clean Modern Apartment,46887895957,verified,Nick,Manhattan,East Harlem,40.798770000000005,-73.93964,United States,US,False,strict,Private room,2021,"$1,110 ",$222 ,3,21,5/21/2019,1.14,1,2,9,"No smoking, no showering after 10pm, no shoes in the house we can provide slippers, no loud music please, no late check in after 9pm",
12979618,LANDMARK TOWNHOUSE IN HISTORIC DISTRICT,45697280579,verified,Susan,Manhattan,Washington Heights,40.8339,-73.9383,United States,US,False,flexible,Entire home/apt,2022,$158 ,$32 ,4,75,6/17/2019,2.64,1,1,166,"ANDREA'S HOUSE RULES:  ** All overnight guests must be booked through Airbnb. If you plan to have visitors during your stay, please check with us beforehand.  ** Urban Oasis is a NO-SHOES space. There is a bench just inside the door where you can sit and remove your shoes. PLEASE BRING SLIPPERS or inside shoes if it is your preference for inside.  ** Please help us avoid any staining and damage to the furniture & linens by keeping food and beverages out of the bed. [**For MAKEUP REMOVAL please use the wipes provided and/or the dark washcloth.] ** AFTER CHECK-OUT, I'm happy to post forgotten items. There is a $25 (plus postage) fee for this service. Should you need this, the extra fee goes through the Airbnb Resolution Center.  ** Please use the PAPER TOWELS from your kitchen area to clean up messes that could stain our whites  ** Enjoy our apartment and please leave it clean & tidy as you found it  ** Thank you for not smoking inside. If you must, please do so outside. There is an asht",
12980171,Cozy apartment near JFK,88228007421,unconfirmed,Yessenia,Queens,Howard Beach,40.66406,-73.84599,United States,US,False,flexible,Entire home/apt,2005,$59 ,$12 ,7,37,1/2/2019,1.42,2,1,0,"Reasonably quiet after 9.  Having said that, I should note that the walls of this 145 year old mansion are thick, so average noise will not travel beyond your suite.  So sorry, but no burning of candles.",
12980723,Cozy Bedroom and Private Bath in Spacious Duplex,53298749459,verified,Zandelle,Brooklyn,East Flatbush,40.64841,-73.95178,United States,US,False,flexible,Private room,2015,$927 ,$185 ,4,27,6/8/2019,0.95,2,2,54,"The unit is a two unit condo.  Noise needs to be reduced after 11pm.  Unit is no smoking, any smoking must be done in the back yard area.  No pets are allowed.  Security deposit paid up front  covers any damaged items.  The deposit will be refunded after inspection of the unit.  Cleaning fee of $135 will be assessed for basic cleaning of the unit.  Excessive cleaning with be subject to a greater fee, taken from the security deposit.  ",
12981275,Small room in Queens,97128121457,unconfirmed,Berat,Queens,Rego Park,40.72749,-73.86035,United States,US,False,flexible,Private room,2008,$569 ,$114 ,1,61,6/8/2019,2.17,2,3,361,"We try hard to make our home lovely, and ask you to treat it with respect.  The only other rules are no guests, pets, or smoking in the apartment.",
12981828,Standard New York girls room,48926044614,verified,Lei,Manhattan,Roosevelt Island,40.76437,-73.94844,United States,US,False,strict,Private room,2013,$711 ,$142 ,1,0,,,3,1,88,"Please clean after yourself, wipe spilled water after using the bathroom, do not smoke in the apartment and treat the place as you would treat your home! Please let us know about pets or service animals in advance.",
12982380,2 bedroom apt. in Manhattan-Gramercy apt building,21198647793,unconfirmed,Deborah,Manhattan,Gramercy,40.735209999999995,-73.98147,United States,US,False,flexible,Entire home/apt,2013,$388 ,$78 ,20,25,7/5/2019,1.06,4,2,62,No smoking.  Please keep cats out of bedrooms and bathroom to keep them clean.  Do not let cats outside.  Please make sure front door is locked behind you when entering the house.,
12982932,Swanky Bushwick Penthouse,63631717184,verified,Josh,Brooklyn,Bedford-Stuyvesant,40.69507,-73.93426,United States,US,False,flexible,Private room,2021,$369 ,$74 ,30,11,9/30/2017,0.39,3,1,87,Please no smoking in the house.  We are quiet folks who need to get up early for work/school.   On the weekends we're very busy usually but enjoy sharing morning coffee/tea with guests and offering our ideas for how to spend the day.   The house is very clean but comfortable.   ,
12983485,Safe and Convinient rooms close to NYC.,35309673465,unconfirmed,Feather Factory Hotel,Queens,Long Island City,40.74454,-73.94015999999999,United States,US,True,strict,Private room,2011,$283 ,$57 ,1,35,5/27/2019,1.23,5,2,364,There is no parking on my street for guests. You must park on the adjacent streets. No Smoking in the unit.  We have a dog named Daphne so no other pets allowed. We are an active family and might not be available during your stay. Lock the door when you come and go. Leave the room as you found it. Let me know if you have any issues or questions.,
12984037,Amazing Loft in the heart of Williamsburg,36341632254,verified,Daniel,Brooklyn,Williamsburg,40.71269,-73.96409,United States,US,False,strict,Private room,2012,$970 ,$194 ,14,3,4/30/2018,0.11,4,1,277,,
12984589,Khimani's Pad,90323912989,verified,Shabari,Brooklyn,East Flatbush,40.6425,-73.94293,United States,US,False,strict,Entire home/apt,2009,$771 ,$154 ,2,11,7/30/2017,0.39,4,1,0,"Shoes off please Cat can go in or out as he desires, don't worry if you let him out No smoking No drugs or excessive alcohol No pets Please do not light candles We will provide a small basket for your toiletries to bring to and from the bathroom. Please discuss any guests you bring into the household beyond those on the reservation with Orion. No excessive noise and conversations, particularly in the stairwell.",
12985141,Royal Suite at Northern Lights Mansion,26453781095,unconfirmed,Diane,Manhattan,Harlem,40.80825,-73.95004,United States,US,False,strict,Private room,2005,$731 ,$146 ,1,13,10/3/2018,0.62,1,2,361,This is a non smoking house.  Quiet hours are from 10pm until 8am.  Cars must be parked within fence so as not to block neighbors driveway.  One parking spot only per room. Please don't use the kitchen for cooking as cleanliness becomes difficult to maintain with the velocity of guests that we host. We welcome you to have breakfast at your leisure.  Please place dirty dishes in the dishwasher unless it’s full of clean dishes!,
12985694,1B Large studio in Williamsburg with terrace,15903054170,unconfirmed,Krzysztof,Brooklyn,Williamsburg,40.71942,-73.94272,United States,US,True,strict,Entire home/apt,2016,$312 ,$62 ,30,6,1/19/2019,0.22,5,8,156,"Please respect our neighbors and keep the noise level at a respectful level. While we hear very little from our downstairs neighbor, she hears our sounds easily.",
12986246,Spacious Bed and Bathroom in Brooklyn,52914691044,verified,Corley,Brooklyn,Sheepshead Bay,40.60913,-73.95254,United States,US,False,flexible,Private room,2017,$406 ,$81 ,1,1,2/25/2017,0.03,2,1,0,THIS IS A NON-SMOKING RESIDENCE. NO Children under the age of 16  Smoking is permitted on your private deck only. Quiet hours are from 11:00 p.m. - 7:00 a.m. No pets allowed. Be respectful of your neighbors.,
12986798,Couch in Harlem Harvey Refugees only,63789927041,verified,Morgan,Manhattan,Harlem,40.81302,-73.95349,United States,US,True,moderate,Shared room,2008,"$1,168 ",$234 ,1,0,,,5,1,0,1. no pets 2. no smoking 3. no use of fireplace ,
12987351,Private room in Harlem,32698214169,unconfirmed,Laetitia,Manhattan,Harlem,40.8255,-73.9435,United States,US,False,moderate,Private room,2011,$315 ,$63 ,1,8,5/14/2019,0.28,4,2,293,Just general respect for the place and my neighbors. Be aware about noise on the back deck in the evening.,
12987903,Cozy colorful kitchenette...,94794327675,verified,Marlene,Brooklyn,Bedford-Stuyvesant,40.689040000000006,-73.92981999999999,United States,US,True,strict,Entire home/apt,2020,$824 ,$165 ,15,0,,,4,1,42,"Enjoy your stay, and please take care of the apartment like it's your own home. No parties and no smoking please.",
12988455,Cute Private Room in UWS Apartment!,64499241108,unconfirmed,Shelby,Manhattan,Upper West Side,40.79215,-73.97108,United States,US,False,flexible,Private room,2014,$412 ,$82 ,1,0,,,3,1,0,"SMOKING: Not allowed anywhere on the property! Violation of this rule WILL result in an added cleaning fee. DOORS: Doors to the condo and building are to remain CLOSED and LOCKED at all times. PARKING: If you need a space to park, please let me know immediately! I have one space available and it can accommodate 1-car only. The street is parking by permit only.  You will be ticketed if you try to park there during the day (MON - FRI). There is a pay lot at the end of my street if you are traveling with two cars. The cost is under $10 a day. NOISE: Please be respectful of the community and my neighbors and keep noise levels to a minimum at all times. KITCHEN:  Anything in the kitchen (spices, oils, things in the fridge, etc.) are yours to use. TOWELS & LINENS: The condo has plenty of towels and linens. Please be conscious of the environment and try to limit the amount of towels you use during your stay.",
12989008,Clean and Comfortable,71651825412,verified,Liza,Brooklyn,Greenpoint,40.72214,-73.93725,United States,US,True,strict,Entire home/apt,2013,$427 ,$85 ,1,162,6/24/2019,5.7,3,1,1,,
12989560,1 BR Contemporary Luxury Apartment w W/D in UWS,35603672154,verified,Izi,Manhattan,Upper West Side,40.78688,-73.97403,United States,US,False,flexible,Entire home/apt,2011,$583 ,$117 ,30,3,10/22/2018,0.12,2,8,346,This is our home and we want guests who respect our privacy and the fact that we are two working parents with kids. We can usually be flexible with check-in and check-out times so please let us know if you have any particular needs.,
12990112,"Private Sunny Room in Williamsburg, Brooklyn - NY",63106670271,unconfirmed,Gary,Brooklyn,Williamsburg,40.70818,-73.94951999999999,United States,US,True,moderate,Private room,2005,$736 ,$147 ,2,4,1/2/2019,0.14,5,2,0,"This is a non-smoking, pet friendly house. Please don't let the cats out.",
12990664,Huge apt in heart of Williamsburg,3218797706,unconfirmed,David,Brooklyn,Williamsburg,40.71447,-73.96234,United States,US,True,flexible,Entire home/apt,2006,"$1,141 ",$228 ,7,3,6/12/2019,0.12,3,1,43,No parties no loud music any issues please call,
12991217,Small Cozy Room in Herald Square,25209484216,unconfirmed,Chelsea,Manhattan,Midtown,40.750009999999996,-73.98629,United States,US,True,flexible,Private room,2019,$449 ,$90 ,300,1,3/25/2017,0.04,1,1,89,,
12991769,Charming House!!,28153701309,unconfirmed,Antonio,Queens,Long Island City,40.752759999999995,-73.93101999999999,United States,US,True,flexible,Private room,2005,$929 ,$186 ,3,48,6/22/2019,1.72,4,3,332,"Check-in time can sometimes be flexible and we can provide advice for luggage storage if needed. No smokers please. Please do not spray perfumes, colognes or after-shaves as Nina has allergies.  Thanks for understanding. No eating in the bedroom.  Enjoy your stay!",
12992321,Cozy room w balcony in penthouse w private terrace,232268189,unconfirmed,Juan Pablo,Manhattan,Harlem,40.811609999999995,-73.94394,United States,US,True,flexible,Private room,2010,$163 ,$33 ,5,2,10/15/2017,0.07,3,1,0,"Earlier than 1pm check-in may be an option, will accommodate when possible.   Mutual civility and respect make life simple.  I tend to turn in by 10pm - so this not a great location for very  late night check-ins.  Not a good situation for coming and going into the small hours. Quiet after 10pm.",
12992874,Private room in Bushwick close to Subway,4469868345,unconfirmed,Sucharita,Brooklyn,Bushwick,40.69601,-73.9069,United States,US,True,strict,Private room,2017,$138 ,$28 ,15,2,5/7/2017,0.07,5,1,0,"People live downstairs, so please don't walk around wearing hard shoes, be quiet on the stairway, and quiet down after 11:00. No candles in the apartment. Please carefully make sure the front door clicks shut when you come or go! Thank you!",
12993426,Perfectly NYC,70879463134,unconfirmed,Maggie,Manhattan,Hell's Kitchen,40.76654,-73.98812,United States,US,False,strict,Private room,2021,$306 ,$61 ,6,1,12/17/2018,0.15,5,3,8,,
12993978,Ideal family spot in the upper west,9967845895,unconfirmed,Eldad,Manhattan,Upper West Side,40.79456,-73.96853,United States,US,False,flexible,Entire home/apt,2013,$382 ,$76 ,6,5,4/24/2019,0.19,3,1,108,"Kid friendly if you bring your own pack n play or crib. IF YOU HAVE ALLERGIES PLEASE LET US KNOW. There is a dog who lives here, who will not be present for your stay, but who might have left behind some dander that could make you sad!",
12994531,Sunny room in European-style apartment,55970239086,unconfirmed,Bart,Brooklyn,Prospect Heights,40.67613,-73.97095,United States,US,True,moderate,Private room,2019,$978 ,$196 ,2,16,6/27/2018,0.57,2,1,6,"We would love to hear a bit about you and what brings you to Boston before accepting any reservations. Please make sure your profile is filled out (including a clear picture of you), and your online and offline verifications are complete before you submit a reservation request so we have an idea of who you are.  Please be respectful of my home and other guests - clean up after yourself, keep your toiletries neat and organized in the shared bathroom, no smoking indoors, and please remove your shoes upon entering.   I have coffee and tea for guests, and will leave out some basic breakfast items like snack bars and fresh fruit, however if you are planning on using the kitchen during your stay I ask that you provide your own food and drink.   Please do not bring additional guests home without express prior permission from the host.   Sorry, no pets allowed.",
12995083,Great Loft space in the Heart of Bushwick,82505160332,unconfirmed,Michael,Brooklyn,Bushwick,40.6975,-73.92998,United States,US,True,flexible,Private room,2007,$260 ,$52 ,4,15,6/16/2019,1.05,5,1,35,"-NO smoking inside. You are welcome to smoke outside, but please be respectful if the kids are in the yard or garden. -NO candles or incense please! The gas stove should be the only indoor flame.  -We ask guests to maintain quiet from 9pm-9am and be respectful of noise levels during the day. You are welcome to have a few friends over for dinner, and we love noisy kids, but loud music or loud parties do not work well in this space.  -The original house and foundation are over 150 years old, and although we strive to keep it very clean the occasional mouse or animal has found it's way in (mostly behind the walls, so you might hear scratching although we are trying to seal all the foundation holes), so please keep food mess put away. -Please clean up messes that could stain or damage our carpets, furniture or bathroom. Hair dyeing and hair cuts are not allowed in the apartment as the wood and claw foot tub can stain very easily. -Please remove muddy, snowy or shoes with anything on them t",
12995635,Studio Apartment in a Doorman Building,54821606892,unconfirmed,Michael,Manhattan,Flatiron District,40.74252,-73.991,United States,US,True,flexible,Entire home/apt,2016,$823 ,$165 ,1,2,3/27/2017,0.07,4,1,0,Please treat my home with the love and care you would give your own.,
12996187,RM,29057954185,unconfirmed,Rachel,Queens,South Ozone Park,40.666540000000005,-73.81219,United States,US,False,moderate,Private room,2019,$731 ,$146 ,10,1,8/11/2018,0.09,5,4,300,- Animaux sur place (lapins) - respect du voisinage - Acces à la chambre des autres locataires interdit ,
12996740,Spacious West Village 1 bed!,14178795649,unconfirmed,Stephen,Manhattan,West Village,40.73773,-74.00180999999999,United States,US,False,moderate,Entire home/apt,2009,$688 ,$138 ,3,2,6/25/2017,0.08,3,1,0,"No candles. Close and lock windows when you leave the house. Clean up after yourself in the bathroom and the kitchen. Mutual respect and have fun! If you want to have an event or party, let's check in about it first.",
12997292,Bedroom Upper West Side 10min walk to Central Park,86116246425,verified,Kyle,Manhattan,Upper West Side,40.79358,-73.97452,United States,US,False,moderate,Private room,2005,$65 ,$13 ,4,3,11/5/2017,0.11,2,1,0,Guests are liable for any damage to the unit or property. Guests assume all personal liability and risk for injury to themselves and others during their stay.,
12997844,Cozy room in prime williamsburg!,57400034852,unconfirmed,Sahar,Brooklyn,Williamsburg,40.71738,-73.94158,United States,US,False,flexible,Private room,2022,$818 ,$164 ,2,61,6/22/2019,2.14,5,3,42,"Guests to be reasonable; don't make late-night and AM noise,  ASK about having pets-- dogs usually OK; cats (due to allergy) usually not OK Children welcome Shared bath has never been a problem No smoking inside. Washer and Line for drying available. Pls. use fridge/stove, etc.",
12998397,Harlem Charm,68788438406,unconfirmed,Jing,Manhattan,Harlem,40.81446,-73.9379,United States,US,False,flexible,Entire home/apt,2012,$371 ,$74 ,3,9,6/22/2019,0.35,1,1,127,"-Remove shoes -be sure to lock the front door when entering or leaving the house -be reasonably quiet during sleeping hours - clean up after yourself in common areas like kitchen and bathroom -Good communication is key - There may be other guests staying and you will be sharing the bathroom with the host and one other guest. Please tell me a little bit about yourself and your purpose for the trip. Are you traveling for work, visiting friends in this area, or a tourist on vacation? This is a friendly household, reasonably quiet. -We expect guests to be reasonably quiet coming in and out before (9AM and after 10PM.  -No smoking -No pets - For safety reasons please do not invite other people to our place.  -Ask if you need anything, I will be providing you with towels, shampoo, conditioner, body wash, lotion, hair dryer. Self serve breakfast items will be provided as well, Coffee, tea, milk, half and half, yogurt, english muffins, with jam and butter, fresh fruits, instant oatmeal, and ce",
12998949,Sunny & Cozy 1BR/1BA Apartment In Upper NYC,80472705334,unconfirmed,Lin,Manhattan,Harlem,40.81767,-73.94051,United States,US,False,flexible,Entire home/apt,2005,$111 ,$22 ,2,65,6/9/2019,2.38,2,1,11,"No shoes in the house please - helps clean the house clean from dirt and germs. We don't charge a cleaning fee, so please leave the house in good shape.  Thank You!",
12999501,Private Bedroom in Bedstuy,32593635289,verified,Fiz,Brooklyn,Bedford-Stuyvesant,40.678090000000005,-73.9128,United States,US,True,flexible,Private room,2020,$68 ,$14 ,2,32,6/10/2018,1.15,5,1,0,No smoking inside or outside.  Please no food in the bedroom and keep the bedroom and bathroom neat.  Clean up after you are finished in the kitchen.,
13000054,"Cozy, Quiet Abode near Times Square",50311180717,unconfirmed,Nina,Manhattan,Hell's Kitchen,40.76051,-73.99183000000001,United States,US,False,strict,Entire home/apt,2003,$908 ,$182 ,2,12,8/14/2017,0.42,4,1,0,"No smoking, no extra guests and no parties.",
13000606,Spacious Three Bedroom Dream in Manhattan,16058250781,verified,BeautifulHarlem,Manhattan,Harlem,40.81968,-73.9458,United States,US,True,strict,Entire home/apt,2008,$539 ,$108 ,2,138,6/25/2019,4.83,1,2,45,"Quiet house, respectful of other units in the building.",
13001158,Private sunny room with private bathroom&entrance,38020776903,unconfirmed,Sophie,Queens,Ridgewood,40.69406,-73.90068000000001,United States,US,True,moderate,Private room,2015,$119 ,$24 ,5,75,7/1/2019,2.7,1,1,13,Guest should bring own towels; sheets are provided.,
13001710,Luxury Brooklyn Brownstone with Private Backyard,42731863128,verified,Kelly,Brooklyn,Bedford-Stuyvesant,40.684090000000005,-73.94154,United States,US,False,moderate,Entire home/apt,2011,$313 ,$63 ,3,33,6/24/2019,1.19,5,1,60,- We have school age children and request that our guests do not come and go and after 11pm on weekdays.,
13002263,Lovely Brooklyn Apt,25923324609,unconfirmed,Dalal,Brooklyn,Williamsburg,40.717040000000004,-73.95371,United States,US,False,flexible,Shared room,2017,$962 ,$192 ,3,0,,,4,1,0,,
13002815,Riverside Park Nest,10829156938,unconfirmed,Eric,Manhattan,Upper West Side,40.79517,-73.97555,United States,US,False,moderate,Entire home/apt,2010,$58 ,$12 ,30,5,6/6/2019,0.21,4,1,271,smoking outside no pets quiet friendly people preferred,
13003367,Private Room 1 in East Village (Small Window),10218730497,verified,Anna,Manhattan,East Village,40.723859999999995,-73.98105,United States,US,True,moderate,Private room,2005,$206 ,$41 ,1,134,6/7/2019,4.69,4,2,251,Quiet times are 9pm-8am. Please note that there are children in the house getting up for school at 6 am on Thursdays and Fridays. This is not the ideal place for late-sleepers! All overnight guests must be booked through Airbnb. If you plan to have visitors to your room please check with us beforehand. No smoking or drugs in the house. Moderate drinking ok. No candles or any open flames. ,
13003920,Studio Apt in Washington Square <3,15118971244,unconfirmed,Michael,Manhattan,Greenwich Village,40.73565,-73.99613000000001,United States,US,True,flexible,Entire home/apt,2014,$511 ,$102 ,7,3,5/28/2017,0.11,2,1,0,"All overnight guests must be booked through Airbnb. If you plan to have visitors to your room please check with us beforehand. No candles or other open flames. No smoking, or drugs in the house.  Moderate drinking ok. ",
13004472,Large Room in Garden Apartment,57368951377,unconfirmed,Mauro,Brooklyn,Bedford-Stuyvesant,40.683479999999996,-73.95123000000001,United States,US,True,flexible,Private room,2022,$954 ,$191 ,3,3,3/27/2017,0.11,2,1,0,"I'm a semi kosher vegetarian which means that I don't bring any pork or shelled fish into the house.  Chicken/Red meat is fine. Please confirm in your message that you're ok with this ""house rule.""",
13005024,Partitioned (shared) Cozy Studio in Pelham Bay,67937892494,unconfirmed,Jonathan,Bronx,Schuylerville,40.840340000000005,-73.83006999999999,United States,US,False,strict,Shared room,2006,"$1,011 ",$202 ,1,116,1/28/2019,4.09,3,1,5,"Follow the Golden Rule of treating others (homes) as you'd like (your home) to be treated.  Jamaica Plain is a neighborhood with a lot of families, so please no parties and maintain noise levels after 11 pm and before 7 am.  Pets are okay, smoking is not.",
13005577,Cherry Hill House - Blue Room,42011617683,unconfirmed,Jessica,Staten Island,St. George,40.637029999999996,-74.08423,United States,US,False,moderate,Private room,2019,"$1,008 ",$202 ,1,12,8/18/2017,0.42,1,2,0,- has to be clean!,
13006129,AWESOME LOCATION STEPS TO L TRAIN !,38621836662,verified,Jose,Brooklyn,Williamsburg,40.71354,-73.95011,United States,US,True,moderate,Private room,2007,$108 ,$22 ,28,19,5/31/2019,0.72,3,6,297,Be respectful of my roommates and my dogs.,
13006681,"Quiet room, view on garden 5m walk from J train",51514051658,verified,Fred,Brooklyn,Bedford-Stuyvesant,40.68759,-73.92356,United States,US,False,strict,Private room,2004,$341 ,$68 ,1,12,8/26/2018,0.42,4,3,0,"SUMMER SEASON: We have 2 A/C units in apartment, please do not move them, they must remain where they are for electrical reasons and they have to be on a certain angle as well. They are heavy too. Please turn them off when you are not in the condo. It’s an older home; don’t over charge electricity; the circuit breaker will pop if too much charged electricity... (Read utilities on the “house notes”) We ask our guests to be considerate of our neighbors and keep noise levels reasonable. This is a quiet neighborhood.",
13007233,PRIME LOCATION LORIMER L TRAIN,5849052245,unconfirmed,Jose,Brooklyn,Williamsburg,40.715309999999995,-73.94986,United States,US,False,moderate,Private room,2008,$918 ,$184 ,1,15,5/25/2019,0.56,2,6,325,"No candles. Close and lock windows when you leave the house. Clean up after yourself in the bathroom and the kitchen. Mutual respect and have fun! If you want to have an event or party, let's check in about it first.",
13007786,Large studio in hip area near major subway stop,14903699620,unconfirmed,Lawrence,Brooklyn,Crown Heights,40.67308,-73.95523,United States,US,True,flexible,Entire home/apt,2009,$812 ,$162 ,3,93,7/5/2019,4.16,2,1,89,"Relax and enjoy. Kitchen fully equipped. Linens and towels supplied.  No smoking. No candles. And, sorry, but this is a place for one adult or a couple. Not suitable for kids.",
13008338,Sunny Room on Hippest Block in Bushwick,44646825850,unconfirmed,Mackenzie,Brooklyn,Bushwick,40.70537,-73.92269,United States,US,True,moderate,Private room,2007,"$1,121 ",$224 ,2,2,3/14/2017,0.07,1,1,0,"As mentioned, this is a quiet neighborhood with a mix of young people starting out and families, and we have neighbors living above us in the house and on either side of the house.  As such, loud, late night parties will not be hosted here. We would hope that this house would serve as your staging place to a great Boston experience, but that the bulk of that experience will occur while you are out exploring the area!",
13008890,Cozy Private Room in Vibrant Williamsburg Apt,35363745922,verified,Sarah,Brooklyn,Williamsburg,40.71992,-73.9413,United States,US,False,moderate,Private room,2005,"$1,093 ",$219 ,1,82,5/5/2019,2.95,4,1,0,"Please review the terms of this rental agreement. Enclosed is our rental contract and rules. Please read carefully. If you have any questions please don't hesitate to contact me before submitting your payment. By submitting your deposit you agree to these terms, and the fee and dates outlined in the booking email. Please make sure that you have provided us with a cell phone for the primary contact as well as the EXACT number of occupants. Our rates are based on 2 person occupancy. We charge $25 per person, per night for additional persons.  The unit is located at 256 Amory St. #1, Jamaica Plain, MA If you need directions don’t hesitate to call Christine at (PHONE NUMBER HIDDEN). Your confirmation is as follows: Check-in: after 3pm EST (No early check-in please)  Check-out: by 10 am EST (No late check-outs please) Pre-arrival info will be emailed to you before check in. By submitting my deposit, I agree to all terms and conditions of this agreement RENTAL RULES AND REGULATIONS  Arthouse",
13009443,Spacious & Serene Williamsburg Room,54078690085,verified,Sarah,Brooklyn,Williamsburg,40.71499,-73.94634,United States,US,False,strict,Private room,2008,"$1,076 ",$215 ,1,14,7/14/2018,0.49,1,1,0,,
13009995,The Perfect Queens Getaway!,11953359599,unconfirmed,Jairo,Queens,Corona,40.74122,-73.85334,United States,US,True,strict,Entire home/apt,2012,"$1,029 ",$206 ,2,51,6/30/2019,1.9,1,1,242,"Rules are detailed in the House Manual, which was emailed to you. There is also a printed copy of the house manual in the condo. Summary: - no guests other than those arranged with host. - no parties. - no smoking. - please be respectful of our neighbors. - please follow the check-out list provided. Failure to follow house rules will result in forfeiture of your security deposit.",
13010547,Cozy Room in Manhattan,82937015606,verified,Christina,Manhattan,Harlem,40.82827,-73.94785,United States,US,True,strict,Private room,2009,$481 ,$96 ,1,17,10/8/2018,1.11,1,1,0,#NAME?,
13011100,Comfy Room in Chic Apartment,88288679859,unconfirmed,Haifa,Manhattan,Lower East Side,40.7127,-73.98857,United States,US,True,strict,Private room,2016,$415 ,$83 ,3,3,5/1/2019,0.21,1,2,166,,
13011652,"Cozy studio, private entrance & 3 min. JFK",26336380376,verified,Erroyl,Queens,Jamaica,40.66989,-73.77454,United States,US,True,flexible,Entire home/apt,2014,$145 ,$29 ,1,75,6/23/2019,2.66,4,1,294,,
13012204,Private Room near Columbia University,12672426842,verified,Pablo,Manhattan,Morningside Heights,40.81638,-73.95936999999999,United States,US,True,strict,Private room,2012,$100 ,$20 ,28,0,,,5,1,0,"No rules per say. I just ask that you respect my friendly ""building mates"" with noise levels. Oh, and no smoking or pets please!",
13012756,Room in Brooklyn With Central Air and Heat,68887899357,verified,Samuel,Brooklyn,Bushwick,40.69484,-73.92499000000001,United States,US,False,moderate,Private room,2011,$241 ,$48 ,12,0,,,1,1,0,"ANDREA’S HOUSE RULES:  ** The PINK ROOM is a room in a no-shoes house. Please [BRING] wear slippers or inside-only shoes.  ** All overnight guests must be booked through Airbnb. If you plan to have visitors during your stay, please check with us beforehand.  ** Please help us avoid any staining and damage to the furniture & linens by keeping food and beverages out of the bed. [**For MAKEUP REMOVAL please use the wipes provided and/or the dark washcloth.]  ** Enjoy our PINK ROOM, our BEVERAGE AREA in the living room, the bathroom, and please ** leave these spaces clean & tidy as you found  them **  ** As it states in the “Amenities” section on my listing, I do not provide breakfast (unless you have made a specific arrangement for meals with me). I do offer a few things to get you started. However, there are always several options for coffee in the freezer and other beverage materials in the beverage section.  ** Please hang coats and LEAVE shoes/boots in the hall  ** Please leave towels",
13013309,Gorgeous and Renovated Chelsea Apartment,36501566587,unconfirmed,Karen,Manhattan,Chelsea,40.74392,-73.9946,United States,US,True,strict,Entire home/apt,2022,$84 ,$17 ,4,0,,,3,1,0,No loud noise.  Calm pets ok.  Friendly welcome!,
13013861,Brooklyn Apartment,3657457234,verified,Austin,Brooklyn,Crown Heights,40.67519,-73.9402,United States,US,False,strict,Private room,2012,$570 ,$114 ,1,0,,,5,1,0,"No smoking, no loud parties. I would consider a pet, for an extra fee.",
13014413,Minimalist Room with a Spectacular view,68438842645,unconfirmed,Maria,Manhattan,Kips Bay,40.73695,-73.97336,United States,US,False,moderate,Private room,2005,$674 ,$135 ,2,37,6/2/2019,1.39,4,1,33,"House quiet hours are from 10 pm to 8 am.  We ask guests to simply be respectful and mindful that there are others living downstairs.  We also ask guests to remember that although you will have your own private space, this is not a hotel or even a room for rent, it is a private home that we will be sharing.  As such, we ask you to treat the apartment and its' contents as any guest would in a private home and to keep it clean and leave it as you find it.  There are no overnight guests in our home other than those on the actual reservtion. If there is a last minute situation, please check with us first.  There are no pets or smoking anywhere on the premises inside or out, or any other open flames.",
13014966,Brooklyn Nook perfectly located!,6678545030,unconfirmed,Matt,Brooklyn,Greenpoint,40.72398,-73.94978,United States,US,False,moderate,Entire home/apt,2022,$379 ,$76 ,2,115,7/7/2019,4.26,2,2,32,"Quiet time (including TV sound turned low) at 9:30 PM, though guests, of course, can come and go before and after that. Just be respectful that this is also a house where we live and work. Also, no smoking and no pets - thanks.",
13015518,Large one bedroom in historic Clinton Hill,76922527646,verified,John,Brooklyn,Clinton Hill,40.69478,-73.96126,United States,US,False,strict,Entire home/apt,2018,"$1,155 ",$231 ,3,34,7/5/2019,2.95,2,1,54,Respect our home and our house is your house. Checkout is 11 am at the end of your stay. You are welcome to leave your bags for the day. Please let us know when you plan to arrive. Depending on circumstances we can be very flexible.,
13016070,Luxury One Bedroom UWS,45041112999,verified,Mat,Manhattan,Upper West Side,40.79424,-73.96588,United States,US,True,flexible,Entire home/apt,2008,$839 ,$168 ,30,2,10/31/2018,0.11,3,10,338,"Please do not let any of the animals outside! Quiet hours are from 10 pm - 6:30 am on weekdays, 11 pm - 8:30 am on weekends. Please be considerate and clean up after yourself in the kitchen and bathroom, as they are shared. We use the shower in the shared bathroom, so we appreciate it if you would refrain from lingering there in the mornings. No smoking allowed anywhere on the premises.",
13016623,Beautiful duplex in Gramercy,15213046022,unconfirmed,Pilar,Manhattan,Gramercy,40.73746,-73.98338000000001,United States,US,True,moderate,Entire home/apt,2013,"$1,120 ",$224 ,120,2,8/13/2017,0.08,2,1,167,"We hope you will be nice to the dogs, quiet in your comings and goings and respectful of our Eco, vegetarian ways. Please take off your shoes when you come in and clean up after yourself.",
13017175,Bright and Sunny Room in Amazing Bushwick Apt,22713003125,verified,Gabriele,Brooklyn,Bushwick,40.70105,-73.91547,United States,US,True,flexible,Private room,2011,"$1,042 ",$208 ,1,0,,,2,3,0,Please be respectful of my things! I have a lot of stuff that I have collected over the years. Absolutely NO smoking.  This is a really relaxing space and the neighbors are all really cool.  -Pets are allowed,
13017727,Upper East Side Apartment,83500713351,verified,Ken,Manhattan,Upper East Side,40.78073,-73.95013,United States,US,True,strict,Entire home/apt,2014,"$1,055 ",$211 ,7,7,12/29/2017,0.27,4,1,0,Please be mindful after 23:00 in the kitchen or bathroom.,
13018279,Charming apartment in Manhattan!,95748332362,unconfirmed,Betina,Manhattan,Washington Heights,40.85338,-73.93231999999999,United States,US,False,strict,Private room,2007,$749 ,$150 ,3,71,6/15/2019,2.54,5,1,60,,
13018832,Homey funky eclectic rich of arts,41919038198,verified,Lou,Brooklyn,Crown Heights,40.67167,-73.93088,United States,US,True,moderate,Private room,2019,$220 ,$44 ,4,37,6/24/2019,1.29,2,1,84,,
13019384,Cozy 1 bedroom apt in Astoria NY,10674874563,unconfirmed,Franc,Queens,Astoria,40.76984,-73.91815,United States,US,False,strict,Entire home/apt,2009,$143 ,$29 ,4,0,,,3,1,83,1) We live in a quiet neighborhood so no loud noise after 10:00 pm.  2) No outside guests after 10:00 pm. 3) No overnight guests not listed on the reservation.,
13019936,Cozy sunny room 35 min to Time Square,29345987797,verified,Iris,Queens,Rego Park,40.72701,-73.87021999999999,United States,US,False,strict,Private room,2012,$321 ,$64 ,1,37,4/22/2018,1.3,1,4,0,,
13020489,Spacious & Charming Nolita 1 Bed,55019867525,unconfirmed,Jill,Manhattan,SoHo,40.72103,-73.99866,United States,US,False,flexible,Entire home/apt,2018,$954 ,$191 ,2,16,8/25/2018,0.57,3,1,0,No smoking please. Sorry but no pets. No drinking to excess. No drugs. No children or guests under 21. ,
13021041,Private apartment  in Hamilton Heights,54800179177,verified,Eileen,Manhattan,Harlem,40.8269,-73.93634,United States,US,True,flexible,Entire home/apt,2016,$487 ,$97 ,4,65,6/20/2019,2.3,4,1,48,"All outside doors including door to the backyard are to remain closed and locked at all times.   No smoking in any area including backyard and front porch. Quiet hours are from 10 pm to 8 am. 11:30 on weekend.  No parties or guests allowed in the property other than people who book the room.  No cooking. Cold foods, salads, sandwiches, microwaveable food only.  Clean after yourself.  Lost keys replacement $100 (to replace lock)",
13021593,Private Bedroom in East Williamsburg,75888036096,verified,Steven,Brooklyn,Williamsburg,40.70772,-73.94126,United States,US,False,moderate,Private room,2006,$746 ,$149 ,2,18,7/31/2017,0.63,2,1,0,"Check-in and check-out times are flexible. In general, afternoon/evening check-ins and morning/early afternoon check-outs are preferred. Guests are expected to be respectful and independent.  Guests are welcome to use the kitchen, and are asked to clean up after themselves.",
13022146,1 bedroom apt in 2 bridges/Chinatown,29550386197,unconfirmed,Pierre,Manhattan,Civic Center,40.71264,-73.99893,United States,US,True,strict,Entire home/apt,2020,$585 ,$117 ,2,12,3/15/2019,0.43,2,2,8,,
13022698,Cozy 2 Bedroom in Prime Location!,63954297970,unconfirmed,Dena,Manhattan,Midtown,40.74481,-73.98523,United States,US,True,flexible,Entire home/apt,2010,$920 ,$184 ,3,6,7/24/2017,0.23,4,1,0,"No smoking inside. Be tidy, we don't have a maid so treat our house like you'd want us to treat yours, simple really. Don't throw a ""rager"". Be respectful.",
13023250,"HUGE 1BR Apt, Varrazano promenade,night life& More",4592699473,unconfirmed,Ahmed,Brooklyn,Fort Hamilton,40.613640000000004,-74.0354,United States,US,True,moderate,Entire home/apt,2003,$502 ,$100 ,2,4,4/11/2019,0.42,3,1,313,,
13023802,Brooklyn Cave in the Neighb,72318018497,verified,Avon,Brooklyn,Canarsie,40.64458,-73.90285,United States,US,True,flexible,Entire home/apt,2011,"$1,033 ",$207 ,2,68,7/1/2019,3.5,2,1,240,THIS IS A NON-SMOKING RESIDENCE. NO Children under the age of 16  Smoking is permitted on the outside front porch deck only. Quiet hours are from 11:00 p.m. - 7:00 a.m. No pets allowed. Be respectful of your neighbors.,
13024355,Artist Home 5 minute walk to Metro 30min from JFK,49956635397,verified,Shirley,Brooklyn,Flatbush,40.633559999999996,-73.95073000000001,United States,US,True,flexible,Shared room,2008,"$1,042 ",$208 ,3,27,6/24/2019,1.25,5,2,1,"Shoes are removed at the door to keep the house clean; slippers will be provided.  Guests should be polite, courteous and respectful. Guests seeking to book 5 days or more must have a completed profile, at least three verifications and at least two reviews and/or references.  Exceptions to this policy may be granted individually as warranted.  Please write to inquire. There is no smoking allowed on the property. This is an environmentally friendly home and guests are encouraged to be sensitive to their use of natural resources.  For example, twenty-minute long showers are discouraged.",
13024907,"Hip, cozy apartment (with cat) in terrific Harlem!",75169247660,verified,Grace,Manhattan,Harlem,40.81108,-73.94682,United States,US,False,flexible,Entire home/apt,2005,$684 ,$137 ,2,2,6/4/2017,0.08,2,1,0,"Thanks for not smoking and leaving your pets at home! Thanks for keeping the house locked. Thanks for not throwing parties. And... all of the usual stuff that is just good common sense like using coasters and place mats and returning the apartment to the way it looked when you arrived. There is no parking in the driveway. At the end of your stay, please strip the beds and put the sheets in the pantry or on the bathroom floor. Towels can be put with the sheets. Trash and recycling pick up is on Tuesdays. If you are staying through a Tuesday, please put your garbage and recycling outside in the appropriate barrels Monday night or by 7:00 am on Tuesdays. THANKS!",
13025459,Spacious Bedroom in Williamsburg Duplex,53989132472,unconfirmed,Jackson,Brooklyn,Williamsburg,40.71397,-73.94572,United States,US,False,flexible,Private room,2013,$294 ,$59 ,2,0,,,1,1,0,We hope you’ll enjoy our Boston home and that you will care for it as we do. We do not allow pets or smoking in the house.,
13026012,Sun-drenched Charles Street studio!,12515267569,verified,Rebecca,Manhattan,West Village,40.73418,-74.00621,United States,US,True,moderate,Entire home/apt,2003,"$1,012 ",$202 ,9,0,,,1,1,0,"Please do not rent this house if you plan to party. This is a quiet house in a quiet neighborhood. Other than that, we are pretty laid back.",
13026564,Luxurious Manhattan 1 Bedroom,61376889666,verified,Kyle,Manhattan,Hell's Kitchen,40.76589,-73.98434,United States,US,False,moderate,Entire home/apt,2022,$906 ,$181 ,30,6,7/31/2018,0.23,1,23,365,"Non Smoking, No illicit Drug Usage. Keep loud music to a minimum. Soiled shoes please keel outside. Thank you.",
13027116,Haven in the Heights,85314734539,unconfirmed,Alexandra,Manhattan,Washington Heights,40.85321,-73.93596,United States,US,False,flexible,Shared room,2021,$960 ,$192 ,1,27,6/30/2019,0.95,3,1,33,- Quiet hours from 10 p.m - 7 a.m. - No loud parties or events - No illegal substance or activity,
13027669,PRIVATE BATHROOM ! PRIME LOCATION,70352994668,verified,Jose,Brooklyn,Williamsburg,40.7141,-73.95064,United States,US,True,flexible,Private room,2005,$251 ,$50 ,28,28,6/1/2019,1.01,5,6,303,"You will be sharing a bathroom, so you must be considerate of time spent in the bathroom in the morning when getting ready. If you use the kitchen, please put the dirty cups, bowls, plates, and silverware in the dirty dishes tub, and hand wash all of the pots, pans, and cooking tools you use. Please clean up any mess you may have made. Remember to turn on the fan when using the stove or oven so the fire alarm does not go off from the steam! Please only smoke outside, away from the apartment building, and dispose of your cigarettes responsibly. Checkout: Checkout is at 11:00 am, please inquire if you would like to check out later or leave your bags with us for the day. If we are not awake/home when you leave, please leave the passes on the desk in your room, lock the front door behind you, and put your keys in the lock box behind the front stair case.",
13028221,Manhattan | Luxurious 1 Bedroom,68833538488,unconfirmed,Kyle,Manhattan,Hell's Kitchen,40.757659999999994,-73.99089000000001,United States,US,True,moderate,Entire home/apt,2019,$573 ,$115 ,30,0,,,2,23,364,"Please only smoke across the street, (smoke travels) there's a lovely green space and a bus shelter if raining Please, no bikes on the fence in front of the house. There's plenty of places to park the bikes. I have a wonderful dog, he's submissive with people, unfortunately aggressive with other dogs. I'm unable to welcome other dogs in the space.",
13028773,High Tower Luxurious 1 Bedroom in Times Square,61926864571,verified,Kyle,Manhattan,Hell's Kitchen,40.759190000000004,-73.99229,United States,US,False,moderate,Entire home/apt,2011,$398 ,$80 ,30,1,8/3/2017,0.04,1,23,115,"No candles. Close and lock windows when you leave the house. Please clean up after yourself in the bathroom and the kitchen. And have fun! If you want to have an event or party, we are open to that, but we should check in about that before you make plans.",
13029325,Luxurious 1 Bedroom in Times Square,61284725124,unconfirmed,Kyle,Manhattan,Hell's Kitchen,40.7593,-73.99229,United States,US,False,flexible,Entire home/apt,2021,"$1,029 ",$206 ,30,0,,,4,23,364,You have a private room but sounds should be moderate for me and the neighbors  Quiet at 11pm   No Pets  No Parties  No Smoking,
13029878,❤ of Manhattan | Fantastic 1 Bedroom,12182915318,verified,Kyle,Manhattan,Midtown,40.76501,-73.98312,United States,US,False,strict,Entire home/apt,2017,$500 ,$100 ,30,0,,,4,23,364,"Maximum of 2 guests staying in the studio.  No smoking anywhere in or outside the property.  No pets anywhere in or outside the property.  No parties anywhere in or outside the property.  No parking on our property or in the driveways.  No frying food.  No extreme temperature settings.   Any broken house rules, including evidence of cigarette butts, ashes, odors, stained linens, damaged furniture, or missing items will result in loss of deposit. All doors must be locked, and all lights should be turned off each time you leave. We kindly ask that you respect our property and our neighbors in this wonderful community.",
13030430,❤ of Manhattan | Fantastic 1 Bedroom,762335829,verified,Kyle,Manhattan,Hell's Kitchen,40.76485,-73.98436,United States,US,False,flexible,Entire home/apt,2013,$471 ,$94 ,30,0,,,4,23,364,"1.Check-ins Monday – Friday will preferably only happen between 6pm – 10:30pm because we work full-time. However, exceptions can be made. If you really need to check in at another time we are flexible and can try to coordinate accordingly.   2.We are only renting the bottom floor where the private room and bathroom is. The rest of the house is off limits for short stays. If you are staying for more than 1 week and would like to have access to cooking and other areas of the house please let us know. We are pretty easy going.  3.No smoking, No animals, No house parties.  4.The maximum number of guests allowed in this room is two. (Both have to be registered on the original reservation). Surprise additional guests are not allowed.  5.We are trustworthy, clean and respectful and expect our guests to be the same.  6.This is a calm, quiet neighborhood, so we ask that guests please adjust their volumes accordingly.  7.I ask that guests leave rooms the same way they found them, making sure to ",
13030982,❤ of Manhattan | Fantastic 1 Bedroom,43427426473,unconfirmed,Kyle,Manhattan,Theater District,40.76321,-73.98356,United States,US,False,moderate,Entire home/apt,2007,$981 ,$196 ,30,0,,,4,23,364,"We live on the 3rd floor of a 3-family house, so please minimize noise for our neighbors, especially at night and when entering or exiting.  Our bedroom and office are not for guest use.",
13031535,❤ of Manhattan | Central Park | Fantastic 1 Bed,6166905444,verified,Kyle,Manhattan,Hell's Kitchen,40.76536,-73.98469,United States,US,True,moderate,Entire home/apt,2022,$977 ,$195 ,30,0,,,5,23,364,"Please clean after yourself, wipe spilled water after using the bathroom, do not smoke in the apartment and treat the place as you would treat your home! Please let us know about pets or service animals in advance.",
13032087,4A-,14710670535,verified,Nina,Manhattan,Midtown,40.74896,-73.98277,United States,US,True,flexible,Entire home/apt,2019,$225 ,$45 ,30,8,5/1/2019,0.31,4,14,203,No smoking  Not pets  No parties or events No candles,
13032639,Large two bedroom in the middle of NYC apt. 3C,39208013629,unconfirmed,Nina,Manhattan,Murray Hill,40.749159999999996,-73.98115,United States,US,False,flexible,Entire home/apt,2008,"$1,119 ",$224 ,30,5,5/12/2019,0.22,4,14,339,"You will be sharing a bathroom, so you must be considerate of time spent in the bathroom in the morning when getting ready. If you use the kitchen, please put the dirty cups, bowls, plates, and silverware in the dirty dishes tub, and hand wash all of the pots, pans, and cooking tools you use. Please clean up any mess you may have made. Remember to turn on the fan when using the stove or oven so the fire alarm does not go off from the steam! Please only smoke outside, away from the apartment building, and dispose of your cigarettes responsibly. Checkout: Checkout is at 11:00 am, please inquire if you would like to check out later or leave your bags with us for the day. If we are not awake/home when you leave, please leave the passes on the desk in your room, lock the front door behind you, and put your keys in the lock box behind the front stair case.",
13033192,Amazing Apartment | Skyline Views,10854476262,verified,Kyle,Manhattan,Murray Hill,40.745259999999995,-73.97679000000001,United States,US,True,flexible,Entire home/apt,2006,$399 ,$80 ,30,1,5/26/2017,0.04,5,23,365,"We do not allow any pets on the property to protect our guests and family from allergies.  Please do not park in our driveway. You may find on-street parking available on Spring Park Ave or Rockview St. There is no smoking on the property. Please feel free to take a walk around our lovely neighborhood if you need a smoke. Otherwise we have no real ""rules"" except common courtesy please. We always want our guests to feel as much at home as possible, so feel free to do so. Should you need something or have a question, just ask! We are always happy to help. Most of all, enjoy your visit here in our studio!",
13033744,2C,73597821464,unconfirmed,Nina,Manhattan,Midtown,40.7502,-73.98289,United States,US,True,strict,Entire home/apt,2006,$689 ,$138 ,30,3,12/17/2018,0.11,3,14,332,"No smoking in the house and no late noises, please!   ",
13034296,MAGNIFICENT apartment in Williamsburg with Balcony,15155289692,unconfirmed,Gaël-Etienne,Brooklyn,Williamsburg,40.71397,-73.94873,United States,US,True,flexible,Entire home/apt,2018,"$1,166 ",$233 ,2,22,9/9/2018,0.78,4,1,0,#NAME?,
13034848,Amazing 1 Bedroom | 1 Bedroom | Skyline View,45121886589,unconfirmed,Kyle,Manhattan,Murray Hill,40.749190000000006,-73.97244,United States,US,True,strict,Entire home/apt,2022,$220 ,$44 ,30,0,,,2,23,365,No smoking or open flames permitted on the property. No drugs.  No pets. Notify host of extra people ($10 charge per night per extra person).,
13035401,Private room in shared apartment for 1,76229228205,verified,Ian,Manhattan,Greenwich Village,40.734840000000005,-73.99614,United States,US,False,moderate,Private room,2004,$630 ,$126 ,1,1,8/31/2017,0.04,3,1,0,Please treat our house as we'd treat yours: with care and respect.,
13035953,Extra Large 1BR by Park Ave in Upper East Side,34231883381,verified,Tny,Manhattan,Upper East Side,40.76876,-73.96686,United States,US,True,strict,Entire home/apt,2021,$714 ,$143 ,30,0,,,1,12,58,"Please be respectful to other members of this home., no parties or loud music is permitted. You can use a porch on the back of the house. No smoking or candles is allowed inside or outside the house,  Please strip the bed and put linen and towels into laundry basket.",
13036505,11 Minutes to Manhattan,23761034434,unconfirmed,Jamiel,Queens,Astoria,40.76101,-73.92464,United States,US,True,strict,Entire home/apt,2004,$558 ,$112 ,1,73,6/23/2019,2.75,5,1,273,- Noise to be kept to minimum level as to not to disturb others in the apartment or building between 11pm and 6:30am. - No cooking or storage of meat in the apartment (we are vegetarians) - No candles permitted  - Use the compost for non-animal organic waste and recycle all recyclables,
13037058,"2 bedroom apt in Brooklyn, downtown",60879471113,unconfirmed,Diane,Brooklyn,Fort Greene,40.693529999999996,-73.97431,United States,US,True,strict,Entire home/apt,2007,$477 ,$95 ,3,27,6/30/2019,1.0,3,1,303,,
13037610,1 BR Garden Apartment in Brooklyn Brownstone,86977826384,unconfirmed,Sharon And Dave,Brooklyn,South Slope,40.66587,-73.98206,United States,US,False,strict,Entire home/apt,2011,$791 ,$158 ,3,70,7/1/2019,2.58,1,1,89,"We want our guests to be comfortable and enjoy not just our house but our city.  To those ends we welcome inquiries about what to do and where to go.  Our guests should feel free to use the kitchen and living room and not feel confined to ""their room"". Store your food in the fridge, eat your meal on the terrace, read a book on the couch or hammock.  We request only your general consideration of living with others.  Our one hard and fast rule is: No smoking on the property. ",
13038162,BEST LOCATION IN SOHO AND SPACIOUS APARTMENT,47041155467,unconfirmed,Alonso,Manhattan,Little Italy,40.71942,-73.99694000000001,United States,US,True,flexible,Entire home/apt,2020,"$1,199 ",$240 ,1,67,1/20/2019,2.45,2,1,189,,
13038715,Cozy Room in TWO BEDROOM Apartment.,19684752512,verified,Kian,Brooklyn,Bedford-Stuyvesant,40.694990000000004,-73.94821999999999,United States,US,False,flexible,Private room,2015,$701 ,$140 ,5,42,6/2/2019,1.58,5,3,63,"Be respectable, try to keep the place clean (no wearing shoes in the house!), and no wild parties, please! No smoking, please. I only ask that you treat my home as you would treat your own! When leaving the apartment, please always lock both locks on the door. Please shut off all the lights, air conditioner, TV, etc. before you leave. Please take your shoes off inside the apartment.",
13039267,Divided Room in Financial District,94771407511,verified,Yaodong,Manhattan,Financial District,40.70817,-74.00511,United States,US,False,strict,Private room,2012,$813 ,$163 ,1,5,4/30/2017,0.17,3,1,0,,
13039819,Beautiful 3 BR- 2 Full Baths in Upper Manhattan,75249592070,verified,Sergio,Manhattan,Washington Heights,40.8513,-73.93681,United States,US,False,moderate,Entire home/apt,2003,$531 ,$106 ,30,7,3/19/2019,0.26,2,2,331,,
13040371,"简单的四房一厅两卫生间,位于北上远离开辆,走路四分钟到地铁站,交通便利
Simple bigroom",68421142502,unconfirmed,Hao,Queens,Woodhaven,40.69883,-73.85257,United States,US,False,flexible,Private room,2008,$881 ,$176 ,3,7,11/3/2018,0.4,2,1,365,"Since it's a vegetarian house, please don't bring meat or fish into the house! Smoking outside please.",
13040924,Renovated 4 BED 3.5 BATH BK Townhouse Triplex APT,46782944745,verified,Mike,Brooklyn,Williamsburg,40.71092,-73.96755,United States,US,True,strict,Entire home/apt,2009,$112 ,$22 ,2,76,6/15/2019,2.69,5,1,209,- No shoes in apartment - No parties - Enjoy yourself!,
13041476,Exciting New York Get Away,75767738017,unconfirmed,Telisha,Manhattan,Harlem,40.8178,-73.93774,United States,US,True,flexible,Private room,2018,"$1,069 ",$214 ,1,0,,,5,1,0,,
13042028,Prospect Heights Studio Apartment,43079893881,verified,Daniel,Brooklyn,Prospect Heights,40.67435,-73.96691,United States,US,False,strict,Entire home/apt,2022,"$1,115 ",$223 ,3,2,4/11/2017,0.07,3,1,0,"No smoking, no pets.",
13042581,Luxe Large Suite w/Views bathroom en suite,67452677857,verified,Cameron & Dione,Brooklyn,Downtown Brooklyn,40.6925,-73.98613,United States,US,False,strict,Private room,2015,$872 ,$174 ,3,28,6/9/2019,1.0,4,2,11,Our home is well cared for and loved. We would love to invite people who respect personal spaces and enjoy an exotic looking home. Please note that our home is a non-smoking home.,
13043133,Quiet & spacious east village/LES private bedroom,23923184323,unconfirmed,Ruishu,Manhattan,Lower East Side,40.721309999999995,-73.98508000000001,United States,US,True,moderate,Private room,2017,$877 ,$175 ,2,1,4/20/2019,0.37,5,1,0,"No drugs, no smoking, no pets (our dog is enough pet for us). Make sure the front door is shut securely when you come and go, as our dog Lucy likes to sneak out and explore when we're not looking! No additional guests or visitors without prior permission. If you'd like to have guests over please ask us first.",
13043685,Modern Sunlit Room w/ Balcony on Famous Street!,10643388049,unconfirmed,Zack,Manhattan,East Village,40.727779999999996,-73.98935999999999,United States,US,False,moderate,Private room,2021,$979 ,$196 ,4,2,5/29/2017,0.08,4,1,0,#NAME?,
13044238,Cozy West Harlem Abode,45352065141,verified,Sharron And Lenny,Manhattan,Harlem,40.82805,-73.94676,United States,US,False,strict,Entire home/apt,2007,$633 ,$127 ,2,10,7/5/2018,0.36,3,1,0,"No smoking, No animals—we already have enough! No house parties. The maximum number of guests allowed in this room is one. Additional guests are not allowed unless they're just stopping in for a brief visit—still, please do clear it with me first.  I am trustworthy, clean and respectful and I expect my guests to be the same.  This is a calm, quiet neighborhood, so we ask that guests please adjust their decibels accordingly.  I ask that guests leave rooms the same way  they found them, making sure to clean up after cooking, to take hair out of the drains, and to put trash in trashcans.  Please  make yourself at home and feel free to use all my kitchen stuff.  No pets allowed. No smoking. No storage permitted outside of rented room, outside of basket and pockets on shower curtain for toiletries in bathroom that I'll  point out to you.  Guests will please keep perishables in a college-size refrigerator dedicated to their use in the kitchen.",
13044790,4BR Brooklyn Apartment Minutes from City Life!,26472640295,verified,Evolve,Brooklyn,East Flatbush,40.64261,-73.94334,United States,US,True,strict,Entire home/apt,2014,$336 ,$67 ,2,1,8/20/2017,0.04,5,1,0,"We expect guests to be clean, neat and respectful. Communication is very important. No smoking indoors and no pets.",
13045342,Bklyn Brownstone 2BD APT Private Spotless wAC+HBO,83988887152,unconfirmed,Evan & Erika,Brooklyn,Bedford-Stuyvesant,40.6875,-73.92541999999999,United States,US,True,strict,Entire home/apt,2007,"$1,078 ",$216 ,2,131,7/5/2019,5.23,4,1,159,"Greetings! Check-in: 5pm onwards - please contact me to schedule a time Check-out: 11am If you need an earlier or later check in time, please let me know, and I will do my best to accommodate if I can. Please contact me through the Airbnb prior to booking. Please do not hesitate to call or text or both if you need assistance during your stay. I only accept reservations from Airbnb members that have:  -A profile photo showing their face :-) -ID verification No smoking in the house or on the property, please. You may use coffee maker & electric kettle for tea/coffee and you are welcome to store things in the fridge. No guests allowed in the house but those who have a reservation. If you need to reach me for any reason before or during your stay, please do not hesitate to text me or call any time. We look forward to meeting you!",
13045894,Lovely Home Near Fort Tryon Park & the Cloisters,15221963548,unconfirmed,Brenton,Manhattan,Inwood,40.86488,-73.92922,United States,US,False,strict,Entire home/apt,2007,$901 ,$180 ,14,7,9/18/2018,0.27,5,1,13,Please do not smoke in the house. If you smoke outside please be curteous and dispose of your cigarette butts. We have small children and would rather not have them picking those up outside. Please also keep the noise level down and be respectful of our neighbors.,
13046447,PERFECT East Village Location****,8803986648,verified,Danielle,Manhattan,Gramercy,40.7317,-73.9833,United States,US,True,flexible,Private room,2004,$552 ,$110 ,3,9,10/15/2017,0.32,1,2,0,"Please no smoking inside.  During the warmer months, please bring your conversations inside after 10 pm on weekdays and 11 pm on weekends. No gatherings/parties with more than 6 outside guests without my expressed consent are not allowed.  Guests who ignore this rule will lose their security deposit.  I'm sorry about this but the neighbors have complained about the noise!  Treat the house as your own so leave it in the same condition as you found it.  Thanks!",
13046999,Large Room with Private Bathroom (Long Term+++),93650799974,unconfirmed,Vernon,Bronx,Fordham,40.85929,-73.90048,United States,US,False,moderate,Private room,2010,$93 ,$19 ,22,10,4/13/2019,0.36,3,2,186,"Check-In is 3pm.  Check-Out is 12 Noon.  In order to keep the apartment clean and tidy, we ask all guests to adhere to these Check-In and Check-Out times. No parties. No pets. No smoking.   Yes, enjoying yourself.",
13047551,Quiet room with exposed brick,87983423679,verified,Susan,Manhattan,East Harlem,40.7865,-73.94406,United States,US,True,moderate,Private room,2004,$730 ,$146 ,16,7,10/31/2017,0.28,2,3,0,,
13048104,Large bedroom in the heart of the East Village,88326947109,verified,Nicholas,Manhattan,East Village,40.7281,-73.9839,United States,US,False,flexible,Private room,2015,$447 ,$89 ,1,26,12/28/2018,0.91,1,3,0,,
