id,NAME,host id,host_identity_verified,host name,neighbourhood group,neighbourhood,lat,long,country,country code,instant_bookable,cancellation_policy,room type,Construction year,price,service fee,minimum nights,number of reviews,last review,reviews per month,review rate number,calculated host listings count,availability 365,house_rules,license
26351906,Nice and cozy ✌ holiday apartment✿,49234536277,verified,Alex,Manhattan,Midtown,40.75869,-73.96725,United States,US,True,flexible,Entire home/apt,2006,$946 ,$189 ,5,12,7/1/2019,7.83,3,1,6,"No drinking, no smoking, no parties, no pets, no drugs, no girlfriends or boyfriends moving in. Looking for a quiet, studious, clean person who is looking for a comfortable and affordable place to stay during the school year, work  or vacation stay.   No children please.",
26352458,The City View- 2 Bed 2 Bath,80215310439,verified,Adam,Manhattan,Murray Hill,40.7443,-73.97277,United States,US,True,strict,Entire home/apt,2006,$886 ,$177 ,30,0,,,4,23,358,"Please, no smoking inside the house or on the property. Cleanliness is a must, as we would be sharing a bathroom & kitchen. It is expected that you would clean the tub after each use; be professional & respectful at all times. No guests are allowed to stay overnight if not checked-in prior to your arrival and have valid identification upon arrival . We will all clean up the kitchen as we use it (dishwasher is available). Please have identification to verify your identity. No pets.",
26353011,DUPLUXURY Apartment 5 Star Duplex,97903750197,verified,Sayonara,Manhattan,Chelsea,40.750640000000004,-73.99566,United States,US,True,strict,Entire home/apt,2016,$355 ,$71 ,1,0,,,3,1,355,"No Smoking. NO pets. Please take off shoes when entering the apartment. NO PARTIES or HOSTING EVENTS, if a guests hosts an event or party, guests may be asked to leave.",
26353563,2 Bedroom 1 Bathroom Marry Hill,77223732243,verified,Adam,Manhattan,Murray Hill,40.74457,-73.97168,United States,US,False,moderate,Entire home/apt,2015,"$1,038 ",$208 ,30,0,,,5,23,343,"All I ask is that you are respectful of my home and things, as well as my neighbors, who are excellent!",
26354115,Modern Home 3 bed/1 bath 10 minutes to Manhattan,47956828993,verified,Joshua,Brooklyn,Williamsburg,40.713440000000006,-73.94612,United States,US,False,strict,Entire home/apt,2018,"$1,188 ",$238 ,2,1,6/16/2019,1.0,5,3,321,,
26354668,Converted 2 Bed 1 Bath Murry Hill,10111831886,unconfirmed,Adam,Manhattan,Murray Hill,40.74442,-73.9717,United States,US,True,flexible,Entire home/apt,2012,$379 ,$76 ,30,0,,,2,23,343,"All guests are expected to be respectful and mindful of shared spaces, including bathroom, kitchen, and TV room. This includes cleaning up after you and your group in all shared areas. Absolutely no smoking. Guests arriving or returning after 10:00pm must maintain a courteous volume in consideration of other guests. Pets are welcome! If you have a pet and use the backyard, please clean up after your pet.",
26355220,Luxury studio in Manhattan,68505852991,verified,Laura,Manhattan,Harlem,40.81508,-73.93741999999999,United States,US,False,flexible,Entire home/apt,2020,$565 ,$113 ,30,0,,,3,1,0,"No drinking, no smoking, no parties, no pets, no drugs, no girlfriends or boyfriends moving in. Looking for a quiet, studious, clean person who is looking for a comfortable and affordable place to stay during the school year.  House is open to mix sex. No children please.",
26355772,East River View- 2 Bed 1 Bath,8459007500,unconfirmed,Adam,Manhattan,Murray Hill,40.74463,-73.97306999999999,United States,US,False,flexible,Entire home/apt,2005,$973 ,$195 ,30,0,,,4,23,311,#NAME?,
26356324,Luxury 3 Bed in The Big Apple,59240558870,verified,Walid,Manhattan,Murray Hill,40.74459,-73.97436,United States,US,False,flexible,Entire home/apt,2007,"$1,120 ",$224 ,4,5,7/1/2019,4.69,3,1,167,,
26356877,2 Bed 1 Bath Cozy Apartment,1904470152,verified,Adam,Manhattan,Murray Hill,40.74425,-73.97137,United States,US,False,moderate,Entire home/apt,2003,$100 ,$20 ,30,0,,,3,23,325,"No smoking or drinking in the apt. Lock out will be $50. late check in after 9 pm and before 9 a.m. is $50. Respect yourself, respect other, clean up after yourself. Thank you ",
26357429,Central Park 4 Bed Steps to Train + Ground floor!,79680760825,verified,Felipe,Manhattan,Upper West Side,40.7983,-73.96115,United States,US,False,moderate,Entire home/apt,2003,"$1,173 ",$235 ,4,4,7/1/2019,3.08,2,1,345,"Respect yourself, respect others, clean up after yourself. No smoking/drinking in apt. Late in check in after 9 P.M. or before 9A.m. is $50, lock out is $50. Thank you ",
26357981,New Amazing Studio on Park Avenue #6123,20172957736,unconfirmed,Joe,Manhattan,Murray Hill,40.74886,-73.98184,United States,US,True,moderate,Entire home/apt,2005,"$1,176 ",$235 ,30,0,,,5,8,281,"This is a non-smoking residence.  There is light housekeeping (biweekly changing of linens, removal of kitchen trash) but guests are expected to clean up after themselves and keep the area tidy, including removing hair from bathtub and sink and washing dishes right away.  Remove shoes in the apartment. Slippers are OK. Turn off lights when exiting a room or hallway. Guests are not permitted without prior authorization. Overnight guests are not allowed.  Be courteous to others in the household.  Additional rules will be in the house manual, available upon arrival. ",
26358534,SPACIOUS 1 BED AMAZING VIEW,79752477788,unconfirmed,Adam,Manhattan,Murray Hill,40.7442,-73.97176,United States,US,True,moderate,Entire home/apt,2010,$857 ,$171 ,30,0,,,4,23,330,"(1) Please leave your shoes in the foyer (2) No smoking (3) No drugs (4) In consideration of the neighbors in the building, no loud music or parties (5) Only guests registered as part of the Airbnb booking may enter the apartment, unless prior arrangements are made with me before you make your booking (6) Guests are responsible for cleaning up after themselves in the kitchen",
26359086,Sun-Splashed Midtown 3BED Penthouse LOFT,7509791288,verified,Maria,Manhattan,Midtown,40.756609999999995,-73.97185999999999,United States,US,False,flexible,Entire home/apt,2009,$155 ,$31 ,6,1,6/21/2019,1.0,5,1,149,Make yourself at home. We are 420 friendly,
26359638,Luxurious one bed high floor,8802320247,verified,Adam,Manhattan,Kips Bay,40.74322,-73.9722,United States,US,True,strict,Entire home/apt,2008,$835 ,$167 ,30,0,,,4,23,353,"- - NO PETS!  NO SMOKING ON PREMISES!  NO PARTY! No ""DRUGS""! - Keep the Place Clean at All Times! - Do Not Ask the ""Neighbors"" for anything.  Ask Me!-  - No Neighbors Interaction! - No ""Drugs"" Please!!! - No Noise! A printed house rule will be provided. Please be respectful to others when all rooms are booked.  10 AM Check-out and Check-in is between 12PM (noon) - 3 PM.   Late check in after 8 pm is $50, lock out is $50. Respect yourself, Respect others, clean up after yourself.  No Smoking/drinking in apt.  Thank You! Location Rules: The ""Exact Address Location Is Not Stockton St.  It Is 2 Streets Away.  It Is Not Disclosed For Security Reasons"" And Is Given Out 24 Hours Prior to Check-in.  If This Is a Problem for You, Please STOP Here And Contact Other Hosts for Your Stay.   This Is a Part Of My House Rules.",
26360191,Cozy 2-Bedroom Loft Blocks away to Apollo Theater,78495487505,unconfirmed,Neh,Manhattan,Harlem,40.80529,-73.94718,United States,US,True,flexible,Entire home/apt,2013,$261 ,$52 ,2,1,6/23/2019,1.0,2,1,179,"All guests are expected to be respectful and mindful of shared spaces, including bathroom, kitchen, and TV room. This includes cleaning up after you and your group in all shared areas. Guests arriving or returning after 10:00pm must maintain a courteous volume in consideration of other guests. If you have a pet and use the backyard, please clean up after your pet.",
26360743,Photo Studio Loft with a Terrace,94557885395,unconfirmed,Lilian,Queens,Long Island City,40.7473,-73.93914000000001,United States,US,True,flexible,Private room,2006,$540 ,$108 ,1,0,,,3,1,296,,
26361295,Amazing 6bd/2ba Duplex w/ Patio 5 mins to NYC,16647796926,verified,Anthony,Brooklyn,Williamsburg,40.71779,-73.94232,United States,US,True,flexible,Entire home/apt,2022,$620 ,$124 ,2,1,6/13/2019,1.0,2,3,341,"This is a non-smoking residence.  There is light housekeeping (washing of linens (biweekly), towels, removal of kitchen trash) but guests are expected to clean up after themselves and keep the area tidy, including removing hair from the bathtub and sink and washing dishes right away.  Remove shoes in the apartment. Slippers are OK. Turn off lights when exiting a room or hallway. Guests are not permitted without prior authorization. Overnight guests are not allowed.  Be courteous to others in the household.  Additional rules will be in the house manual, available upon arrival. ",
26361847,1 Bedroom 1 Bathroom Murray Hill,38353699976,unconfirmed,Adam,Manhattan,Murray Hill,40.74458,-73.97146,United States,US,False,strict,Entire home/apt,2020,"$1,156 ",$231 ,30,0,,,5,23,339,"1. This apartment is for residential purpose only. No any commercial or other non-residential activities are allowed.  2. Keep quiet and clean in the apartment.  3. No guest is allowed to stay after 9:00 p.m. and before 8:30 a.m. Anyone who keeps his/her guest overnight without permission from the host will lose the reservation and should move out immediately.  4. No party in the apartment.  5. No smoking inside of the house.  6. No pets, please. 7. You need to share housing duty if staying over 5 days.",
26362400,"COUCH, ONLY LADYS, cerca a Manhattan",48816209635,verified,Jess & Ana,Queens,Corona,40.742059999999995,-73.86628,United States,US,True,moderate,Shared room,2009,$544 ,$109 ,1,0,,,4,8,357,,
26362952,High End One Bed One Bath Murry Hill,20830276940,unconfirmed,Adam,Manhattan,Kips Bay,40.7431,-73.9719,United States,US,True,moderate,Entire home/apt,2005,$105 ,$21 ,30,0,,,3,23,342,"We do not tolerate ""partying"" in the house.  We want families, couples, and generally guests that are low maintenance and low-key.   Also, please ""pick up"" after yourself a bit before you leave...make yo momma proud :)",
26363504,Bedroom for sublet with GREAT VIEW in prime area,81856048531,unconfirmed,John,Manhattan,Stuyvesant Town,40.731590000000004,-73.97471999999999,United States,US,False,strict,Private room,2021,$302 ,$60 ,14,0,,,2,1,128,,
26364057,High end one Bedroom Apatment,9872766312,unconfirmed,Adam,Manhattan,Murray Hill,40.74455,-73.97296,United States,US,False,strict,Entire home/apt,2012,$527 ,$105 ,30,0,,,4,23,342,,
26364609,Spacious Room in a Renovated Apt in Brooklyn NYC,15429536080,verified,Emmanuelle,Brooklyn,Bedford-Stuyvesant,40.692370000000004,-73.93446,United States,US,True,moderate,Private room,2012,$81 ,$16 ,1,2,6/19/2019,2.0,2,3,0,,
26365161,Brand New One Bedroom Apartment in Bushwick,15733528781,verified,Jacinta,Brooklyn,Bushwick,40.6884,-73.91373,United States,US,True,moderate,Entire home/apt,2003,$323 ,$65 ,3,2,6/29/2019,2.0,5,1,23,"NO PETS!  NO SMOKING ON PREMISES!  NO PARTY! A printed house rule will be provided. Please be respectful to others when all rooms are booked. 10 AM Check-out and Check-in is between 12 PM (noon) - 3 PM.   Late check in after 8 pm is $50, lock out is $50. Respect yourself, Respect others, clean up after yourself.  No Smoking/drinking in apt.  Thank You! Location Rules: The ""Exact Address Location Is Not Disclosed For Security Reasons"" And Is Given Out 24 Hours Prior to Check-in.  If This Is a Problem for You, Please STOP Here And Contact Other Hosts for Your Stay.   This Is a Part Of My House Rules.",
26365714,Nature Sanctuary,29485339327,verified,Alison,Brooklyn,Bedford-Stuyvesant,40.68971,-73.92836,United States,US,False,flexible,Private room,2015,$327 ,$65 ,5,1,6/9/2019,1.0,2,1,35,"Respect yourself, respect others, clean up after yourself. No smoking or drinking in the apt. Late check in after 9 p.m. and before 9 A.m. is $50, lock out is $50. Thank you ",
26366266,"In the heart of Bronx, Fordham University, Bx Zoo",80778362397,unconfirmed,Samita,Bronx,Norwood,40.8718,-73.87699,United States,US,True,flexible,Private room,2009,$614 ,$123 ,1,0,,,5,1,180,,
26366818,"Spacious, Sunny, Beautiful: 142/Brdway (Long-term)",862832190,unconfirmed,Christine,Manhattan,Harlem,40.82578,-73.95397,United States,US,True,flexible,Entire home/apt,2017,$998 ,$200 ,70,0,,,5,1,239,"Respect yourself respect others please clean up after yourself. NO smoking, drinking or partying . Lock out is $50 , late check in after 9 Pm and early check in before 9 A.M. is $50, pay upon arrival.",
26367370,Beautiful Brooklyn Vacation Home!,30620912036,verified,Jenny & Jose,Brooklyn,Crown Heights,40.67307,-73.93916999999999,United States,US,True,strict,Entire home/apt,2008,"$1,058 ",$212 ,2,4,6/30/2019,3.53,4,2,31,"Guests who use kitchen must wash their dishes (or put them in dishwasher) and wipe stove and counters after eating, in courtesy to other guests.   No smoking inside or behind the house; smoking is permitted only in smoking area in front of house.  To maintain quiet on floors with bedrooms, please use headphones to listen to music/videos or when making (SENSITIVE CONTENTS HIDDEN) calls in bedrooms, and keep hallways conversations quiet and short. ",
26367923,Spacious Room in the heart of Manhattan,28128852496,unconfirmed,Nacho,Manhattan,Murray Hill,40.748329999999996,-73.98161999999999,United States,US,True,flexible,Private room,2021,$141 ,$28 ,1,2,6/26/2019,2.0,3,3,73,,
26368475,Quiet LES private room with private half bathroom,76834532359,unconfirmed,Charlton And Marcia,Manhattan,Lower East Side,40.71549,-73.97951,United States,US,False,moderate,Private room,2005,"$1,146 ",$229 ,2,0,,,4,1,296,"No pets, No Smoking, Smoking allowed on deck",
26369027,Comfy Sofa Bed in shared space (girls only),67842172150,unconfirmed,Cebile,Brooklyn,Sheepshead Bay,40.60753,-73.95389,United States,US,False,moderate,Shared room,2005,$237 ,$47 ,2,2,7/5/2019,1.43,4,8,28,No smoking at all. Keep the room and apartment clean. Keep quiet and no party after 9:30 p.m.  This room is available to people who plan to stay 3 weeks at least. It is $45 per night if you stay over one month. It is $50 if you stay less than 3 weeks.  You need to share house cleaning duty with other guests if you stay 3 weeks.,
26369580,Furnished Apartment in Queens,84932240858,verified,Maria,Queens,Jamaica Estates,40.72101,-73.79395,United States,US,False,flexible,Entire home/apt,2007,$770 ,$154 ,7,1,6/7/2019,0.91,4,2,14,,
26370132,Sonder | 116 John | Sleek Studio + Gym,28414508781,unconfirmed,Sonder (NYC),Manhattan,Financial District,40.70799,-74.00627,United States,US,True,moderate,Entire home/apt,2020,$254 ,$51 ,29,0,,,5,327,326,This apartment is for residential purpose. No any commercial or other non-residential activities are allowed.  Keep quiet and clean in the apartment.  No guest is allowed to stay after 9:00 p.m. and before 8:30 a.m. Anyone who keeps his/her guest overnight without permission from the host will lose the reservation and should move out immediately.  No party in the apartment. You need to share housing duty if staying over 5 days.,
26370684,Sonder | 116 John | Quaint Studio + Gym,53442812495,unconfirmed,Sonder (NYC),Manhattan,Financial District,40.70673,-74.00565,United States,US,True,moderate,Entire home/apt,2020,$178 ,$36 ,29,0,,,5,327,347,"Please treat our house as you would treat your own (assuming that it is good).  Please clean up after yourself.  Kindly remove your shoes by the door, slippers are welcome (if they have not been treading the outdoors).  If you use the kitchen, please wipe down the stove and counter-tops and clean the dishes in the sink to prevent critters from visiting you at night.  Laundry is available free of charge just next to the kitchen, we have a washer and dryer.  Clean bedding will be provided for you when you check in, and cleaned after you check out.   We will not be responsible for personal accidents or sickness, we would ask you to clean up after yourself.  If you plan a lengthy stay, we can wash your sheets once a week.  If you'd like additional washing, please wash your sheets along with your other laundry.  A key will be provided to you for your bedroom should you want to lock anything up.",
26371237,Sonder | 116 John | Comfortable Studio + Gym,73530063414,unconfirmed,Sonder (NYC),Manhattan,Financial District,40.70811,-74.00616,United States,US,False,moderate,Entire home/apt,2015,$973 ,$195 ,29,0,,,3,327,333,"NO PETS!  NO SMOKING ON PREMISES! NO PARTY! A printed house rule will be provided. Please be respectful to others when all rooms are booked. 10 AM Check-out and Check-in is between 12 PM (noon) - 3 PM.   Late check in after 8 pm is $50, lock out is $50. Respect yourself, Respect others, clean up after yourself.  No Smoking/drinking in apt.  Thank You! Location Rules: The ""Exact Address Location Is Not Disclosed For Security Reasons"" And Is Given Out 24 Hours Prior to Check-in.  If This Is a Problem for You, Please STOP Here And Contact Other Hosts for Your Stay.   This Is a Part Of My House Rules.",
26371789,Sonder | 180 Water | Pleasant 2BR + Rooftop,94226676468,unconfirmed,Sonder (NYC),Manhattan,Financial District,40.70575,-74.00621,United States,US,False,strict,Entire home/apt,2014,$394 ,$79 ,29,0,,,2,327,190,"No smoking in house. No Pets No parties or hosting events. No recreational drugs. Please clean up after yourself. Please take off shoes and leave them in the shoe cabinet before entering the apartment. Guests may be asked to leave Immediately if partying, hosting events, or bringing pets.",
26372341,Large 2bed/2bath Steps to Central Park!,3492072100,verified,Samm,Manhattan,Upper West Side,40.79837,-73.96061,United States,US,True,moderate,Entire home/apt,2019,$717 ,$143 ,4,3,6/23/2019,2.37,3,1,275,"* If you are booking a room, you must be the person staying in room. DO NOT book a room for somebody else!* *ALSO, please only book if you have a face photo in your profile!* This is a residential building, with professionals living throughout. Being respectful is a must! Loud music, smoking and pets are not allowed in the building. Also, only guests listed on the booking are allowed in the house. Strangers, friends or family members are not allowed inside the house. For your safety, and mine. :) Lost keys will result in a $50 fee to replace the locks in the house.",
26372893,Airy 1BR in Hell's Kitchen by Sonder,86172550163,verified,Sonder (NYC),Manhattan,Hell's Kitchen,40.760670000000005,-73.99771,United States,US,True,strict,Entire home/apt,2014,$660 ,$132 ,29,0,,,5,327,302,,
26373446,Sonder | 11th Ave | Lovely 1BR + Gym,54755848465,verified,Sonder (NYC),Manhattan,Hell's Kitchen,40.7622,-73.99673,United States,US,True,strict,Entire home/apt,2017,$560 ,$112 ,29,0,,,2,327,332,,
26373998,Sonder | 180 Water | Bold Studio + Rooftop,84590379482,verified,Sonder (NYC),Manhattan,Financial District,40.70745,-74.00613,United States,US,False,strict,Entire home/apt,2009,"$1,165 ",$233 ,29,0,,,2,327,37,No cigarette smoking inside the house. Happy to have you on the porch or yard.  420 friendly.,
26374550,"Beautiful 3 bedroom close to Times Square, NYC",46183397618,verified,Tasmia,Queens,Woodside,40.74357,-73.90894,United States,US,False,moderate,Entire home/apt,2011,$188 ,$38 ,1,2,7/5/2019,2.0,2,1,212,"1. Please feel welcome to use our kitchen, bathroom or any other common area but we don allow guest to go in our bedroom. 2. Keep the apartment clean/clean up after yourself 3. We have a dog and a cat, so please have this in mind before staying with us. 4. Respect our pets.",
26375103,Large Private Room next Empire State Building,13362733434,unconfirmed,Nacho,Manhattan,Midtown,40.74808,-73.9834,United States,US,False,moderate,Private room,2010,$466 ,$93 ,1,0,,,2,3,68,"- NO PETS!  NO SMOKING ON PREMISES!  NO PARTY! No ""DRUGS""! - Keep the Place Clean at All Times! - Do Not Ask the ""Neighbors"" for anything.  Ask Me!-  - No Neighbors Interaction! - No ""Drugs"" Please!!! - No Noise! A printed house rule will be provided. Please be respectful to others when all rooms are booked.  10 AM Check-out and Check-in is between 12 PM (noon) - 3 PM.   Late check in after 8 pm is $50, lock out is $50. Respect yourself, Respect others, clean up after yourself.  No Smoking/drinking in apt.  Thank You! Location Rules: The ""Exact Address Location Is Not Stockton St.  It Is 2 Streets Away.  It Is Not Disclosed For Security Reasons"" And Is Given Out 24 Hours Prior to Check-in.  If This Is a Problem for You, Please STOP Here And Contact Other Hosts for Your Stay.   This Is a Part Of My House Rules.",
26375655,Amazing 3 Bed on Park Ave with Washer/Dryer #6114,62856216009,verified,Joe,Manhattan,Murray Hill,40.74892,-73.98155,United States,US,False,flexible,Entire home/apt,2021,$160 ,$32 ,30,0,,,5,8,312,"Respect yourself, respect other, clean up after yourself. No smoking/drinking. Late check in after 9 pm or before 9 am is $50. Lock out is $50 Thank you",
26376207,Awesome Renovated Studio in Brooklyn NYC,6907185092,verified,Emmanuelle,Brooklyn,Bedford-Stuyvesant,40.6904,-73.93463,United States,US,False,moderate,Entire home/apt,2014,$65 ,$13 ,1,9,7/1/2019,6.59,4,3,21,"We expect guests to make themselves at home in the condo but treat it with respect and care.  This is not a party pad but we want you to enjoy yourself while here.  Absolutely no smoking/candles/incense in apartment.  There is a back deck that you have exclusive use of during your stay.  Pets must be crated when left in apt on own.  For relief Please walk pet in the neighborhood, not in the yard. Maximum 4 guests.  We live next door.",
26376760,Exquisite Park Slope Paradise,65439754534,unconfirmed,Jake,Brooklyn,Windsor Terrace,40.65863,-73.98495,United States,US,True,moderate,Entire home/apt,2021,$959 ,$192 ,3,0,,,3,1,335,The only rule is please clean up after yourself if you eat in the living room or the bedroom.,
26377312,Cozy Corner next to the Empire State Building,5113921720,unconfirmed,Nacho,Manhattan,Midtown,40.74673,-73.98305,United States,US,False,flexible,Shared room,2005,$858 ,$172 ,1,0,,,4,3,43,"We have ample off-street parking but if you have a car let us know and we will be in touch with you about parking. Please be careful not to drive or walk in the driveway for 233 Savin Hill Avenue. Check in time is 2 PM, check out time is 10 AM.  Guests who arrive early can drop off their luggage after 10 AM. We are unable to accommodate arrivals earlier than 10 AM.  Guests who need to stay after the check out time are welcome to use the common area on the first floor for luggage storage. NO SMOKING in the house or anywhere on the property. No Pets.",
26377864,Exceptional 1BR in Midtown East by Sonder,91098447313,verified,Sonder (NYC),Manhattan,Theater District,40.75708,-73.98283,United States,US,False,moderate,Entire home/apt,2019,$670 ,$134 ,29,0,,,2,327,343,#NAME?,
26378416,Charming 1BR in Midtown East by Sonder,59743558895,unconfirmed,Sonder (NYC),Manhattan,Midtown,40.756,-73.98195,United States,US,False,flexible,Entire home/apt,2016,$586 ,$117 ,29,0,,,3,327,354,Please make sure the front house doors are locked when leaving. Please return keys to lock box upon check-out. Please limit use of the 2nd floor resident's bathroom to nighttime breaks only. The back areas of house are being renovated and are off-limits.,
26378969,Superior 1BR in Midtown East by Sonder,88121656777,unconfirmed,Sonder (NYC),Manhattan,Midtown,40.75547,-73.98245,United States,US,False,flexible,Entire home/apt,2008,$974 ,$195 ,29,0,,,4,327,336,"We ask that you treat everything here with care, as it is our home. NO SMOKING IS ALLOWED IN THE HOUSE OR ANYWHERE ON OUR PROPERTY.  If anything is damaged please let us know immediately.",
26379521,Sonder | Upper East Side | Stylish 1BR + Sofa Bed,68679892941,unconfirmed,Sonder (NYC),Manhattan,Upper East Side,40.76277,-73.96316999999999,United States,US,False,strict,Entire home/apt,2006,$812 ,$162 ,29,0,,,5,327,311,"This property is a quiet, family-friendly living space. Pricing includes required City of Boston excise tax of 14.45%",
26380073,Sonder | Upper East Side | Lovely 1BR + Gym,46523512000,verified,Sonder (NYC),Manhattan,Upper East Side,40.76307,-73.96295,United States,US,True,moderate,Entire home/apt,2003,$130 ,$26 ,29,0,,,2,327,335,"We have ample off-street parking but if you have a car let us know and we will be in touch with you about parking. Please be careful not to drive or walk in the driveway for 233 Savin Hill Avenue. Check in time is 2 PM, check out time is 10 AM.  Guests who arrive early can drop off their luggage after 10 AM. We are unable to accommodate arrivals earlier than 10 AM.  Guests who need to stay after the check out time are welcome to use the common area on the first floor for luggage storage. NO SMOKING in the house or anywhere on the property. No Pets.",
26380626,Sonder | The Nash | Playful 1BR + Rooftop,30640952518,verified,Sonder (NYC),Manhattan,Murray Hill,40.7473,-73.97603000000001,United States,US,False,strict,Entire home/apt,2020,$95 ,$19 ,29,0,,,3,327,329,"Check-in is 2:00 pm, and checkout 11:00 am. You may bring bags in before check in time or leave it to pick up later. Let me know to arrange it. After reservation please send me your arrival and departure time for logistics NO shoes inside Keep the volume low before 8am and after 11pm No laundry after  before 9am and after 8pm No dishes unwashed  Turn off the lights and AC when you leave the house Trash out from the house before you leave ( BLUE BOX recycling, gray one for food) Please respect this rules and you get the full refund of security deposit",
26381178,Brand new 2 BEDROOMS BROOKLYN,27126251073,unconfirmed,Maria Y Diego,Brooklyn,Greenpoint,40.72006,-73.9462,United States,US,False,strict,Entire home/apt,2003,$136 ,$27 ,4,0,,,5,1,355,,
26381730,Sonder | The Nash | Bold 1BR + Rooftop,70246465114,verified,Sonder (NYC),Manhattan,Murray Hill,40.74899,-73.97541,United States,US,False,moderate,Entire home/apt,2013,$75 ,$15 ,29,0,,,4,327,360,,
26382283,Luxury 5BR/2Bath Steps to Central Park!,73080923276,unconfirmed,Chloe,Manhattan,Upper West Side,40.80154,-73.96106,United States,US,False,strict,Entire home/apt,2003,$905 ,$181 ,3,5,6/22/2019,3.85,3,1,320,"The golden rule is my mantra- treat others (and their homes) as you'd like to be treated. This is a three unit building, please be respectful of neighbors and observe quiet hours between midnight and 6 a.m.  No smoking or pets permitted.",
26382835,Sonder | The Nash | Vibrant 1BR + Grilling Area,67449964313,unconfirmed,Sonder (NYC),Manhattan,Murray Hill,40.74725,-73.97606999999999,United States,US,True,strict,Entire home/apt,2022,$473 ,$95 ,29,0,,,4,327,365,,
26383387,Sonder | 21 Chelsea | Classic 1BR + Rooftop,46811620097,verified,Sonder (NYC),Manhattan,Chelsea,40.74288,-73.99438,United States,US,True,moderate,Entire home/apt,2006,$503 ,$101 ,29,0,,,4,327,365,I do not allow guests with pets. Smoking is allowed on the patio or outdoors. Please be kind to the environment and recycle. Also turn  all unnecessary lights off when not in use. All beds need to be stripped upon departure. Sanitary napkins need to be disposed of properly (taken outside to the trash) not in the bathroom garbage. The suite has a separate sitting area with leather couch not to be used as second bedroom.  Guest must have a mobile device which makes and receives calls and or text messages.,
26383939,Sonder | 21 Chelsea | Sophisticated 1BR + Rooftop,80545970700,unconfirmed,Sonder (NYC),Manhattan,Chelsea,40.74295,-73.99521,United States,US,False,strict,Entire home/apt,2006,$891 ,$178 ,29,0,,,5,327,311,"Unlike most other Airbnb listings, what we do here is long-term rentals by the year, or by the semester and we can welcome compatible short-term guests. We try to keep the atmosphere conducive to studying and resting and a couple of house-rules are in place to this end.  1. No smoking on the premises.  2. No loud music or TV etc.  3. Only for one person (no couples, no visitors). We seldom have visitors, let alone overnight guests. We know this will be a major turn-off to many people, but we believe we can find a like-minded roommate who can have fun outside the house.  4. If you re not sure about your check-out date, you can reserve the minimum days and extend your stay at a discounted rate.  5. Check-in time is flexible, but it has to be coordinated at least 24 hours ahead. On arrival, a short registration process with a picture ID is needed in exchange for keys and wifi access.  6. Inside the apartment, we take off our outside shoes. So if you bring your own flip-flops, slippers or ",
26384492,Intimate 1BR in Midtown East by Sonder,29811402528,unconfirmed,Sonder (NYC),Manhattan,Murray Hill,40.74451,-73.9727,United States,US,False,strict,Entire home/apt,2014,$55 ,$11 ,29,0,,,5,327,341,No smoking allowed inside or on the property.  Pets not allowed without prior discussion/approval.  ,
26385044,Sonder | Theater District | Bright 1BR + City View,64949046290,unconfirmed,Sonder (NYC),Manhattan,Theater District,40.75954,-73.98604,United States,US,True,moderate,Entire home/apt,2016,$144 ,$29 ,29,0,,,2,327,357,,
26385596,"UWS brownstone with Grdn,  Guest Bdrm, 2 bthrms",85449055657,unconfirmed,Judy,Manhattan,Upper West Side,40.78263,-73.97623,United States,US,False,flexible,Entire home/apt,2003,$991 ,$198 ,2,6,7/4/2019,5.0,4,1,7,,
26386149,Best Value ❤️Memorable Vacation,4748984379,verified,Alex,Manhattan,Midtown,40.76383,-73.98368,United States,US,False,moderate,Entire home/apt,2015,$362 ,$72 ,1,15,7/1/2019,9.78,3,1,121,,
26386701,Cozy private room by the 7 train,78151147853,unconfirmed,Kwenhi,Queens,Sunnyside,40.73935,-73.92096,United States,US,True,moderate,Private room,2019,$285 ,$57 ,2,4,7/1/2019,2.73,2,1,180,"This is a non-smoking residence.  There is light housekeeping (biweekly changing of linens, removal of kitchen trash) but guests are expected to clean up after themselves and keep the area tidy, including removing hair from bathtub and sink and washing dishes right away.  Remove shoes in the apartment. Slippers are OK. Turn off lights when exiting a room or hallway. Guests are not permitted without prior authorization. Overnight guests are not allowed.  Be courteous to others in the household.  Additional rules will be in the house manual, available upon arrival. ",
26387253,Amazing 3 bedroom in Williamsburg,59993997786,verified,Elnadiv,Brooklyn,Williamsburg,40.71697,-73.94227,United States,US,True,flexible,Entire home/apt,2010,$923 ,$185 ,2,1,6/16/2019,1.0,5,3,318,,
26387806,Cozy room close to the airport.,71849718187,verified,Grace,Brooklyn,East New York,40.67109,-73.86841,United States,US,False,flexible,Private room,2007,$679 ,$136 ,1,1,6/16/2019,1.0,2,1,75,"We have ample off-street parking but if you have a car let us know and we will be in touch with you about parking. Please be careful not to drive or walk in the driveway for 233 Savin Hill Avenue. Check in time is 2 PM, check out time is 10 AM.  Guests who arrive early can drop off their luggage after 10 AM. We are unable to accommodate arrivals earlier than 10 AM.  Guests who need to stay after the check out time are welcome to use the common area on the first floor for luggage storage. NO SMOKING in the house or anywhere on the property. No Pets.",
26388358,Amazing 3bd/2ba Apt w/ Roofdeck 5 mins to NYC,18154939393,verified,Elnadiv,Brooklyn,Williamsburg,40.717009999999995,-73.94082,United States,US,True,moderate,Entire home/apt,2007,$569 ,$114 ,2,1,6/8/2019,1.0,4,3,337,"No smoking or drinking in the apt. Lock out will be $50. late check in after 9 pm and before 9 a.m. is $50. Respect yourself, respect other, clean up after yourself. Thank you",
26388910,Amazing 6 bedrooms on two floors in Williamsburg,86362708969,unconfirmed,Elnadiv,Brooklyn,Williamsburg,40.715740000000004,-73.9414,United States,US,False,strict,Entire home/apt,2009,$551 ,$110 ,2,0,,,2,3,282,,
26389462,7BR Lux Townhouse w/ Patio! Best Village Location!,61815798867,verified,Matt,Manhattan,Greenwich Village,40.73655,-73.99618000000001,United States,US,False,flexible,Entire home/apt,2005,$829 ,$166 ,31,3,6/14/2019,2.31,4,1,193,"•No Smoking in any part of the property •Please do not leave any trash outside, please leave trash in bag inside the unit •Do not flush ANYTHING down toilet except toilet paper •Please maintain a reasonable volume •Please respect the property •No large parties •No more than 4 guests •Please ask before accessing bar •Do not purchase anything on cable •Please do not leave exterior doors open so that we can keep out insects and pests",
26390015,Gorgeous newly renovated 2 bedroom apartment,20311306694,unconfirmed,Sal,Brooklyn,Sheepshead Bay,40.608579999999996,-73.9516,United States,US,True,strict,Entire home/apt,2010,$747 ,$149 ,2,6,7/7/2019,6.0,5,2,86,No smoking in the house or on the decks. Please do not leave cigarette butts on the property. Two-night minimum stay.,
26390567,3 Bedroom Apt in Times Square,29252966425,unconfirmed,Jennifer,Manhattan,Hell's Kitchen,40.76299,-73.99478,United States,US,False,strict,Entire home/apt,2004,$426 ,$85 ,3,1,6/25/2019,1.0,5,1,278,,
26391119,Times Square room With Access to a Terrance,52190904323,unconfirmed,Vanessa,Manhattan,Hell's Kitchen,40.75949,-73.99566999999999,United States,US,False,strict,Private room,2017,"$1,068 ",$214 ,2,0,,,5,3,362,"Prices $150.00 per night for 1 or 2 people. Late night noise is not allowed. Over night guests are not allowed. It is allowed if you may like to cook dinner and eat at home, with us or on your own. We go to bed between 11pm and 1 am. We rise at 10am.  House is very solid & quiet.",
26391672,Luxurious 3 BEDROOM IN THE HEART OF TimeSqaure,82726429017,verified,Marcela,Manhattan,Hell's Kitchen,40.76275,-73.99271,United States,US,False,strict,Entire home/apt,2022,"$1,166 ",$233 ,3,1,7/1/2019,1.0,3,1,244,"CHECK IN: 2pm CHECK OUT: 10am SMOKING: Please no smoking inside.  Smoking allowed outside, please dispose of cigarettes in appropriate containers provided. NO PARTIES: (please inform hosts of additional guests or visitors during your stay, only the original occupants at the time of booking are allowed to stay in the property overnight and secondly no additional guest will be brought in without prior authorization). Keep the volume low before 8am and after 11pm NO PETS: We love our pets, but ask you leave your loved ones at home. Shoes should be left inside the entrance door. PLEASE tidy the room before you depart.  Return furnishings and others items to be as they were upon your arrival. Thank you!",
26392224,"One bedroom in Williamsburg, Brooklyn",78201562111,verified,Sophie,Brooklyn,Williamsburg,40.70838,-73.95366,United States,US,True,moderate,Entire home/apt,2003,"$1,058 ",$212 ,2,2,6/30/2019,2.0,2,1,1,We except our guest to be respectful of our home and us. There is no smoking in the home but smoking outside is allowed and needs to be disposed of properly.,
26392776,Lucky journey 幸运旅程,76580933918,unconfirmed,Vivi,Queens,Flushing,40.7562,-73.83071,United States,US,True,strict,Private room,2020,"$1,101 ",$220 ,3,1,6/16/2019,1.0,3,3,336,"NO PETS!  NO SMOKING ON PREMISES! NO PARTY! A printed house rule will be provided. Please be respectful to others when all rooms are booked. 10 AM Check-out and Check-in is between 12 PM (noon) - 3 PM.   Late check in after 8 pm is $50, lock out is $50. Respect yourself, Respect others, clean up after yourself.  No Smoking/drinking in apt.  Thank You! Location Rules: The ""Exact Address Location Is Not Disclosed For Security Reasons"" And Is Given Out 24 Hours Prior to Check-in.  If This Is a Problem for You, Please STOP Here And Contact Other Hosts for Your Stay.   This Is a Part Of My House Rules.",
26393329,Shared room sofa bed (girls only),73038338128,unconfirmed,Cebile,Brooklyn,Sheepshead Bay,40.60911,-73.95257,United States,US,True,strict,Shared room,2003,$177 ,$35 ,2,0,,,4,8,32,The Perfect home stay for clean and responsible person. Home is keep neat and clean at all times. Guest wipe up after themselves after using the kitchen. There is no smoking in home and no pets allowed in home. No overnight guest to keep the stay peaceful and quiet.,
26393881,New! Entire private luxury apt near 3 trains!,29487580518,verified,Bella,Brooklyn,Bushwick,40.69605,-73.92423000000001,United States,US,True,moderate,Entire home/apt,2014,$207 ,$41 ,1,8,7/1/2019,5.58,2,1,305,"I would expect guess to be respectful,  no smoking in the house.  No loud music, and keeping the place clean as well.",
26394433,Hidden Oasis steps from stadium minutes from City,39711388106,unconfirmed,Jasmine And Isaac,Bronx,Concourse,40.83207,-73.92068,United States,US,False,moderate,Private room,2016,"$1,027 ",$205 ,2,0,,,2,1,326,"Please, no smoking inside the building or on the porches.  Due to sensitivities, we ask that you not use perfume, cologne, or aerosol products in the house. No parties. No illegal drug use.  We are an eco-friendly family and appreciate your help in recycling (bin in the kitchen) and turning off lights, fans, etc. when not in use.  Please lock all doors of the building behind you.",
26394985,温馨旅店(2),27036221503,verified,Yongqiu,Queens,Flushing,40.75291,-73.83135,United States,US,True,moderate,Private room,2008,$859 ,$172 ,1,2,6/6/2019,1.76,3,3,359,Respect our rules.  Please remove  shoes when inside the house.,
26395538,Cozy Room in Charming Sunny Loft,71185067864,verified,Jen,Brooklyn,Williamsburg,40.70625,-73.92815,United States,US,True,moderate,Private room,2004,$433 ,$87 ,2,0,,,3,1,176,"No smoking or drinking in the apt. Lock out will be $50. late check in after 9 pm and before 9 a.m. is $50. Respect yourself, respect other, clean up after yourself. Thank you",
26396090,Bright Top Floor Tower - Two Blocks from Q Train,78089473441,unconfirmed,Abbott,Manhattan,Upper East Side,40.780120000000004,-73.95079,United States,US,True,strict,Entire home/apt,2007,$161 ,$32 ,2,4,6/25/2019,3.33,4,1,12,No drugs please.,
26396642,"❤️A Private Studio On Roof, Private bath + Deck",62213760962,verified,Mia,Brooklyn,Bushwick,40.69469,-73.92475,United States,US,True,moderate,Private room,2007,$270 ,$54 ,5,7,7/4/2019,5.12,4,1,133,Keep noise down and have consideration for other guest.  No smoking on premises.,
26397195,Your own apartment in Lower Manhattan,2402135778,unconfirmed,Chuck,Manhattan,Two Bridges,40.71089,-73.99671,United States,US,True,flexible,Entire home/apt,2017,$795 ,$159 ,1,9,6/13/2019,6.0,2,1,6,,
26397747,NEWLY RENOVATED!!! LUCAS 1BR APT NEAR JFK/LGA,68570451341,verified,Willie,Queens,Rosedale,40.65535,-73.74449,United States,US,False,moderate,Entire home/apt,2009,$757 ,$151 ,2,5,6/30/2019,3.95,3,1,95,"Guests who use kitchen must wash their dishes (or put them in dishwasher) and wipe stove and counters after eating, in courtesy to other guests.   No smoking inside or behind the house; smoking is permitted only in smoking area in front of house.  To maintain quiet on floors with bedrooms, please use headphones to listen to music/videos or when making (SENSITIVE CONTENTS HIDDEN) calls in bedrooms, and keep hallways conversations quiet and short. ",
26398299,Cozy Room 4 Min Walk From Train,94395348329,verified,Jojo,Brooklyn,Crown Heights,40.67145,-73.93355,United States,US,True,strict,Private room,2021,$540 ,$108 ,1,1,5/28/2019,0.7,4,1,88,"NO PETS!  NO SMOKING ON PREMISES!  NO PARTY! A printed house rule will be provided. Please be respectful to others when all rooms are booked. 10 AM Check-out and Check-in is between 12 PM (noon) - 3 PM.   Late check in after 8 pm is $50, lock out is $50. Respect yourself, Respect others, clean up after yourself.  No Smoking/drinking in apt.  Thank You! Location Rules: The ""Exact Address Location Is Not Disclosed For Security Reasons"" And Is Given Out 24 Hours Prior to Check-in.  If This Is a Problem for You, Please STOP Here And Contact Other Hosts for Your Stay.   This Is a Part Of My House Rules.",
26398852,Small Private Room in Upper East Side #5,71393993707,verified,Shai,Manhattan,Upper East Side,40.78307,-73.94578,United States,US,False,strict,Private room,2017,"$1,193 ",$239 ,4,0,,,3,9,17,,
26399404,Amazing 2 bedrooms apt close to Central Park,96192850127,verified,Manuel,Manhattan,Upper West Side,40.77081,-73.99036,United States,US,True,strict,Entire home/apt,2020,"$1,077 ",$215 ,2,2,6/23/2019,2.0,2,1,89,,
26399956,The best home away from home!,40274753776,verified,Diana,Queens,Sunnyside,40.74143,-73.9229,United States,US,True,flexible,Entire home/apt,2006,$689 ,$138 ,2,7,7/1/2019,5.68,3,1,14,"* If you are booking a room, you must be the person staying in room. DO NOT book a room for somebody else!* *ALSO, please only book if you have a face photo in your profile!* This is a residential building, with professionals living throughout. Being respectful is a must! No loud music, No smoking and pets are NOT allowed in the building.  Also, only guests listed on the booking are allowed in this house. Strangers, friends and family members are not allowed inside the house. For your safety, and mine. :) Lost keys will result in a $50 fee to replace the locks in the house.",
26400508,Joyful,37910582853,verified,Joe,Queens,Richmond Hill,40.70053,-73.82372,United States,US,True,strict,Entire home/apt,2003,"$1,026 ",$205 ,2,2,7/5/2019,2.0,4,1,336,- No shoes on carpets and rugs - Eating and Drinking only in Kitchen - Quiet time from 11pm - 6am - No gatherings or parties,
26401061,4 Bedrooms 4 Baths at Midtown East Manhattan,42829449568,verified,Aaron Paul,Manhattan,Midtown,40.75821,-73.96313,United States,US,True,moderate,Entire home/apt,2011,$467 ,$93 ,30,0,,,3,1,310,"No smoking (indoors or outside on the property). No pets. No parties. Prefer quiet professional singles or couples in town for work and/or tourism. No children. Please note that this is Alex's home (he lives there), so please be respectful by keeping noise down and cleaning up after yourselves.",
26401613,Greenpoint Williamsburg only  min to the city,47894922700,unconfirmed,Kristian & Di,Brooklyn,Greenpoint,40.72572,-73.95664000000001,United States,US,True,moderate,Private room,2016,$746 ,$149 ,29,0,,,2,4,157,,
26402165,HUGE & COZY 3 BEDROOMS IN HEART OF MANHATTAN!!,6110236010,unconfirmed,Jay,Manhattan,Hell's Kitchen,40.767959999999995,-73.98891,United States,US,False,strict,Entire home/apt,2009,$61 ,$12 ,3,6,7/3/2019,4.74,3,1,199,Check in is after 3 pm and check out is at 12 pm.  No parties or events.  No smoking.  No pets.  No unauthorized guests.  My home is not child proof.  Please leave your shoes at the entrance of the apartment.,
26402718,Luxury studio in Manhattan New York,10848565718,unconfirmed,Randy & Judy,Manhattan,Hell's Kitchen,40.76089,-74.0003,United States,US,True,strict,Entire home/apt,2021,$373 ,$75 ,7,0,,,2,1,308,,
26403270,New Studio in UWS steps from Central Park #6122,33001063454,unconfirmed,Laura,Manhattan,Upper West Side,40.78873,-73.97381,United States,US,False,strict,Entire home/apt,2008,$973 ,$195 ,30,0,,,5,9,200,"We ask that no alcohol or pork be brought into the home. Other than that, my home is your home. I simply ask that you please treat the home and its inhabitants with respect.",
26403822,Small Studio/Private Room - Heart of East Village,16348393896,verified,Brian,Manhattan,East Village,40.72657,-73.98756999999999,United States,US,False,flexible,Private room,2004,$380 ,$76 ,2,3,6/23/2019,3.0,2,1,0,,
26404375,New! Modern 2/1 Steps to Central Park!,7022807230,verified,Jason,Manhattan,Upper West Side,40.7997,-73.95945999999999,United States,US,True,moderate,Entire home/apt,2013,$652 ,$130 ,4,5,7/6/2019,3.85,5,1,325,"I would like you to respect my house as though it was yours. You break it you buy it. No smoking cigarettes or drugs within the units. Smoking is allowed on the outside porch, however do not throw cigarette butts on the floor/grass please use the ash tray. If something goes wrong or unpleasant with your stay,  please call me immediately so we can rectify the situation.",
26404927,Cozy Studio in UWS Luxury Building with Gym #6107,94381524975,verified,Laura,Manhattan,Upper West Side,40.78908,-73.97231,United States,US,True,moderate,Entire home/apt,2009,"$1,162 ",$232 ,30,0,,,3,9,311,"No drunken, naked brawling.  Other than that, no rules. And no smoking. Or illegal drugs. Or pets. OK, so there were more rules. I only accept guests who have been verified through Airbnb.  And I'm a little suspect if you have a blank profile and no picture.  Remember, I'm inviting you into my home and I hope you're not a axe murderer. If this is your first experience with Airbnb, read all the Airbnb information on this website.  Airbnb is not a hostel, nor is it a hotel. I rarely accept guests if they have never used Airbnb before. Please keep the bedroom clean and organized.  You will have exclusive access to the bathroom on the second floor during your stay.   However, this also serves as the guest bathroom, so do your best to keep it tidy.  Don't leave your unmentionables hanging on the light fixtures. You will have access to the first floor (living room, dining room and kitchen) and the guest bedroom and bathroom on the second floor.  My bedroom and study on the second floor and t",
26405479,Spacious Midtown East Studio,88712044996,verified,Nadia,Manhattan,Midtown,40.7601,-73.97041999999999,United States,US,False,strict,Entire home/apt,2020,$659 ,$132 ,2,3,7/1/2019,3.0,2,1,128,Please do not smoke in the house.  Please no parties or loud events.,
26406031,Beautiful Studio in the heart of Midtown,7078942221,unconfirmed,Anna,Manhattan,Upper East Side,40.76365,-73.96186999999999,United States,US,True,strict,Entire home/apt,2007,$602 ,$120 ,2,7,7/1/2019,6.56,4,1,107,"Check-in is 2:00 pm, and checkout 11:00 am (the bedrooms please, you leave your bags to pick up later or bring them early). After reservation please send me your arrival and departure time for logistics 1.No shoes to the second floor  2.Keep the volume low before 8am and after 10pm 3.Close the doors gently 4.No shower after  11:30pm 5.No Laundry after  before 9am and after 8pm 6.Keep the kitchen and  bathroom in decent condition after you 7.Close the shower curtain well (important) 8.No water around the sink (under the sink there is a sponge you can use it to dry) 9.Turn off the light when you leave the room 10.Trash out from the room  BLUE BOX recycling  11.Leave the key in the room THANK YOU",
26406584,Cozy Central Park Studio!: 2Min to Train,75466855737,verified,Daniel,Manhattan,East Harlem,40.7988,-73.94339000000001,United States,US,True,strict,Entire home/apt,2008,$932 ,$186 ,4,5,6/30/2019,3.95,5,1,303,#NAME?,
26407136,Renovated Private Bedroom in Upper Manhattan,6984141474,unconfirmed,Pantelis,Manhattan,Washington Heights,40.84732,-73.93746999999999,United States,US,False,strict,Private room,2015,$551 ,$110 ,15,0,,,3,1,8,,
26407688,4 Bedrooms 4 Bathrooms  at Sutton Place Manhattan,23997289601,unconfirmed,Abigael,Manhattan,Midtown,40.75939,-73.96177,United States,US,True,flexible,Entire home/apt,2012,$977 ,$195 ,30,0,,,4,1,303,Keep your bedroom and apartment clean. Keep quiet when you share this apartment with other guests. No smoking inside the apartment. Your staying will be terminated if you smoke inside the building. No party after 9:30 p.m.,
26408241,Beautiful Studio APT in the heart of K-TOWN,98453812804,unconfirmed,Kyeng Tae,Manhattan,Midtown,40.7482,-73.98599,United States,US,True,moderate,Entire home/apt,2003,$140 ,$28 ,1,3,6/19/2019,3.0,5,1,259,,
26408793,Beautiful Shared apt in Times Square 3,2945112358,unconfirmed,Ahmet,Manhattan,Hell's Kitchen,40.76514,-73.98775,United States,US,True,strict,Shared room,2007,$561 ,$112 ,1,2,6/13/2019,1.82,3,7,362,"• Check-in time is 3PM. • Check-out time is 11:00AM. • No parties or events • Not suitable for pets • No smoking No smoking, no drugs, no parties and please, no visiting pets or unannounced visitors. Please lock up door when you go out, and during the heating season, turn down the heat. If you are new to Airbnb, the idea is that I’m not renting a room, but rather sharing my home. I live and work here, and enjoy meeting new people. It's like having old friends visit, not like a hotel. You are welcome to make yourself at home in the common living areas and to use the kitchen, but please leave everything as clean and put away as you have found it. As we will be sharing a bathroom, I appreciate your tidying up and keeping personal items in your room. The cat is not allowed outdoors – he can be sneaky so please don’t leave doors open and keep an eye out for her. You are welcome to the kitchen (and common areas), thank you for cleaning your dishes after using them.   I am environmentally fri",
26409345,3000 sq. ft. Designer Loft in the heart of NYC,47697778455,verified,Ella,Manhattan,East Village,40.73256,-73.99101999999999,United States,US,False,moderate,Entire home/apt,2016,"$1,151 ",$230 ,6,0,,,4,1,9,"Drinking in moderation, smoking outdoors, no drugs. Please clean up after yourself.",
26409898,The Sutton Place 2 Bedroom Apartment,63788711709,verified,Ash,Manhattan,Midtown,40.75547,-73.96248,United States,US,True,flexible,Entire home/apt,2007,$135 ,$27 ,30,0,,,5,14,0,,
26410450,Central Cozy Cobble Hill Gem,78067123137,unconfirmed,Zach,Brooklyn,Boerum Hill,40.68873,-73.98929,United States,US,True,strict,Entire home/apt,2014,$481 ,$96 ,30,2,7/7/2019,2.0,4,2,82,"Please take your street shoes off when entering the house. This is a smoke free home. Please no smoking in and around the house. For all my male guests: Please sit on the toilet. No standing please! This is a shared facility. Therefore, please be considerate of the amount of water and electricity you use. Please keep the noise level low.",
26411002,Lovely Studio APT in the center of K-TOWN,21333369111,unconfirmed,Werner,Manhattan,Midtown,40.74848,-73.98631,United States,US,True,moderate,Entire home/apt,2022,"$1,132 ",$226 ,1,4,6/22/2019,4.0,5,1,262,"NO PETS!  NO SMOKING ON PREMISES! NO PARTY! A printed house rule will be provided. Please be respectful to others when all rooms are booked. 10 AM Check-out and Check-in is between 12 PM (noon) - 3 PM.   Late check in after 8 pm is $50, lock out is $50. Respect yourself, Respect others, clean up after yourself.  No Smoking/drinking in apt.  Thank You! Location Rules: The ""Exact Address Location Is Not Disclosed For Security Reasons"" And Is Given Out 24 Hours Prior to Check-in.  If This Is a Problem for You, Please STOP Here And Contact Other Hosts for Your Stay.   This Is a Part Of My House Rules.",
26411554,BEAUTIFUL ROOM WITH GARDEN VIEW!,85798274955,verified,Ayla Silvia,Brooklyn,Bedford-Stuyvesant,40.69348,-73.94499,United States,US,False,moderate,Private room,2007,$206 ,$41 ,2,2,6/23/2019,1.67,2,1,1,"No smoking of any kind indoors; no smoking on deck or in back garden; smoking allowed in front garden, where chairs and a table are provided.  Guests using kitchen area are asked to keep it clean and put away food in refrigerator or cabinets or plastic containers.  Quiet hours after 11pm. ",
26412107,Bohemian bed & breakfast in the heart of Astoria!,25377158302,verified,Hannah,Queens,Ditmars Steinway,40.77132,-73.90474,United States,US,True,strict,Private room,2010,$729 ,$146 ,1,5,6/30/2019,4.17,5,1,167,"•No Smoking in any part of the property •Please do not leave any trash outside, please leave trash in bag inside the unit •Do not flush anything down toilet except toilet paper •Please maintain a reasonable volume •Please respect the property •No large parties •No more than 4 guests •Please ask before accessing bar •Do not purchase anything on cable •Please do not leave exterior doors open so that we can keep out insects and pests",
26412659,Family Place in❤️of Manhattan,91984998914,unconfirmed,Alex,Manhattan,Hell's Kitchen,40.76392,-73.98805,United States,US,False,flexible,Entire home/apt,2020,"$1,186 ",$237 ,1,11,7/5/2019,7.33,4,1,163,"Unlike most other Airbnb listings, what we do here is long-term rentals by the year, or by the semester.  We try to keep the atmosphere conducive to studying and resting and a couple of house-rules are in place to this end.  1. Towels and linens (sheets, blankets, and pillows) are NOT provided. The bed is twin size. 2. No smoking on the premises.  3. No loud music or TV etc.  4. Only for one person (no couples, no visitors). We seldom have visitors, let alone overnight guests. We know this will be a major turn-off to many people, but we believe we can find a like-minded roommate who can have fun outside the house.  5. If you are not sure about your check-out date, you can reserve the minimum days and extend your stay at a discounted rate.  6. Check-in time has to be coordinated at least 48 hours ahead. On arrival, a short registration process with a picture ID is needed in exchange for keys and wifi access.  7. Inside the apartment, we take off our outside shoes. So if you bring your o",
26413211,Wonderful Studio Apt in the middle of K-TOWN,20296089488,verified,Doil,Manhattan,Midtown,40.74646,-73.9863,United States,US,False,flexible,Entire home/apt,2010,$683 ,$137 ,1,2,6/24/2019,2.0,2,1,254,,
26413764,Gorgeous Studio Apt in the area of K-TOWN,3358940240,verified,Olivia,Manhattan,Midtown,40.74669,-73.98749000000001,United States,US,False,strict,Entire home/apt,2018,$229 ,$46 ,1,7,6/23/2019,7.0,5,1,249,No Parties No Loud Music No Smoking,
26414316,Cozy & Clean Studio Apt in K-TOWN,46122478691,unconfirmed,Ara,Manhattan,Midtown,40.748470000000005,-73.98629,United States,US,False,moderate,Entire home/apt,2021,$140 ,$28 ,1,5,6/19/2019,3.41,4,1,260,,
26414868,#GorgeousLowerEast2BedroomGem! #3minWalktoTrain!,40851020437,unconfirmed,Anslo,Manhattan,Lower East Side,40.71949,-73.98607,United States,US,True,moderate,Entire home/apt,2004,$796 ,$159 ,4,5,6/30/2019,3.75,5,1,327,"- NO PETS!  NO SMOKING ON PREMISES! NO PARTY! A printed house rule will be provided. Please be respectful to others when all rooms are booked. 10 AM Check-out and Check-in is between 12 PM (noon) - 3 PM.   Late check in after 8 pm is $50, lock out is $50. Respect yourself, Respect others, clean up after yourself.  No Smoking/drinking in apt.  Thank You!  Location Rules: The ""Exact Address Location Is Not Disclosed For Security Reasons"" And Is Given Out 24 Hours Prior to Check-in.  If This Is a Problem for You, Please STOP Here And Contact Other Hosts for Your Stay.   This Is a Part Of My House Rules.",
26415421,"BIG APARTMENT. NEW AC ROOM, HUDSON RIVER. COMFY.",69302561762,verified,Moises,Manhattan,Harlem,40.82204,-73.95566,United States,US,True,strict,Private room,2018,$606 ,$121 ,1,4,7/6/2019,3.24,2,3,211,"NO PETS.  NO SMOKING.  NO PARTIES.  No recreational drugs.  No open flames.  No excess noise after 10:00 pm.  Avoid disturbing neighbors.   NO PETS.  If a pet is found on the premise, a pet surcharge of $300 will be applied. You will be asked to leave immediately and will forfeit your security deposit if an animal is on the property without permission of owner. NO SMOKING PLEASE.  A $500 cleaning fee will be deducted from your deposit if smoking occurs in the unit. This is a NO PARTY house. Parties, loud get-togethers, or gatherings are not allowed because of neighbor issues, and possible damage to property. If a party, loud gathering, or loud disturbance does occur, or if neighbors or other guests call for a loud disturbance, you will forfeit your security deposit and will be evicted immediately. Please Note:  During your stay we ask that you leave the house tidy and in good order.  Guests must provide their own toiletries/cleaning supplies/paper products.  We will have a starter kit ",
26415973,Private Room w/a Patio in Center of Manhattan!,43520321867,verified,Maria,Manhattan,Midtown,40.75476,-73.97118,United States,US,False,flexible,Private room,2011,$662 ,$132 ,1,4,6/18/2019,4.0,4,3,29,"Guests who use kitchen must wash their dishes (or put them in dishwasher) and wipe stove and counters after eating, in courtesy to other guests. No smoking inside or behind the house; smoking is permitted only in smoking area in front of house. To maintain quiet on floors with bedrooms, please use headphones to listen to music/videos or when making (website hidden) calls in bedrooms, and keep hallways conversations quiet and short.  ",
26416525,"Cozy,Shared Place in Heart of Manhattan WEST 4",11710189734,unconfirmed,Ahmet,Manhattan,Hell's Kitchen,40.76501,-73.98892,United States,US,True,strict,Shared room,2007,"$1,172 ",$234 ,1,2,6/4/2019,1.58,4,7,365,"Respect yourself, respect others, clean up after yourself. No smoking or drinking in the apt. Late check in after 9 p.m. and before 10 A.m. is $50, lock out is $50. Thank you",
26417077,Sunny Apt on Treelined Street 2 blocks from trains,65322834994,verified,Kristen,Brooklyn,Sunset Park,40.64918,-74.00756,United States,US,True,strict,Entire home/apt,2013,$158 ,$32 ,7,0,,,3,1,66,"NO PETS!  NO SMOKING ON PREMISES!  NO PARTY! No ""DRUGS""! - Keep the Place Clean at All Times! - Do Not Ask the ""Neighbors"" for anything.  Ask Me!-  - No Neighbors Interaction! - No ""Drugs"" Please!!! - No Noise! A printed house rule will be provided. Please be respectful to others when all rooms are booked. 10 AM Check-out and Check-in is between 12 PM (noon) - 3 PM.   Late check in after 8 pm is $50, lock out is $50. Respect yourself, Respect others, clean up after yourself.  No Smoking/drinking in apt.  Thank You! Location Rules: The ""Exact Address Location Is Not Stockton St.  It Is 2 Streets Away.  It Is Not Disclosed For Security Reasons"" And Is Given Out 24 Hours Prior to Check-in.  If This Is a Problem for You, Please STOP Here And Contact Other Hosts for Your Stay.   This Is a Part Of My House Rules.",
26417630,Shared room in Midtown Near Times Square 5,26421027404,unconfirmed,Ahmet,Manhattan,Hell's Kitchen,40.76356,-73.98814,United States,US,False,strict,Shared room,2010,$857 ,$171 ,1,2,6/23/2019,1.62,3,7,362,"•Parties or Gatherings are not permitted. •Please be courteous to the neighbors and keep noise levels low, especially between the hours of 10pm-10am. •Absolutely no smoking in the apartment. Smoking only on the back porch •Overnight guests are not permitted unless included on the initial reservation. •Please help us conserve energy by turning off lights, small appliances, lamps, etc. when not being used.  •Please store recyclables separately. •Pets are not permitted at any time. •If you need flexibility around the specified check in or check out times, let us know in advance. •Owner is NOT responsible for any accidents, injuries or illness that occurs while on the premises or its facilities.",
26418182,Cozy 1 Bedroom Apartment near Yankee Stadium,56676572591,verified,Michelle,Bronx,Melrose,40.82374,-73.91555,United States,US,True,flexible,Entire home/apt,2012,$667 ,$133 ,2,2,6/17/2019,2.0,5,1,0,,
26418734,"Shared,Cozy Room İn Times Square 6",51083015430,unconfirmed,Ahmet,Manhattan,Hell's Kitchen,40.76509,-73.98795,United States,US,False,flexible,Shared room,2020,$609 ,$122 ,1,3,7/1/2019,2.0,4,7,365,,
26419287,Sonder | 116 John | Vibrant 1BR + Gym,83622272143,unconfirmed,Sonder (NYC),Manhattan,Financial District,40.70861,-74.00479,United States,US,False,moderate,Entire home/apt,2009,$795 ,$159 ,29,0,,,4,327,347,,
26419839,Heart of the East Village Apartment,21089553113,verified,Ted,Manhattan,East Village,40.72764,-73.98711999999999,United States,US,False,moderate,Private room,2003,$816 ,$163 ,3,1,6/11/2019,1.0,3,1,67,,
26420391,Shared Apt by Central Park in Hell's Kitchen 7,21135541030,verified,Ahmet,Manhattan,Hell's Kitchen,40.76424,-73.98916,United States,US,False,strict,Shared room,2014,$286 ,$57 ,1,8,6/21/2019,6.32,2,7,357,#NAME?,
26420944,Private Room near Times Square 1,11299907729,unconfirmed,Ahmet,Manhattan,Hell's Kitchen,40.76404,-73.98973000000001,United States,US,False,strict,Private room,2006,"$1,040 ",$208 ,1,5,7/1/2019,3.33,5,7,352,"just act like my friend in building and don't be mean to Jack, he's ugly I know but sweet and small.",
26421496,"Bronx, Little Italy, Arthur Ave, Fordham, Yanks.",35023448750,verified,Jorge,Bronx,Belmont,40.85539,-73.88769,United States,US,True,flexible,Private room,2013,$359 ,$72 ,1,3,6/30/2019,3.0,2,2,359,"House Rules  Please treat my home as if it were your own. Be respectful of me, my guests, and anyone you may encounter in the building.  No smoking (indoors or on the balcony). Please clean up after yourself, especially in the bathroom. Upon leaving, please put your trash in the chute and strip the linens of the bed. If you have any questions, please ask me. No parties or loud noises in the unit after 10 pm but the club lounge is 24 hours and you are welcome to relax and socialize on the 20th (URL HIDDEN) long as your respectful and not overly loud.   PLEASE ALSO BE MINDFUL OF NEIGHBORS.",
26422048,Private Room İn Hell's Kitchen 2,5200786755,unconfirmed,Ahmet,Manhattan,Hell's Kitchen,40.76487,-73.98912,United States,US,True,moderate,Private room,2017,$685 ,$137 ,1,1,6/9/2019,1.0,4,7,198,,
26422600,TimeSquare High-level modern apartment 1BDR!,9213396708,unconfirmed,Zack,Manhattan,Theater District,40.76113,-73.98557,United States,US,True,moderate,Private room,2021,$124 ,$25 ,2,1,6/1/2019,0.77,3,1,31,Smoking is strictly prohibited. Your pets are welcome but please mind them. NO PARTIES ALLOWED.  EXCESSIVE NOISE IS STRICTLY PROHIBITED.,
26423153,Beautiful Spacious Apartment! Comfortable Place.,44435752634,unconfirmed,Moises,Manhattan,Harlem,40.82172,-73.95618,United States,US,True,flexible,Private room,2014,"$1,081 ",$216 ,1,4,7/1/2019,4.0,5,3,209,"Check-in is after 3PM Some general information about the apartment. Please try to keep it relatively quite, especially at night. Strict no parties or entertainment policy. No additional guests are allowed outside of reservation. No smoking inside the apartment or hallway. No pets allowed in the apartment. Unfortunately no young children as the house is not equipped for children under 10.   When making a booking - please have a verified email address and phone number on your airbnb account. Respect and treat the apartment as your own and how you would expect others to treat yours. Please communicate with us as soon as possible, should something go wrong during your stay, so we can try to fix it as soon as possible. Once you've confirmed the booking, please respect the apartment and don't hesitate to make it your own. We want you to feel like you are at home, so to sum it all up.. don't do things you wouldn't do at your own place We look forward to welcoming you and have a great time in ",
26423705,Awesome Apt 7 Beds Sleeps 12 in Brooklyn By Train,80945946464,verified,Peter,Brooklyn,Bedford-Stuyvesant,40.68957,-73.92659,United States,US,False,strict,Private room,2014,$512 ,$102 ,2,2,6/16/2019,1.4,4,1,334,"Please do not smoke or do drugs in our home, and please do not have parties.  There is no glass allowed on the roof (which is on the 9th floor).",
26424257,10 Beds Sleeps 15 Laundry in Apt in Williamsburg,75482077558,unconfirmed,Madea And Julian,Brooklyn,Williamsburg,40.70865,-73.96673,United States,US,True,flexible,Entire home/apt,2009,$476 ,$95 ,30,5,6/23/2019,3.33,4,1,333,,
26424810,COZY PRIVATE ROOM / PRIVATE BATHROOM IN BROOKLYN,37423767992,unconfirmed,Charlotte,Brooklyn,Bedford-Stuyvesant,40.69634,-73.93445,United States,US,True,moderate,Private room,2019,$974 ,$195 ,2,4,7/2/2019,4.0,3,1,0,"Please remember that this is a residential building.  All building rules, hotel occupancy restrictions, and year-round tenants must be respected.",
26425362,Spacious home with views of Gramercy Park,96539281629,unconfirmed,Anne-Marie,Manhattan,Gramercy,40.73891,-73.98657,United States,US,True,moderate,Entire home/apt,2016,$642 ,$128 ,4,0,,,2,1,148,,
26425914,Summer in ny,47615623117,unconfirmed,Kobi,Manhattan,Washington Heights,40.84176,-73.93738,United States,US,True,strict,Private room,2018,"$1,068 ",$214 ,3,0,,,3,1,0,,
26426467,Midtown Steal by Rockefeller Center,88800133831,unconfirmed,Maria,Manhattan,Midtown,40.75455,-73.9695,United States,US,True,moderate,Private room,2011,$720 ,$144 ,1,8,7/3/2019,8.0,4,3,123,,
26427019,❤❤❤ Luxe 3bdrm + Parking 10 mins to Manhattan,46316428581,verified,Jean,Queens,Long Island City,40.75823,-73.93114,United States,US,True,flexible,Entire home/apt,2003,$678 ,$136 ,3,4,6/24/2019,4.0,2,1,302,#NAME?,
26427571,Modern Luxury near Gramercy Park: 3 Bed/2 Bath,34853424567,verified,Lidia,Manhattan,Murray Hill,40.74525,-73.97225,United States,US,False,strict,Entire home/apt,2018,"$1,071 ",$214 ,3,3,6/25/2019,3.0,5,1,311,#NAME?,
26428123,Gorgeous Downtown Flat With Huge Rooftop Terrace,71282189039,unconfirmed,Jeremy,Manhattan,Midtown,40.75911,-73.97010999999999,United States,US,False,strict,Entire home/apt,2004,$633 ,$127 ,2,3,7/2/2019,3.0,3,1,120,#NAME?,
26428676,"Comfy Space in Living Room, Midtown Manhattan",63168957907,unconfirmed,Maria,Manhattan,Midtown,40.756240000000005,-73.97171,United States,US,True,strict,Shared room,2019,$504 ,$101 ,1,9,7/3/2019,7.5,2,3,15,,
26429228,Private 2 beds Studio w/sofa Near ESB,77240672702,verified,Studioplus,Manhattan,Midtown,40.74781,-73.98769,United States,US,False,moderate,Entire home/apt,2008,$276 ,$55 ,2,2,6/22/2019,2.0,2,13,292,,
26429780,"LGA,TimeSquare,JFK,Queens PrivateBD,BHroom",78688634062,unconfirmed,Alin,Queens,Elmhurst,40.746959999999994,-73.87912,United States,US,True,moderate,Private room,2006,$780 ,$156 ,2,3,7/1/2019,2.14,2,1,64,"No parties, smoking or pets. Feel free to enjoy the location and space, just be respectful, thank you! (My doorman will know if you are bringing people up to the apartment.)",
26430333,Charming 1 Bedroom Apartment In The Heart of NYC,90170640815,verified,Paul,Manhattan,Midtown,40.75974,-73.97067,United States,US,False,flexible,Entire home/apt,2011,$232 ,$46 ,2,4,7/2/2019,4.0,4,1,129,,
26430885,Habitacion confortable.  Entrada independiente...,6912475694,verified,Raul,Queens,College Point,40.78714,-73.84378000000001,United States,US,True,strict,Entire home/apt,2012,$780 ,$156 ,2,0,,,4,1,358,#NAME?,
26431437,New 1 bedroom apartment in luxury building,19887183338,unconfirmed,Sara,Brooklyn,Bushwick,40.699709999999996,-73.93068000000001,United States,US,False,moderate,Entire home/apt,2011,$733 ,$147 ,9,4,7/1/2019,3.33,5,2,159,NO Smoking Pets Allowed with Fee,
26431990,★★Cute flat in ❤ of Manhattan★★,71604131799,verified,Alex,Manhattan,Hell's Kitchen,40.75484,-73.9939,United States,US,False,moderate,Entire home/apt,2020,$772 ,$154 ,1,13,7/5/2019,8.86,2,1,189,"Please remember that this is a residential building. The building rules, apartment occupancy restrictions and the year-round tenants must be respected.  Parties, pets and smoking are not allowed under any circumstances and incur significant fees.",
26432542,Trendy One Bedroom Apartment in UES,66032395929,verified,Saud,Manhattan,East Harlem,40.787659999999995,-73.9423,United States,US,True,flexible,Entire home/apt,2007,$946 ,$189 ,3,2,6/20/2019,2.0,5,1,26,"Please remember that this is a residential building. The building rules, apartment occupancy restrictions and the year-round tenants must be respected.  Parties and smoking are not allowed under any circumstances and incur significant fees. Pets may be considered with pre-approval and an additional pet fee.",
26433094,Amazing Location! 1 Bedroom Apartment Downtown,57414947466,verified,Regina,Manhattan,Midtown,40.76044,-73.97012,United States,US,False,moderate,Entire home/apt,2014,"$1,138 ",$228 ,2,3,7/1/2019,3.0,4,1,67,Professional building with professional behavior expectations!,
26433646,Lucky's Sunshine Fabulous Hideaway,83512674260,unconfirmed,Avelino,Queens,Long Island City,40.76263,-73.93547,United States,US,False,flexible,Private room,2019,$62 ,$12 ,1,2,6/4/2019,1.54,4,1,349,"We expect guests to treat our home as if it were their own. Be neat and clean, considerate, and respectful of both our home and our neighbors. There is NO smoking in the home, NO pets, NO drugs!!!",
26434199,Luxury new East Williamsburg 1 bedroom apartment.,5810193882,verified,Sara,Brooklyn,Bushwick,40.698240000000006,-73.92888,United States,US,False,flexible,Entire home/apt,2005,$127 ,$25 ,30,3,7/3/2019,2.65,3,2,114,#NAME?,
26434751,"Big one bedroom apt, new and beautiful.",44363522474,verified,Rivka,Manhattan,Upper West Side,40.799,-73.96315,United States,US,False,strict,Entire home/apt,2012,$777 ,$155 ,7,0,,,3,1,273,,
26435303,NYC 25 min from Staten IS Ferry Cozy 1br house,50169089561,unconfirmed,Yuriy,Staten Island,Mariners Harbor,40.6357,-74.15478,United States,US,False,moderate,Entire home/apt,2006,$591 ,$118 ,1,4,7/7/2019,4.0,2,1,140,,
26435856,法拉盛中心地段单身客房,6463976739,unconfirmed,Nan,Queens,Flushing,40.76377,-73.82692,United States,US,False,moderate,Private room,2008,$715 ,$143 ,1,6,6/30/2019,5.45,3,1,74,,
26436408,Comfy Home ~ 2nd Floor,58528112669,verified,Joyann,Queens,Springfield Gardens,40.66316,-73.74804,United States,US,False,moderate,Entire home/apt,2008,$162 ,$32 ,3,1,6/30/2019,1.0,3,1,365,,
26436960,Monica’s cozy room,6103654691,verified,Morales,Brooklyn,Bedford-Stuyvesant,40.68538,-73.94637,United States,US,False,flexible,Private room,2019,$518 ,$104 ,1,0,,,3,3,364,,
26437513,Home away from Home (2 Bedroom Apartment),29480664160,unconfirmed,Juan,Manhattan,Kips Bay,40.74392,-73.97740999999999,United States,US,False,flexible,Entire home/apt,2012,$87 ,$17 ,1,2,6/23/2019,2.0,2,1,167,"Our check in time is 3pm. If you would like to check in earlier please let us know ahead of time.   We are happy to accomidate if possible, but do understand that we need some time to make sure your room is ready on your arrival.  Clean up after yourself & turn lights off on our roof deck.  It is a common space in the building.    There is No Smoking in the apartment or on the roof deck.  Please no guests without checking with us. We have some nosy neighbors so if they ask where you are staying please let them know with friends or family.  Some of our neighbors are not happy with us using AirBNB.   Thank you for helping us out!",
26438065,"Cozy 4BR in FIDI, next to Wall St & One World Trad",85102995415,unconfirmed,Mats,Manhattan,Financial District,40.71055,-74.00623,United States,US,False,strict,Entire home/apt,2005,$404 ,$81 ,3,5,6/19/2019,4.55,3,1,65,,
26438617,"Summer in a sunny, top floor twin",37810568648,verified,Tj,Brooklyn,Bedford-Stuyvesant,40.68425,-73.92503,United States,US,True,strict,Private room,2004,$487 ,$97 ,2,5,6/26/2019,4.29,2,3,257,,
26439169,Balcony with Room! Close to LGA and JFK.,7334047355,verified,Aisling,Queens,Richmond Hill,40.70254,-73.8322,United States,US,True,strict,Private room,2005,$191 ,$38 ,1,17,7/5/2019,13.42,2,1,157,,
26439722,NYC Prime Location! Beautiful Big Apartment! Enjoy,8147551791,unconfirmed,Moises,Manhattan,Harlem,40.82132,-73.95441,United States,US,False,flexible,Private room,2012,$168 ,$34 ,1,3,7/5/2019,3.0,3,3,249,,
26440274,Cozy Brooklyn getaway,82023569279,unconfirmed,Dina,Brooklyn,Flatbush,40.64669,-73.95921,United States,US,True,moderate,Private room,2009,$720 ,$144 ,1,1,6/2/2019,0.79,5,1,80,,
26440826,Three Blocks to Times Square & Central Park,12785054803,verified,Ale,Manhattan,Hell's Kitchen,40.763940000000005,-73.99466,United States,US,False,flexible,Shared room,2003,$480 ,$96 ,1,0,,,4,1,44,,
26441379,"LUXURY 2ND FL,4BR/2 FUL BTH,SLEEP 8+,15MIN-JFK/LGA",5295001611,unconfirmed,Az,Queens,Jamaica Hills,40.71209,-73.80151,United States,US,False,moderate,Entire home/apt,2013,$674 ,$135 ,2,4,7/8/2019,4.0,2,2,124,,
26441931,"Clean, Cozy, Private Bath &  Bedroom  Apartment",6926176196,verified,Cecilia,Bronx,Throgs Neck,40.818690000000004,-73.82233000000001,United States,US,True,strict,Entire home/apt,2006,$503 ,$101 ,2,3,7/5/2019,3.0,5,1,120,,
26442483,Gorgeous Large private room near LGA (#5),48812112272,unconfirmed,Ajmol,Queens,East Elmhurst,40.76444,-73.87238,United States,US,True,strict,Private room,2022,$842 ,$168 ,1,7,6/27/2019,5.38,2,5,73,"Shoes off in the house, please! Turn A/C off when not home, and hand-wash the knives. Thanks :).",
26443036,3 Bedroom Apartment near Central Park,19799693761,verified,Hannah,Manhattan,Upper West Side,40.79599,-73.96659,United States,US,False,strict,Entire home/apt,2022,$62 ,$12 ,30,0,,,5,1,319,,
26443588,Large private room with a queen bed near LGA (#4),32626994449,unconfirmed,Ajmol,Queens,East Elmhurst,40.764109999999995,-73.87373000000001,United States,US,True,moderate,Private room,2015,$868 ,$174 ,1,13,7/7/2019,9.07,5,5,88,Parties and smoking are not allowed under any circumstances and incur significant fees. Pets may be considered with pre-approval and an additional pet fee.,
26444140,Private small room with a queen bed near LGA (#03),93762816837,unconfirmed,Ajmol,Queens,East Elmhurst,40.76481,-73.87241999999999,United States,US,True,flexible,Private room,2009,$796 ,$159 ,1,15,7/7/2019,10.23,3,5,89,"In the building you are my guest, know my name and our unit at all times or they will throw you out.  they don't care if you are from airbnb or the king of England, you don't know who you are here with they toss you.  Don't make a problem for the doorman under any circumstances (being drunk and locked out, call me not him).  He can't get you in.   There are some high rollers in the building, act like you have been there before :) There are some nice common areas, just act like the upstanding business professional you are.",
26444692,Coote Luxe Suite - Modern and Comfortable  APT,17497646108,unconfirmed,Damiso,Brooklyn,Canarsie,40.64127,-73.89119000000001,United States,US,False,moderate,Entire home/apt,2013,"$1,178 ",$236 ,2,11,7/5/2019,7.5,4,1,167,,
26445245,Bushwick Gardens apt,59171553752,unconfirmed,Gabby,Brooklyn,Bushwick,40.69214,-73.92379,United States,US,True,moderate,Entire home/apt,2014,"$1,171 ",$234 ,1,0,,,2,1,0,"House Rules  Please treat my home as if it were your own. Be respectful of me, my guests, and anyone you may encounter in the building. Please do NOT mention airbnb and that you are renting the unit.  No smoking (indoors or on the balcony). Please clean up after yourself, especially in the bathroom. Upon leaving, please put your trash in the chute and strip the linens of the bed. If you have any questions, please ask me. No parties or loud noises in the unit after 10 pm but the club lounge is 24 hours and you are welcome to relax and socialize on the 20th (URL HIDDEN) long as your respectful and not overly loud.   PLEASE ALSO BE MINDFUL OF NEIGHBORS.",
26445797,"Beautiful, Spacious, Sunny 1 Bed apt. with Rooftop",76735660323,verified,Roza,Manhattan,East Village,40.726040000000005,-73.98843000000001,United States,US,False,moderate,Entire home/apt,2022,"$1,120 ",$224 ,5,2,6/29/2019,2.0,4,1,11,,
26446349,HUGE triplex with rooftop and private garden,39294958127,unconfirmed,Benoit,Brooklyn,Crown Heights,40.67623,-73.93642,United States,US,False,moderate,Entire home/apt,2016,$343 ,$69 ,3,2,7/1/2019,2.0,3,1,46,,
26446902,Beautiful Apartment in Brooklyn,37368950543,verified,Tome,Brooklyn,Crown Heights,40.66701,-73.93861,United States,US,False,strict,Entire home/apt,2007,$784 ,$157 ,10,0,,,3,1,6,Smoking is strictly prohibited. Your pets are welcome but please mind them. NO PARTIES ALLOWED.  EXCESSIVE NOISE IS STRICTLY PROHIBITED,
26447454,"Sunny Apt by Park, Blvd , BK Museum & Library",40195051961,unconfirmed,Rob,Brooklyn,Crown Heights,40.67463,-73.9606,United States,US,False,moderate,Private room,2019,$419 ,$84 ,31,0,,,4,1,328,Strictly no smoking on property. Your pets are welcome but please mind them. NO PARTIES ALLOWED.  EXCESSIVE NOISE IS STRICTLY PROHIBITED,
26448006,New Cozy Suite in Private home on quiet street .,39649771690,unconfirmed,Chandraki,Bronx,Wakefield,40.893229999999996,-73.85215,United States,US,True,flexible,Private room,2014,$405 ,$81 ,2,0,,,4,1,364,,
26448559,Sunny Studio by Central Park!,57610233749,verified,Phyllis,Manhattan,East Harlem,40.800979999999996,-73.94261,United States,US,False,strict,Entire home/apt,2020,"$1,104 ",$221 ,3,3,6/25/2019,2.37,5,1,308,"Please treat my home as if it were your own. Be respectful of me, my cleaning lady,and anyone you may encounter in the building. No smoking (indoors or on the balcony). Please clean up after yourself, especially in the bathroom. Upon leaving, please put your trash in the chute and strip the linens off the bed. If you have any questions, please ask me.",
26449111,⋆ Luxury FiDi Terrace Apt w/ Brooklyn Bridge views,21168457400,verified,Jose,Manhattan,Financial District,40.706590000000006,-74.00501,United States,US,True,strict,Entire home/apt,2021,"$1,158 ",$232 ,4,0,,,5,1,83,,
26449663,UES loft near hospitals,57232740513,verified,Moni,Manhattan,Upper East Side,40.763290000000005,-73.96235,United States,US,True,strict,Entire home/apt,2003,$913 ,$183 ,7,0,,,2,1,11,"Thank you for your reservation. By placing your reservation online you indicated that you accepted the terms and conditions which have been printed below.  Please review your reservation summary as below - then print, sign and return the agreement to:  (EMAIL HIDDEN) or fax it to (PHONE NUMBER HIDDEN) or  mail it to: Spare Suite, Inc., 119 Braintree Street, Suite 510, Boston, MA 02134, USA Upon receipt, we will send you the welcome document with check in instructions and how to get your keys. ------------------------------------------------------------------------ ------------------------------------------------------------------------ Terms of the Agreement: BOOKING AND REFUND POLICY Once booked your reservation is guaranteed for the check in and check out times and dates specified. All reservations must be paid in advance, in full for the entire period of stay.  All reservations are final, and NON REFUNDABLE UNDER ANY CIRCUMSTANCES.  If you feel you may need to cancel once booked, yo",
26450215,Cozy 2BDR on mulberry st  little italy/china town,72842040844,verified,Sonny,Manhattan,Little Italy,40.71837,-73.99768,United States,US,False,moderate,Entire home/apt,2014,$686 ,$137 ,5,2,6/22/2019,1.67,5,1,300,"Please no smoking in the house.  As we are working professionals we are hoping you can share this space while you visit and we'd love to chat with you, but no parties please.",
26450768,"Bright, loft-style room in prime Williamsburg",10757566146,verified,Antje,Brooklyn,Williamsburg,40.71544,-73.96003,United States,US,True,strict,Private room,2014,$919 ,$184 ,5,0,,,5,1,12,,
26451320,Peaceful.,77580481259,verified,Nathaniel,Brooklyn,Fort Greene,40.690259999999995,-73.97074,United States,US,True,moderate,Private room,2016,$379 ,$76 ,1,4,6/24/2019,3.08,5,1,336,- Check out by 10am,
26451872,Divine Harlem Getaway,76603406342,unconfirmed,SamariSankofa,Manhattan,Harlem,40.81149,-73.94024,United States,US,False,moderate,Entire home/apt,2004,$472 ,$94 ,1,6,7/1/2019,4.09,2,3,352,"Please remember that this is a residential building. The building rules, apartment occupancy restrictions and the year-round tenants must be respected.  Parties, pets and smoking are not allowed under any circumstances and incur significant fees.",
26452425,Theater District / Times Sq / Central Park - 1 BDR,7585869626,unconfirmed,Riki,Manhattan,Hell's Kitchen,40.762840000000004,-73.99003,United States,US,False,moderate,Entire home/apt,2019,$165 ,$33 ,1,2,6/23/2019,2.0,3,1,55,Please pick up/drop packet with front desk concierge. ABSOLUTELY NO SMOKING!!,
26452977,Hudge Appartment in Manhattan,70246085560,verified,Mohamed,Manhattan,Washington Heights,40.85638,-73.92921,United States,US,False,strict,Entire home/apt,2009,$311 ,$62 ,70,0,,,2,1,37,"Please remember that this is a residential building. The building rules, apartment occupancy restrictions and the year-round tenants must be respected.  Parties and smoking are not allowed under any circumstances and incur significant fees. Pets may be considered with pre-approval and an additional pet fee.",
26453529,Prime location West Village private room,13534165180,unconfirmed,Simon,Manhattan,West Village,40.73435,-74.00392,United States,US,True,strict,Private room,2006,$311 ,$62 ,3,2,6/22/2019,2.0,4,1,34,#NAME?,
26454082,Best views in the city is here,80783277622,unconfirmed,Nikita,Brooklyn,Brooklyn Heights,40.69664,-73.99467,United States,US,False,strict,Entire home/apt,2008,$653 ,$131 ,2,1,6/10/2019,1.0,4,1,0,"Some general information about the apartment. Please be respectful to the neighbors during your stay. Try to keep it relatively quite, especially at night. Strict no parties or entertainment policy. No additional guests are allowed outside of reservation. No smoking inside the apartment or hallway. No pets allowed in the apartment. Unfortunately no young children as the house is not equipped for children under 10.   When making a booking - please have a verified email address and phone number on your airbnb account. Respect and treat the apartment as your own and how you would expect others to treat yours. Please communicate with us as soon as possible, should something go wrong during your stay, so we can try to fix it as soon as possible. Once you've confirmed the booking, please respect the apartment and don't hesitate to make it your own. We want you to feel like you are at home, so to sum it all up.. don't do things you wouldn't do at your own place We look forward to welcoming yo",
26454634,MASTER  ROOM # 2 Near from JFK  & LGA Airport.,95773299449,unconfirmed,Lucio,Queens,Richmond Hill,40.6944,-73.83192,United States,US,False,strict,Private room,2009,$836 ,$167 ,1,5,7/5/2019,4.05,2,3,365,"Please remember that this is a residential building. The building rules, apartment occupancy restrictions and the year-round tenants must be respected.  Parties and smoking are not allowed under any circumstances and incur significant fees. Pets may be considered with pre-approval and an additional pet fee.",
26455186,downtown brooklyn dream stay,88034448506,unconfirmed,Sandra,Brooklyn,Downtown Brooklyn,40.69791,-73.98380999999999,United States,US,False,strict,Entire home/apt,2015,$162 ,$32 ,4,1,6/24/2019,1.0,4,1,23,"To be helpful to you, I have prepared detailed arrival information and send that to you a few days before you arrive. I ask that you read the info carefully to help you enjoy your stay and ask that you send me a note indicating you have read all the information before your day of arrival. Thanks!",
26455738,Brooklyn's Gorgeous Garden Apt. 25' to Downtown.,76366230776,verified,Tika,Brooklyn,Bedford-Stuyvesant,40.68463,-73.92617,United States,US,False,strict,Entire home/apt,2010,$210 ,$42 ,4,0,,,5,1,6,"Please remember that this is a residential building. The building rules, apartment occupancy restrictions and the year-round tenants must be respected.  Parties, pets and smoking are not allowed under any circumstances and incur significant fees.",
26456291,Center of Hipster Astoria 4bd 2bath 2blocks Subway,78939814665,verified,Juka,Queens,Astoria,40.76238,-73.91721,United States,US,False,moderate,Private room,2005,$747 ,$149 ,1,1,6/30/2019,1.0,3,1,333,,
26456843,Highly nice area beautiful place too visit,97755367790,unconfirmed,Neal,Queens,Arverne,40.59279,-73.79993,United States,US,True,strict,Private room,2008,$791 ,$158 ,1,1,7/6/2019,1.0,5,1,90,"Please remember that this is a residential building. The building rules, apartment occupancy restrictions and the year-round tenants must be respected. Parties, pets and smoking are not allowed under any circumstances and incur significant fees.",
26457395,Comfort,79086855087,verified,Margo,Brooklyn,Bedford-Stuyvesant,40.684059999999995,-73.93966999999999,United States,US,False,flexible,Entire home/apt,2010,$151 ,$30 ,2,0,,,4,1,87,Smoking is strictly prohibited. Your pets are welcome but please mind them. NO PARTIES ALLOWED.  EXCESSIVE NOISE IS STRICTLY PROHIBITED,
26457948,Quiet modern 2BR in Hells Kitchen with elevator,15487398242,verified,Daria,Manhattan,Hell's Kitchen,40.76506,-73.98507,United States,US,False,moderate,Entire home/apt,2021,$433 ,$87 ,30,0,,,2,2,336,"wash your dishes, turn off the AC and lights when you leave, keep noise to a minimum after 10pm",
26458500,005 Comfy and Pleasant Shared Room,18704666132,verified,Simranjeet,Staten Island,Concord,40.60625,-74.089,United States,US,True,strict,Shared room,2005,$625 ,$125 ,4,1,6/1/2019,0.77,2,7,68,Smoking is allowed on balcony and other designated areas. Your pets are welcome but please mind them. NO PARTIES ALLOWED.  EXCESSIVE NOISE IS STRICTLY PROHIBITED.,
26459052,Apartamento compartido NYC.,74214639765,unconfirmed,Jesus A,Bronx,Fordham,40.85743,-73.90233,United States,US,True,strict,Shared room,2022,$978 ,$196 ,1,1,6/3/2019,0.83,4,1,11,Smoking is strictly prohibited. Your pets are welcome but please mind them. NO PARTIES ALLOWED.  EXCESSIVE NOISE IS STRICTLY PROHIBITED,
26459605,Gorgeous Apartment near Time Square,65999776103,verified,Valeria,Manhattan,Hell's Kitchen,40.76256,-73.9904,United States,US,False,flexible,Entire home/apt,2020,$522 ,$104 ,3,3,6/19/2019,2.57,4,1,43,#NAME?,
26460157,Gorgeous Apt close to ❤️Times Square❤️,57581162406,unconfirmed,Alex,Manhattan,Hell's Kitchen,40.76512,-73.98725999999999,United States,US,True,flexible,Entire home/apt,2015,"$1,118 ",$224 ,1,11,6/30/2019,7.86,2,1,180,,
26460709,Superb apartment in❤of Manhattan★,53195429047,verified,Alex,Manhattan,Greenwich Village,40.73108,-74.00114,United States,US,False,moderate,Entire home/apt,2009,$219 ,$44 ,1,7,7/1/2019,5.12,2,1,185,,
26461261,Private Room in 2BD near Grand Central,75450584794,verified,Nick,Manhattan,Murray Hill,40.7472,-73.97278,United States,US,False,flexible,Private room,2021,$704 ,$141 ,2,0,,,2,1,43,,
26461814,"Designer owned, newly renovated Bed Stuy flat",98528589797,verified,Brad,Brooklyn,Bedford-Stuyvesant,40.68295,-73.91553,United States,US,True,flexible,Entire home/apt,2006,$333 ,$67 ,1,2,6/26/2019,2.0,5,1,92,,
26462366,Amazing Williamsburg Apartment,32789974779,verified,Dom,Brooklyn,Williamsburg,40.72096,-73.95528,United States,US,False,moderate,Entire home/apt,2006,$641 ,$128 ,5,0,,,2,1,0,No pets. No smoking.,
26462918,Entire one-bedroom apartment in heart of Harlem!,44665864396,unconfirmed,Nicole,Manhattan,East Harlem,40.80619,-73.94174,United States,US,False,moderate,Entire home/apt,2003,"$1,003 ",$201 ,2,1,7/3/2019,1.0,4,1,1,,
26463471,Downtown Manhattan apartment,8605031020,unconfirmed,Sophie,Manhattan,Lower East Side,40.71345,-73.98678000000001,United States,US,False,moderate,Entire home/apt,2017,$210 ,$42 ,5,0,,,2,1,32,Smoking is strictly prohibited. Your pets are welcome but please mind them. NO PARTIES ALLOWED.  EXCESSIVE NOISE IS STRICTLY PROHIBITED,
26464023,Gorgeous 2BR Apartment in Manhattan Center,7593669900,unconfirmed,Raquel,Manhattan,Kips Bay,40.74125,-73.98125,United States,US,True,strict,Entire home/apt,2011,$170 ,$34 ,3,5,7/4/2019,4.41,2,1,64,,
26464575,West Village Gem! Like Paris,93564792835,unconfirmed,Siobhan,Manhattan,West Village,40.72905,-74.00294,United States,US,True,flexible,Entire home/apt,2016,$170 ,$34 ,2,2,6/23/2019,1.62,4,1,21,,
26465128,#2 Hotel-like Private Room KING Bed near JFK,96692748168,unconfirmed,David,Queens,Woodhaven,40.6929,-73.86378,United States,US,True,flexible,Private room,2021,$803 ,$161 ,1,10,7/4/2019,10.0,4,8,273,The home is not suitable for pets or children under 22,
26465680,NY style 2 Bedroom apartment,56907225156,verified,Stef,Manhattan,Chinatown,40.71752,-73.99387,United States,US,False,strict,Entire home/apt,2021,$595 ,$119 ,4,3,6/14/2019,2.73,4,1,169,,
26466232,The aqua roon or the peach room,59094548210,unconfirmed,Natasha,Brooklyn,East New York,40.6613,-73.88756,United States,US,True,moderate,Private room,2019,$916 ,$183 ,2,1,6/24/2019,1.0,5,1,270,,
26466784,"SPACIOUS, bright 3BD apartment",34899191334,unconfirmed,Isabelle,Brooklyn,Williamsburg,40.71018,-73.95376999999999,United States,US,False,strict,Entire home/apt,2022,$394 ,$79 ,4,0,,,4,1,23,"First and foremost, treat this house like you would like your guests to respect and treat yours. No shoes in the house (slippers will be provided to you upon your arrival). Clean up after yourself & turn lights off whenever leaving a space, specially on our roof deck.  There is no smoking in the apartment or on the roof deck. Guests are not allowed to have other guests come over.",
26467337,The Glamper Van,64152020430,unconfirmed,Meng,Manhattan,SoHo,40.72765,-74.00213000000001,United States,US,True,moderate,Entire home/apt,2007,$177 ,$35 ,1,6,6/30/2019,4.74,2,8,70,Be courteous to neighbors. No parties. No smoking. No pets. No hanging around on front porch.,
26467889,Cozy Private Studio near Times Square,86900300127,unconfirmed,Vivian,Manhattan,Hell's Kitchen,40.76831,-73.98515,United States,US,True,moderate,Entire home/apt,2014,$166 ,$33 ,3,0,,,3,2,361,,
26468441,Gorgeous Private Studio near Central Park,78797851017,verified,Vivian,Manhattan,Hell's Kitchen,40.76795,-73.98380999999999,United States,US,False,flexible,Entire home/apt,2004,$386 ,$77 ,3,0,,,3,2,365,"1. Only the ORIGINAL OCCUPANTS at the time of booking are allowed to stay in the property overnight and secondly no additional guest will be brought in without prior authorization. 2. Excessive NOISE & DISTURBANCES, specifically on work nights (Sunday thru Thursday) are to be kept to a minimum after 10pm. On other nights of the week we ask that noise is kept to a controlled, restrained and respectable level do to the nature of this being a shared space.  3. SMOKING is not permitted in any of the inside premises, this includes the guest room, condo unit and building. You may smoke outside on the sidewalk. 4. DAMAGES to the property and it's contents (within the bedroom and the condo itself) will be subject to reinstitution in accordance to airbnb rules and regulations and may lead to the immediate dismissal from the property. 5. WASHER & DRYER is available for use by the guest free of charge, but under the condition that we (the host) are present at the time of use. In an effort to cons",
26468994,"Gorgeous, spacious Brooklyn Studio",29304858591,unconfirmed,Ethan,Brooklyn,Gowanus,40.67753,-73.99084,United States,US,True,strict,Entire home/apt,2005,$182 ,$36 ,30,1,7/1/2019,1.0,5,1,1,"* Guest booking room, must be the person staying in room. DO NOT book room for somebody else! Thanks! * No smoking and pets are not allowed in the building. Also, only guests listed on the booking are allowed in this house. Sorry, friends and family are not allowed inside the house. For your safety, and mine. :) Lost keys will result in a $75 fee to replace the locks in the house.",
26469546,Huge light & plant-filled Williamsburg condo,77718529943,verified,Eric,Brooklyn,Williamsburg,40.71909,-73.95408,United States,US,True,flexible,Entire home/apt,2013,$449 ,$90 ,3,4,6/25/2019,4.0,4,1,0,,
26470098,Huge bedroom with private access to backyard.,40578689633,verified,Gershon,Queens,Ridgewood,40.70629,-73.91281,United States,US,False,moderate,Private room,2016,"$1,005 ",$201 ,1,1,5/27/2019,0.68,2,1,0,I have no time restraints on Guests. Come and go as you please.,
26470651,A Simple Studio.,78874955313,verified,Geralde,Queens,St. Albans,40.69362,-73.76953,United States,US,False,flexible,Entire home/apt,2013,$293 ,$59 ,2,9,7/3/2019,7.94,4,1,167,"1. Only the ORIGINAL OCCUPANTS at the time of booking are allowed to stay in the property overnight and secondly no additional guest will be brought in without prior authorization. 2. CHECK IN/OUT: We typically follow the standard check in and out times (4 p.m., 11 p.m. respectively) however we're flexible and can accommodate your needs as long as it doesn't impact another renter if you have special check-in or out times. There is a keypad lock and each renter will receive their own passcode so you can come and go as you please and not worry about keys or timing. 3. Excessive NOISE & DISTURBANCES, specifically on work nights (Sunday thru Thursday) are to be kept to a minimum after 10 pm. On other nights of the week we ask that noise is kept to a controlled, restrained and respectable level do to the nature of this being a shared space. 4. SMOKING is not permitted in any of the inside premises, this includes the guest room, condo unit and building. You may smoke outside in the street or",
26471203,Greenpoint / East Williamsburg Oasis,83602722358,verified,Caity,Brooklyn,Williamsburg,40.72035,-73.94117,United States,US,True,flexible,Entire home/apt,2010,$819 ,$164 ,6,0,,,4,1,0,"1. Only the ORIGINAL OCCUPANTS at the time of booking are allowed to stay in the property overnight and secondly no additional guest will be brought in without prior authorization. 2. CHECK IN/OUT: We typically follow the standard check in and out times (4 p.m., 11 p.m. respectively) however we're flexible and can accommodate your needs as long as it doesn't impact another renter if you have special check-in or out times. There is a keypad lock and each renter will receive their own passcode so you can come and go as you please and not worry about keys or timing. 3. Excessive NOISE & DISTURBANCES, specifically on work nights (Sunday thru Thursday) are to be kept to a minimum after 10 pm. On other nights of the week we ask that noise is kept to a controlled, restrained and respectable level do to the nature of this being a shared space. 4. SMOKING is not permitted in any of the inside premises, this includes the guest room, condo unit and building. You may smoke outside in the street or",
26471755,3 rooms apartment in Downtown Flushing!,59825960502,unconfirmed,Hyunsung,Queens,Flushing,40.75837,-73.82529,United States,US,False,flexible,Entire home/apt,2013,$265 ,$53 ,1,3,6/27/2019,3.0,5,3,104,No outdoor shoes within the apartment and loud noises.,
26472307,Modern Spacious Apartment,89445204995,unconfirmed,Anna,Brooklyn,Downtown Brooklyn,40.695609999999995,-73.9878,United States,US,False,moderate,Entire home/apt,2022,$281 ,$56 ,5,0,,,5,1,0,To keep house and house items in the same condition that they were when guests arrived,
26472860,Nice quiet room available in manhattan,97638685655,unconfirmed,Monisha,Manhattan,Harlem,40.82622,-73.93489,United States,US,True,flexible,Private room,2013,$621 ,$124 ,1,0,,,5,1,365,"No pets and no smoking (including outside near the entrance, as it sometimes blows back into the building). Please remove your shoes when entering (we have sensitive floors :)). Thank you!",
26473412,"Cozy, Charming and Accessible UES Apartment",96843606001,unconfirmed,John,Manhattan,Upper East Side,40.77166,-73.94665,United States,US,True,moderate,Entire home/apt,2015,$276 ,$55 ,2,2,6/29/2019,2.0,2,1,4,No smoking or pets allowed and we request that you respect our neighbors by observing quiet hours between 9 p.m. and 8 a.m.  We also request that you do not invite other guests over without our permission.  No shoes allowed in the house.  Please treat our home as you would treat yours!,
26473964,"Large, Cozy Escape in B'klyn.",19950938655,verified,Rufina,Brooklyn,Crown Heights,40.67653,-73.93556,United States,US,False,flexible,Private room,2017,$493 ,$99 ,2,3,7/6/2019,3.0,5,3,174,"Please let me know a head your checking in and checking out  time. I request the guest to be respectable. Only the guest is allowed to stay in the room, pets and smoking not allowed. Please shut off all lights and electrical appliances when you not using the premises.",
26474517,Williamsburg Railroad Apartment,66407917881,unconfirmed,William,Brooklyn,Williamsburg,40.72027,-73.9588,United States,US,True,flexible,Entire home/apt,2020,"$1,032 ",$206 ,3,5,6/23/2019,3.57,4,1,163,"Check In/ Check Out: Flexible regarding to check in time, but please give notice ahead of time to make sure your check in goes smoothly. Would like to be there to greet you, but often times are away. If so, will leave you the keys for self check in. Please refer to check out time as 12PM and inquire if you require a different check out time. Parking: There is a dedicated off-street parking spot for ONE car only. More than one car in parking area is strictly prohibited. Any extra vehicles will need to go in a nearby parking garage.  Shoes Off: Please kindly take your shoes off at the entrance. Smoking: There is strictly no smoking in or outside of the house. Bring Home guests: Please inform ahead of time if you would like to bring friends to the house. Kitchen Use: Please keep kitchen use to prepare snacks or coffee/tea. Party/Drinking: Please be responsible if you are to consume alcoholic beverages. Kindly clean up your messes and leave a clean space. Parties are strictly prohibited.",
26475069,Bay Ridge comfortabel  house,15010879030,unconfirmed,Yong,Brooklyn,Fort Hamilton,40.61735,-74.03,United States,US,False,flexible,Entire home/apt,2018,$958 ,$192 ,5,0,,,2,1,162,"Please, no smoking or parties in the home.",
26475621,Girls only,72295799370,unconfirmed,Yaren,Queens,Sunnyside,40.74351,-73.92281,United States,US,False,strict,Private room,2019,$686 ,$137 ,3,4,6/28/2019,4.0,4,1,0,Be courteous to neighbors. No parties. No smoking. No pets. No hanging around on front porch.,
26476174,Luxurious cozy private room near LGA (#02),83413293345,unconfirmed,Ajmol,Queens,East Elmhurst,40.76625,-73.87347,United States,US,True,flexible,Private room,2009,$293 ,$59 ,1,12,7/4/2019,8.18,3,5,87,"Please, no smoking and /or parties. This is my home, I would like my home to be treated with the utmost care and respect by all the wonderful individuals I host as a member of the Air BnB network. Thank you!",
26476726,Luxurious Large private room near LGA (#01),36627667335,unconfirmed,Ajmol,Queens,East Elmhurst,40.76566,-73.87215,United States,US,False,moderate,Private room,2013,"$1,196 ",$239 ,1,11,7/5/2019,7.5,4,5,78,,
26477278,Great bedroom near yankee stadium,71624023424,verified,Hector,Bronx,Claremont Village,40.83894,-73.91158,United States,US,True,moderate,Private room,2003,$773 ,$155 ,2,0,,,4,1,9,"This is our home, please be respectful, we only accept reservations of those which the profile requesting the room represents. Thank you for your cooperation and respect for our rule.",
26477830,Down town Flushing facing botanical garden,42213997197,unconfirmed,Steven,Queens,Flushing,40.7482,-73.83113,United States,US,False,flexible,Private room,2021,$55 ,$11 ,1,4,7/1/2019,3.16,4,1,333,"Please Note: This unit was just gut-renovated in May 2015 and it comfortably accommodates 4 guests, but up to 5 guests are permitted if you so desire (two guests in each bedroom and 1 guest on the available air mattress). Please request an air mattress (if needed) when making a reservation. No smoking, no pets, no parties, and must be 25 years old to book.   For check-out, please ensure: -  All plates and cups are left in the sink or dishwasher -  All trash is left in the kitchen trash can or bagged and left next to the trash can (additional bags are under the sink) -  All windows are closed and locked -  If used, the air mattresses are deflated and put away (please leave used linens for the air mattresses on the floor) -  If furniture was moved during your stay, please return to its original location Please be mindful to our neighbors in the building; quiet hours after 10pm. Please be considerate of our next guests who will be staying after you, if something is broken or needs fixing,",
26478383,Fantastic 2 Bedroom Apt Near Times Square,46830010948,unconfirmed,Neal,Manhattan,Hell's Kitchen,40.76194,-73.99074,United States,US,True,strict,Entire home/apt,2022,$94 ,$19 ,1,2,6/22/2019,2.0,4,1,304,"This house is used year round, so please no smoking. Pets are unfortunately not allowed.",
26478935,Exclusive renovated 1bd apt in Hell's Kitchen,91552416949,verified,Sean,Manhattan,Hell's Kitchen,40.765679999999996,-73.98635999999999,United States,US,True,flexible,Entire home/apt,2015,$730 ,$146 ,3,0,,,2,1,151,To keep the house and house items in the same condition they were when they arrived,
