id,NAME,host id,host_identity_verified,host name,neighbourhood group,neighbourhood,lat,long,country,country code,instant_bookable,cancellation_policy,room type,Construction year,price,service fee,minimum nights,number of reviews,last review,reviews per month,review rate number,calculated host listings count,availability 365,house_rules,license
28671566,UNTITLED at Freeman-Cozy Studio 707,70593264559,verified,Karen,Manhattan,Nolita,40.72232,-73.9936,United States,US,True,strict,Entire home/apt,2015,"$1,139 ",$228 ,2,14,3/1/2022,2.4,2,208,143,,
28672118,Manhattan Large Private Room in Sunny Two Bedroom,12992521337,unconfirmed,O.T.,Manhattan,Harlem,40.815540000000006,-73.93939,United States,US,False,strict,Private room,2022,$893 ,$179 ,30,3,3/1/2022,0.73,5,1,295,,
28672671,BROOKLYN'S Spacious & Private Ground Floor Apt.,80809062955,unconfirmed,Anthony,Brooklyn,East Flatbush,40.645109999999995,-73.92413,United States,US,False,moderate,Entire home/apt,2017,$197 ,$39 ,1,30,3/1/2022,6.16,3,1,75,,
28673223,Hidden Gem Luxury 1BD Condo in Ditmas Park,53026299211,verified,Robert,Brooklyn,Flatbush,40.636759999999995,-73.95949,United States,US,False,moderate,Entire home/apt,2014,$753 ,$151 ,3,7,3/1/2022,1.27,2,1,353,,
28673775,Blue Moon Hotel | Cozy Double Queen Unit,20168058651,unconfirmed,Blue Moon,Manhattan,Lower East Side,40.71882,-73.98883000000001,United States,US,False,strict,Entire home/apt,2018,$439 ,$88 ,1,16,3/1/2022,2.77,3,27,319,,
28674328,"Designer Loft with Kitchen with Tub, Washer, Dryer",74118738300,verified,Natasha,Manhattan,West Village,40.73633,-74.00036999999999,United States,US,True,moderate,Entire home/apt,2011,"$1,093 ",$219 ,5,16,3/1/2022,2.82,3,1,32,,
28674880,"""M""   HOTEL ROOM LIKE!! AFFORDABLE PRICE!!!",4134770229,verified,Blue House,Queens,Woodhaven,40.688,-73.86599,United States,US,False,moderate,Private room,2007,$189 ,$38 ,5,3,3/1/2022,0.67,3,5,365,,
28675432,"‚ú©Central BK, Manhattan in 25min, Memory Foam Beds",599077273,verified,The HF Collection,Brooklyn,Crown Heights,40.66741,-73.95879000000001,United States,US,True,strict,Entire home/apt,2020,$229 ,$46 ,1,22,3/1/2022,5.74,4,1,4,,
28675984,Private Entire Floor. 2 bedrooms. Near LaGuardia A,57839733911,verified,Heping,Queens,College Point,40.77961,-73.84254,United States,US,True,strict,Entire home/apt,2016,$547 ,$109 ,3,10,3/1/2022,2.1,4,1,331,,
28676537,Cozy beautiful room in Times Square,32169236724,verified,Antonio,Manhattan,Hell's Kitchen,40.75698,-73.99305,United States,US,False,moderate,Private room,2003,$918 ,$184 ,1,41,3/1/2022,7.83,2,3,357,,
28677089,"Need a room? I got you!
Bushwick/Ridgewood",66828666980,verified,Anisia,Queens,Ridgewood,40.69866,-73.90693,United States,US,False,strict,Private room,2021,$916 ,$183 ,2,8,3/1/2022,1.61,5,2,63,,
28677641,Bed-Stuy Fly II,12528927167,verified,Ana,Brooklyn,Bedford-Stuyvesant,40.6865,-73.9288,United States,US,False,moderate,Entire home/apt,2014,$911 ,$182 ,1,21,3/1/2022,4.5,5,3,301,,
28678194,Minimal room 3 SofaBed + loft bed in Manhattan,95479866051,verified,Koichi,Manhattan,Chelsea,40.75092,-73.99803,United States,US,False,flexible,Private room,2016,"$1,041 ",$208 ,3,29,3/1/2022,5.65,5,14,20,,
28678746,Shoreham Hotel - Charming Studio in the heart of NYC!,9356750349,unconfirmed,Shoreham,Manhattan,Midtown,40.76205,-73.9753,United States,US,False,flexible,Entire home/apt,2003,$292 ,$58 ,1,5,3/1/2022,1.07,3,44,350,,
28679298,DECATUR 4 - BEAUTIFUL MODERN ROOM IN BUSHWICK,68589736731,unconfirmed,Fernando,Brooklyn,Bedford-Stuyvesant,40.68332,-73.91233000000001,United States,US,False,strict,Private room,2014,$555 ,$111 ,1,24,3/1/2022,4.83,5,4,87,,
28679851,Sweet Elm 74 ( 1B ),1871089091,unconfirmed,Sirikarn,Queens,Elmhurst,40.74693,-73.88932,United States,US,True,strict,Private room,2018,"$1,200 ",$240 ,2,10,3/1/2022,2.05,3,2,355,,
28680403,Midtown West  Hotel (Single),51255199067,verified,Joe,Manhattan,Chelsea,40.750690000000006,-73.99597,United States,US,False,strict,Private room,2021,$950 ,$190 ,1,27,3/1/2022,5.59,3,23,33,,
28680955,Spacious 1 Bedroom Close To The Park!,38977761430,unconfirmed,Shell,Brooklyn,Prospect Heights,40.672959999999996,-73.96674,United States,US,False,flexible,Entire home/apt,2013,$235 ,$47 ,2,5,3/1/2022,1.14,4,1,10,,
28681507,MedRoom 444-10,93324628660,unconfirmed,Orfelina,Brooklyn,Bedford-Stuyvesant,40.69267,-73.95132,United States,US,False,moderate,Private room,2014,$579 ,$116 ,5,1,3/1/2022,1.0,4,25,277,,
28682060,Pre-war Apartment in the Heart of Upper East NYC,37605788879,verified,Seth,Manhattan,Upper East Side,40.76981,-73.96089,United States,US,False,strict,Entire home/apt,2014,"$1,010 ",$202 ,3,8,3/1/2022,2.12,2,1,65,,
28682612,Cozy studio rental apartment in Brooklyn,97066595024,verified,Sheila,Brooklyn,Bedford-Stuyvesant,40.68155,-73.92081999999999,United States,US,True,moderate,Entire home/apt,2021,$513 ,$103 ,2,13,3/1/2022,3.25,4,1,16,,
28683164,Clean Modern  2 BR Apartment Sleeps 6 - Accessible,30975481540,verified,Heather,Brooklyn,East New York,40.67496,-73.87161,United States,US,True,strict,Entire home/apt,2018,$635 ,$127 ,3,13,3/1/2022,3.55,5,1,105,,
28683717,Private room in Downtown Manhattan,45297902626,verified,Lucy,Manhattan,Chinatown,40.71753,-73.99724,United States,US,False,strict,Private room,2005,$311 ,$62 ,1,1,3/1/2022,1.0,4,4,161,,
28684269,"2 Bedroom apartment, nicely renovated.",91207700111,verified,Theo,Brooklyn,Bushwick,40.698240000000006,-73.9191,United States,US,True,flexible,Entire home/apt,2014,$147 ,$29 ,4,7,3/1/2022,2.14,4,1,38,,
28684821,"Sunny, elegant 2BR condo w/fireplace in Brooklyn",65223333125,unconfirmed,Elizabeth,Brooklyn,Boerum Hill,40.68594,-73.98601,United States,US,False,strict,Entire home/apt,2005,$718 ,$144 ,10,2,3/1/2022,0.97,4,1,283,,
28685374,Dreamy & Unique Prospect Park 1-BR Apt Near Trains,27400918574,verified,Brian,Brooklyn,Prospect-Lefferts Gardens,40.65829,-73.9614,United States,US,True,strict,Entire home/apt,2019,$295 ,$59 ,1,27,3/1/2022,10.52,3,1,150,,
28685926,4 Bedroom Gourmet Apt | Front & Wall Street,79977626496,verified,Front & Wall,Manhattan,Financial District,40.704903,-74.006416,United States,US,True,strict,Entire home/apt,2004,$664 ,$133 ,1,45,3/1/2022,10.98,3,9,323,,
28686478,"Comfortable,Relaxing and Quiet Bedroom",23432354840,verified,Sezer,Brooklyn,Midwood,40.62828,-73.96351999999999,United States,US,False,flexible,Private room,2005,$913 ,$183 ,1,3,3/1/2022,1.96,2,2,337,,
28687030,Greenpoint 1br with private entrance,467239631,verified,James,Brooklyn,Greenpoint,40.72811,-73.94769000000001,United States,US,True,moderate,Entire home/apt,2012,$510 ,$102 ,2,16,3/1/2022,4.53,4,1,37,,
28687583,Awesome room in Queens!! Close to MANHATTAN!,9498948825,verified,Maria,Queens,Long Island City,40.75977,-73.93061,United States,US,True,moderate,Private room,2020,$565 ,$113 ,1,21,3/1/2022,5.25,4,21,261,,
28688135,Hugh's Getaway,26460171541,verified,Wendy,Brooklyn,East Flatbush,40.64973,-73.93584,United States,US,True,moderate,Entire home/apt,2016,$613 ,$123 ,3,18,3/1/2022,5.14,2,1,194,,
28688687,Private Queen Bedroom  in New York City / UES,21063811163,verified,HeleNa,Manhattan,Upper East Side,40.770977,-73.95639,United States,US,False,strict,Private room,2021,$455 ,$91 ,1,7,3/1/2022,2.56,3,1,134,,
28689240,"Lga Citi field WiFi, TV, Office desk rm C",76507269471,unconfirmed,Rian,Queens,East Elmhurst,40.76599,-73.87592,United States,US,False,strict,Private room,2020,$326 ,$65 ,1,36,3/1/2022,9.56,4,5,329,,
28689792,Relaxing 1-bedroom unit in New York City,67164117115,unconfirmed,Ian,Manhattan,Washington Heights,40.8458,-73.93429,United States,US,False,moderate,Entire home/apt,2005,"$1,088 ",$218 ,2,13,3/1/2022,4.11,2,1,310,,
28690344,Spacious two bedroom apartment in Two Bridges,43282162176,unconfirmed,Agatha,Manhattan,Two Bridges,40.71154,-73.99333,United States,US,True,flexible,Entire home/apt,2016,$970 ,$194 ,3,4,3/1/2022,1.21,2,1,12,,
28690897,"Premium, Clean & State of the Art 2 Bedroom in BK",14435635850,verified,Russell,Brooklyn,Flatbush,40.64813,-73.95281,United States,US,True,moderate,Entire home/apt,2012,$464 ,$93 ,1,17,3/1/2022,5.67,5,3,37,,
28691449,Cozy 2-bedroom apartment rental unit,39604931504,unconfirmed,Luisa,Manhattan,Washington Heights,40.843540000000004,-73.93594,United States,US,False,moderate,Entire home/apt,2014,$852 ,$170 ,3,7,3/1/2022,2.53,5,1,240,,
28692001,Beautiful Green Loft in NYC,21164628153,verified,Gabriela,Brooklyn,Bushwick,40.702940000000005,-73.92581,United States,US,True,strict,Entire home/apt,2019,$158 ,$32 ,30,3,3/1/2022,0.74,3,1,61,,
28692553,Cozy Studio in West Village/Chelsea Area,2868870388,unconfirmed,Veronika,Manhattan,Chelsea,40.74491,-74.00229,United States,US,False,moderate,Entire home/apt,2008,$416 ,$83 ,2,3,3/1/2022,0.98,2,1,105,,
28693106,Cozy 1BDRM APT in the heart of Astoria (QN sz bed),57434086577,verified,Clinton,Queens,Ditmars Steinway,40.77844,-73.91089000000001,United States,US,True,moderate,Entire home/apt,2011,$565 ,$113 ,1,8,3/1/2022,2.86,2,1,319,,
28693658,"Beautiful 1BD Condo in Clinton Hill, Brooklyn",32432935947,unconfirmed,Alex,Brooklyn,Clinton Hill,40.681779999999996,-73.95908,United States,US,True,flexible,Entire home/apt,2013,$371 ,$74 ,10,2,3/1/2022,0.71,5,1,17,,
28694210,Modern Brooklyn Art Loft For The Creative Soul,88098121082,verified,Goldie,Brooklyn,East Flatbush,40.63709,-73.95008,United States,US,False,strict,Private room,2010,"$1,133 ",$227 ,1,26,3/1/2022,9.07,2,1,309,,
28694763,Lovely Brooklyn LOFT in prime Williamsburg,59188523083,verified,Benjamin,Brooklyn,Williamsburg,40.71911,-73.96041,United States,US,False,moderate,Entire home/apt,2019,$861 ,$172 ,30,1,3/1/2022,1.0,2,1,30,,
28695315,Times Square/Hell's Kitchen City View Studio Apt,80050947259,unconfirmed,Ben,Manhattan,Hell's Kitchen,40.76201,-73.99939,United States,US,False,moderate,Entire home/apt,2007,$278 ,$56 ,5,4,3/1/2022,1.56,5,1,316,,
28695867,Luxury High Rise w/Doorman,10160820333,verified,Danny,Manhattan,Chelsea,40.75347,-73.99717,United States,US,True,moderate,Entire home/apt,2022,$331 ,$66 ,4,8,3/1/2022,4.8,4,1,231,,
28696420,****NEWLY RENOVATED 3 BDRM WITH BALCONY****,82759373465,unconfirmed,Yordanos,Brooklyn,Bushwick,40.69682,-73.92303000000001,United States,US,False,flexible,Entire home/apt,2020,$969 ,$194 ,2,12,3/1/2022,4.24,3,3,77,,
28696972,Cozy Bedroom in east village apartment,57671878962,unconfirmed,Alex,Manhattan,East Village,40.72815,-73.98791999999999,United States,US,True,flexible,Private room,2016,$76 ,$15 ,1,8,3/1/2022,2.31,3,7,363,,
28697524,Pristine Studio Apt Steps To Train Station!,61946363601,unconfirmed,Stay Awhile,Queens,Bayside,40.76128,-73.77429000000001,United States,US,True,moderate,Entire home/apt,2005,"$1,129 ",$226 ,30,1,3/1/2022,1.0,2,5,322,,
28698076,Shared room by Columbia university,43987752365,unconfirmed,Mir,Manhattan,Upper West Side,40.80205,-73.96454,United States,US,True,flexible,Shared room,2022,$432 ,$86 ,2,9,3/1/2022,3.55,4,7,354,,
28698629,‚ÄúTime Square‚Äù42nd Street. A King Size Private Room,86433876673,unconfirmed,Taz,Manhattan,Theater District,40.75625,-73.98921,United States,US,False,flexible,Private room,2019,$372 ,$74 ,1,11,3/1/2022,4.29,5,7,94,,
28699181,Lovely Loft Apartment With King sized Bed,48117038913,unconfirmed,Sean,Brooklyn,Williamsburg,40.71152,-73.93714,United States,US,True,flexible,Entire home/apt,2009,$809 ,$162 ,2,29,3/1/2022,12.79,2,1,304,,
28699733,Cozy Bdrm on the 3rd floor of a BedStuy Brownstone,78650758851,unconfirmed,Bobbi,Brooklyn,Bedford-Stuyvesant,40.69031,-73.93585,United States,US,True,flexible,Private room,2007,"$1,114 ",$223 ,4,5,3/1/2022,2.31,3,2,337,,
28700286,Hudson River Hotel-Cozy King Room-Hudson Yard,29691145783,unconfirmed,Joel,Manhattan,Hell's Kitchen,40.75415,-73.99659,United States,US,True,strict,Private room,2010,$72 ,$14 ,1,10,3/1/2022,4.76,5,18,328,,
28700838,"Private bedroom 10 min to LGA, 15 min to Manhattan",5844538661,unconfirmed,Tom,Queens,Astoria,40.76678,-73.92661,United States,US,True,flexible,Private room,2006,"$1,131 ",$226 ,1,2,3/1/2022,0.88,4,1,359,,
28701390,Cabin-looking Private room and brand new furniture,78470918574,unconfirmed,Lana,Queens,Kew Gardens,40.709103000000006,-73.83313000000001,United States,US,False,strict,Private room,2021,$981 ,$196 ,7,3,3/1/2022,1.76,4,14,343,,
28701943,Artsy Private Room in Brooklyn,10065808348,verified,Shay,Brooklyn,Bushwick,40.70085,-73.9292,United States,US,False,flexible,Private room,2009,$460 ,$92 ,1,2,3/1/2022,0.94,5,4,323,,
28702495,Lovely spacious 2 bedroom condo,9561034749,verified,Chana,Bronx,Mott Haven,40.81138,-73.91767,United States,US,True,moderate,Entire home/apt,2006,$836 ,$167 ,1,4,3/1/2022,2.26,3,1,237,,
28703047,Very Comfortable Room in Brooklyn! Near metro!,28802674677,unconfirmed,Maria,Brooklyn,Bushwick,40.68714,-73.9076,United States,US,True,moderate,Private room,2022,$971 ,$194 ,1,3,3/1/2022,2.2,3,21,179,,
28703599,Beautiful 2 bedroom condo with 2 private patios!,42003663450,verified,Imani,Brooklyn,Clinton Hill,40.681670000000004,-73.95894,United States,US,True,flexible,Entire home/apt,2009,$102 ,$20 ,2,5,3/1/2022,5.0,5,1,6,,
28704152,Central & Comfortable Upper East Side 2 Bed Apt,43513085778,unconfirmed,Gisele,Manhattan,Upper East Side,40.76088,-73.96011999999999,United States,US,True,strict,Entire home/apt,2018,$397 ,$79 ,30,1,3/1/2022,1.0,4,34,260,,
28704704,Cozy Kickback Near Times Square! #3,95671083906,verified,Sofia & Leah,Manhattan,Hell's Kitchen,40.76282,-73.99118,United States,US,False,strict,Private room,2007,$935 ,$187 ,3,8,3/1/2022,5.85,5,6,69,,
28705256,Best Room in Astoria/Queens! Near LIC/Manhattan!!,23699043961,verified,Maria,Queens,Long Island City,40.75995,-73.93167,United States,US,False,flexible,Private room,2012,$616 ,$123 ,1,1,3/1/2022,1.0,4,21,166,,
28705809,Cozy lovely 1 bedroom studio in Brooklyn,31581605783,verified,Michelle,Brooklyn,Bedford-Stuyvesant,40.67877,-73.90855,United States,US,True,flexible,Entire home/apt,2022,$212 ,$42 ,1,5,3/1/2022,3.13,4,1,182,,
28706361,"Cozy, spacious room in the historical Ridgewood",21479685698,unconfirmed,Hiokit (Terry),Queens,Glendale,40.70374,-73.88443000000001,United States,US,False,strict,Private room,2020,$617 ,$123 ,1,2,3/1/2022,1.54,3,1,335,,
28706913,"Huge, private Room in safe, quite Brooklyn Area",88710910630,verified,Susanne,Brooklyn,Crown Heights,40.672579999999996,-73.92974,United States,US,True,moderate,Private room,2012,$316 ,$63 ,2,1,3/1/2022,1.0,4,1,70,,
28707466,Classic 2 Bedroom Apt~Steps to Subway~Washer Dryer,93353107662,verified,Wayne,Brooklyn,East Flatbush,40.66534,-73.92626,United States,US,False,moderate,Entire home/apt,2020,$680 ,$136 ,4,1,3/1/2022,1.0,2,3,102,,
28708018,"üåüüåüLarge Condo, Perfect For New York Stayüåüüåü",37178728972,verified,Dinero,Bronx,Melrose,40.82156,-73.92039,United States,US,False,strict,Entire home/apt,2007,$396 ,$79 ,2,6,3/1/2022,2.17,2,1,64,,
28708570,‚≠êÔ∏è Amazing 2 bedroom with private Parking‚≠êÔ∏è,45300441373,unconfirmed,Shanique,Bronx,Allerton,40.86835,-73.86270999999999,United States,US,True,flexible,Entire home/apt,2020,$325 ,$65 ,2,18,3/1/2022,7.71,3,1,23,,
28709122,"2 Bedroom in the Bronx near Airport, Zoo and more!",7739801147,unconfirmed,Kalia,Bronx,Wakefield,40.898,-73.85777,United States,US,False,flexible,Entire home/apt,2004,$988 ,$198 ,3,1,3/1/2022,1.0,3,1,289,,
28709675,Two Bridges / Chinatown One Bedroom with Skylight,14176022863,unconfirmed,Samuel,Manhattan,Two Bridges,40.71114721,-73.99450728,United States,US,True,strict,Entire home/apt,2003,"$1,186 ",$237 ,1,2,3/1/2022,2.0,4,1,80,,
28710227,"Beautiful, new 1BR in Brownstone",1723046501,unconfirmed,Kamelia,Manhattan,Harlem,40.81171,-73.94244,United States,US,False,flexible,Entire home/apt,2014,$693 ,$139 ,3,2,3/1/2022,2.0,5,1,103,,
28710779,Warm Brooklyn Escape,76106704391,verified,Natalie,Brooklyn,Bedford-Stuyvesant,40.683209999999995,-73.94938,United States,US,True,flexible,Entire home/apt,2016,$513 ,$103 ,1,5,3/1/2022,5.0,2,1,125,,
28711332,"""Time Square"" 43rd St.Private Bedroom on 1st Floor",51864306686,verified,Taz,Manhattan,Hell's Kitchen,40.7565,-73.99124,United States,US,True,strict,Private room,2020,$952 ,$190 ,1,1,3/1/2022,1.0,5,7,64,,
28711884,King Cheerful one room with free parking quite.,46728042878,unconfirmed,Frederick,Staten Island,Mariners Harbor,40.6292,-74.15808,United States,US,True,flexible,Entire home/apt,2012,$752 ,$150 ,1,3,3/1/2022,3.0,5,2,350,,
28712436,1 Comfortable Room in Queens Ny,73009724925,verified,Shirley Caterine,Queens,Flushing,40.74550562,-73.82915994,United States,US,False,flexible,Private room,2019,$536 ,$107 ,1,3,3/1/2022,3.0,4,1,6,,
28712989,Large luxury private bedroom 1 stop from Manhattan,94018486088,verified,Max,Bronx,Mott Haven,40.8109658,-73.92469229999999,United States,US,True,moderate,Private room,2009,$741 ,$148 ,1,4,3/1/2022,4.0,2,3,350,,
28713541,Cozy 1-bedroom with amazing balcony patio,13480899436,unconfirmed,Eganie,Manhattan,Upper West Side,40.80268635,-73.96769956,United States,US,False,flexible,Private room,2003,$98 ,$20 ,1,2,3/1/2022,2.0,3,2,202,,
28714093,The Positive Affirmation Room,58531650911,verified,Thieanna,Queens,Jamaica,40.6853303,-73.78180579,United States,US,False,strict,Private room,2003,$166 ,$33 ,1,4,3/1/2022,4.0,2,2,85,,
28714645,New York Upper West Side,51136541610,unconfirmed,Marie-Chantal,Manhattan,Upper West Side,40.77656354,-73.98042341,United States,US,True,moderate,Entire home/apt,2012,"$1,045 ",$209 ,4,1,3/1/2022,1.0,4,1,215,,
28715198,NOA- AMAZING LUXURY - apt with BACKYARD,23099624944,verified,Leo,Brooklyn,Bedford-Stuyvesant,40.67776692,-73.90883553,United States,US,False,moderate,Entire home/apt,2003,$733 ,$147 ,3,1,3/1/2022,1.0,4,5,151,,
28715750,"Private room , (side entrance)",1741780923,verified,Jose Guido,Queens,St. Albans,40.69394117,-73.75159618,United States,US,True,flexible,Private room,2018,$288 ,$58 ,1,3,3/1/2022,3.0,4,1,359,,
28716302,Charming Apartment in Manhattan,37393530598,verified,Gian Marco,Manhattan,Upper East Side,40.77073213,-73.95046359,United States,US,False,moderate,Entire home/apt,2012,$953 ,$191 ,30,1,3/1/2022,1.0,5,1,86,,
28716855,BETTER SIDE OF BED-STUY,93473936288,unconfirmed,Nathaniel,Brooklyn,Bedford-Stuyvesant,40.68866549,-73.94408204,United States,US,False,strict,Private room,2008,$812 ,$162 ,1,3,3/1/2022,3.0,2,2,89,,
28717407,CHA-CHA CHAUNCEY,67482636349,unconfirmed,Alexandra,Brooklyn,Bedford-Stuyvesant,40.68290238,-73.91234759999999,United States,US,True,strict,Private room,2003,$362 ,$72 ,1,1,3/1/2022,1.0,2,3,88,,
28717959,CHECKIN' CHAUNCEY,59957911989,unconfirmed,Alexandra,Brooklyn,Bedford-Stuyvesant,40.68107686,-73.9131281,United States,US,True,flexible,Private room,2011,"$1,026 ",$205 ,1,1,3/1/2022,1.0,5,3,89,,
28718512,2 bedroom apt in charming brick townhouse,47722795502,unconfirmed,Marisa And Colin,Brooklyn,Fort Greene,40.69643,-73.97698000000001,United States,US,True,strict,Entire home/apt,2006,$122 ,$24 ,30,122,2/28/2022,0.98,5,1,9,,
28719064,Clinton Hill Duplex near Pratt w/Balcony!,6092246353,unconfirmed,Mary,Brooklyn,Bedford-Stuyvesant,40.69533,-73.96058000000001,United States,US,False,flexible,Private room,2019,$404 ,$81 ,2,44,2/28/2022,0.36,4,1,311,,
28719616,Modern private room in condominium,67102302110,verified,Regina,Brooklyn,Williamsburg,40.714929999999995,-73.96106,United States,US,False,strict,Private room,2005,"$1,177 ",$235 ,2,155,2/28/2022,1.32,2,1,26,,
28720168,Beautiful Fresh Studio for Sublet,71796726547,unconfirmed,Dana,Brooklyn,Crown Heights,40.68031,-73.96336,United States,US,True,strict,Entire home/apt,2014,$450 ,$90 ,5,86,2/28/2022,0.74,5,1,153,,
28720721,NYC 1st Shipping Container Home,18150115445,verified,Janet-David,Brooklyn,Williamsburg,40.709278000000005,-73.954689,United States,US,True,moderate,Entire home/apt,2019,$986 ,$197 ,3,483,2/28/2022,4.21,4,2,314,,
28721273,West Side Charm - Central Park! Uh,14852368136,unconfirmed,Cindy,Manhattan,Upper East Side,40.77124,-73.97328,United States,US,False,moderate,Entire home/apt,2009,$660 ,$132 ,3,335,2/28/2022,3.0,5,1,12,,
28721825,Two-Bedroom Designer's Circus Loft,30849411094,verified,Viveca,Brooklyn,Bedford-Stuyvesant,40.69908,-73.95317,United States,US,False,flexible,Entire home/apt,2016,$451 ,$90 ,30,44,2/28/2022,0.39,3,3,0,,
28722378,Chic 1 bd apt in Prime Williamsburg,84338855807,unconfirmed,Julia,Brooklyn,Williamsburg,40.71164,-73.96108000000001,United States,US,True,flexible,Entire home/apt,2009,$609 ,$122 ,30,24,2/28/2022,0.23,4,1,12,,
28722930,Renovated Private 2 Bedroom Apt in Chelsea (23/7),28633077572,unconfirmed,Eduardo,Manhattan,Chelsea,40.7458,-73.99857,United States,US,False,strict,Entire home/apt,2008,$845 ,$169 ,3,201,2/28/2022,1.95,5,1,230,,
28723482,"Beautiful Huge Loft in Williamsburg, New York",93581245087,unconfirmed,Tad,Brooklyn,Williamsburg,40.71065,-73.96434,United States,US,True,flexible,Entire home/apt,2006,"$1,181 ",$236 ,2,98,2/28/2022,0.95,3,1,243,,
28724035,Sunny Williamsburg Artist's Loft,34870492524,verified,Paco & Pamela,Brooklyn,Williamsburg,40.709309999999995,-73.95011,United States,US,True,strict,Entire home/apt,2015,"$1,174 ",$235 ,2,123,2/28/2022,1.27,4,1,172,,
28724587,‚òÖ‚òÖ‚òÖ‚òÖ‚òÖAstoria |‚ù§of NYC| Near subway -Home Share,85689723753,unconfirmed,Ryan,Queens,Ditmars Steinway,40.777570000000004,-73.9158,United States,US,True,strict,Entire home/apt,2017,$156 ,$31 ,4,389,2/28/2022,3.97,5,1,307,,
28725139,Private Room -  Midtown/Central Park,1828045408,unconfirmed,Ed &Alexa,Manhattan,Hell's Kitchen,40.76757,-73.98593000000001,United States,US,False,flexible,Private room,2022,$702 ,$140 ,3,335,2/28/2022,3.27,4,1,111,,
28725691,Paddy Pad,80590465280,verified,Gaudhi,Manhattan,Harlem,40.80104,-73.95269,United States,US,False,strict,Private room,2009,"$1,141 ",$228 ,30,159,2/28/2022,1.71,2,2,87,,
28726244,Modern Sunny 2-Bedroom in Bushwick,66712337509,verified,Seth,Brooklyn,Bushwick,40.69677,-73.93091,United States,US,False,flexible,Entire home/apt,2007,$608 ,$122 ,1,272,2/28/2022,2.88,2,2,306,,
28726796,Comfortable Strivers Row Hideaway - Monthly Rental,10071580784,verified,Joy,Manhattan,Harlem,40.819109999999995,-73.94596,United States,US,True,flexible,Entire home/apt,2018,"$1,193 ",$239 ,30,107,2/28/2022,1.12,2,2,234,,
28727348,The Most Affordable |PRIVATE ROOM| in a BROWNSTONE,16028818922,verified,Junior,Bronx,Mount Hope,40.85229,-73.90771,United States,US,True,moderate,Private room,2005,$762 ,$152 ,1,26,2/28/2022,3.05,3,4,43,,
28727901,Sunny Private Room at Central Park!,54667457591,unconfirmed,Saint,Manhattan,East Harlem,40.7946,-73.94866999999999,United States,US,True,flexible,Private room,2005,$598 ,$120 ,2,255,2/28/2022,2.77,3,1,240,,
28728453,Beautiful 1 bedroom in NYC,7147078103,unconfirmed,Eliana E,Queens,Woodside,40.7427,-73.91261999999999,United States,US,False,moderate,Entire home/apt,2018,"$1,094 ",$219 ,2,174,2/28/2022,1.9,3,2,174,,
28729005,Brooklyn Love,5700223400,verified,Zheni,Brooklyn,Gowanus,40.673759999999994,-73.99726,United States,US,False,strict,Entire home/apt,2019,"$1,168 ",$234 ,27,142,2/28/2022,1.69,5,1,0,,
28729558,The Garden Apartment,34614256341,verified,Lily,Brooklyn,South Slope,40.666270000000004,-73.98801,United States,US,True,strict,Entire home/apt,2021,$659 ,$132 ,3,176,2/28/2022,1.97,5,1,125,,
28730110,Pretty and Private in Clinton Hill,75629208524,unconfirmed,Jan,Brooklyn,Clinton Hill,40.68673,-73.96587,United States,US,True,strict,Entire home/apt,2011,$237 ,$47 ,4,280,2/28/2022,3.18,5,1,203,,
28730662,Huge 5BR Townhouse - LEGAL NYC B&B!,26515779521,verified,Elizabeth,Manhattan,Harlem,40.806329999999996,-73.94585,United States,US,True,flexible,Entire home/apt,2003,$883 ,$177 ,4,205,2/28/2022,2.32,4,1,212,,
28731214,Harlem Brownstone - It's Historic!,38213064201,unconfirmed,Leesa,Manhattan,Harlem,40.81521,-73.94463,United States,US,False,flexible,Entire home/apt,2011,$541 ,$108 ,2,177,2/28/2022,2.01,5,1,244,,
28731767,"Private Studio, 15 mins to Manhattan",50145521132,unconfirmed,Michael & Marie,Queens,Sunnyside,40.7446,-73.91886,United States,US,True,moderate,Entire home/apt,2021,$225 ,$45 ,3,19,2/28/2022,0.29,4,1,50,,
28732319,Private Cozy Bright Brooklyn Spot,85119405963,unconfirmed,Leecia,Brooklyn,Bedford-Stuyvesant,40.682320000000004,-73.93791999999999,United States,US,True,moderate,Private room,2012,$807 ,$161 ,3,113,2/28/2022,1.5,3,2,141,,
28732871,Spacious airy room perfect for two!,20082548174,unconfirmed,"Rossy,  Carmen And Juan",Bronx,University Heights,40.85477,-73.91597,United States,US,True,moderate,Private room,2016,$262 ,$52 ,2,146,2/28/2022,1.7,4,4,20,,
28733424,`Amazing Brooklyn Home,53602756383,verified,Sol And Coach,Brooklyn,Cypress Hills,40.68088,-73.88786,United States,US,True,strict,Entire home/apt,2016,$940 ,$188 ,1,253,2/28/2022,3.06,5,2,335,,
28733976,Roosevelt Island Charm,26838641235,verified,Svetlana,Manhattan,Roosevelt Island,40.76189,-73.95065,United States,US,True,flexible,Private room,2007,$580 ,$116 ,2,243,2/28/2022,3.03,4,1,115,,
28734528,Park Slope sweet cozy home! Wifi!,41787552325,unconfirmed,Ming,Brooklyn,Park Slope,40.67383,-73.97764000000001,United States,US,True,flexible,Private room,2008,$374 ,$75 ,5,152,2/28/2022,1.92,3,1,247,,
28735081,Peaceful Cosy Harlem Space,21087193967,unconfirmed,Miriam,Manhattan,Harlem,40.82246,-73.9378,United States,US,True,flexible,Private room,2003,$432 ,$86 ,30,25,2/28/2022,0.32,5,2,64,,
28735633,"3Bdr Artist Apt. (L,M,J,Z trains)",72057787532,unconfirmed,Jon & Hui,Brooklyn,Bushwick,40.69454,-73.92191,United States,US,False,flexible,Entire home/apt,2009,$928 ,$186 ,4,192,2/28/2022,2.48,2,2,164,,
28736185,Renovated 2 Rooms with balcony and ensuite bath,94276026167,unconfirmed,Izabel,Brooklyn,Windsor Terrace,40.64782,-73.97305,United States,US,False,flexible,Private room,2009,$436 ,$87 ,1,158,2/28/2022,1.97,3,3,239,,
28736737,Midtown great location private Apt,97195100286,unconfirmed,George,Manhattan,Midtown,40.75403,-73.96951,United States,US,True,moderate,Entire home/apt,2015,$283 ,$57 ,1,346,2/28/2022,4.33,5,1,40,,
28737290,Private Spring Room in Brownstone Near Subway,24133098121,verified,Brady,Brooklyn,Bedford-Stuyvesant,40.68998,-73.9307,United States,US,True,strict,Private room,2005,$486 ,$97 ,1,406,2/28/2022,5.14,3,6,12,,
28737842,Classic Elegance in Brownstone Near Subway,7398130449,unconfirmed,Brady,Brooklyn,Bedford-Stuyvesant,40.68886,-73.92871,United States,US,False,moderate,Private room,2003,$290 ,$58 ,1,469,2/28/2022,5.97,2,6,8,,
28738394,Loved by NYLocals Private Room SoHo,23537134104,verified,Elle,Manhattan,SoHo,40.726209999999995,-74.00431999999999,United States,US,False,strict,Private room,2006,"$1,077 ",$215 ,1,342,2/28/2022,4.44,5,1,7,,
28738947,Sunny 1BR in Heart of Williamsburg w/ outdoor area,3721015000,verified,Pierce,Brooklyn,Williamsburg,40.711742,-73.953186,United States,US,True,moderate,Entire home/apt,2010,"$1,082 ",$216 ,30,2,2/28/2022,0.03,5,1,96,,
28739499,East side - Lower Manhattan - East side,93073301702,unconfirmed,Maria,Manhattan,Gramercy,40.73809,-73.98509,United States,US,False,moderate,Private room,2017,$77 ,$15 ,4,160,2/28/2022,2.12,4,2,203,,
28740051,"Beautiful, bright and spacious home",63758542520,unconfirmed,Daniella,Brooklyn,Crown Heights,40.673190000000005,-73.94099,United States,US,False,moderate,Entire home/apt,2021,$554 ,$111 ,4,158,2/28/2022,2.1,4,1,16,,
28740604,Deluxe Loft Living in Brooklyn,56635304895,verified,Henry Norman,Brooklyn,Greenpoint,40.72765,-73.94528000000001,United States,US,True,moderate,Entire home/apt,2008,$437 ,$87 ,3,7,2/28/2022,0.1,3,14,274,,
28741156,Great Space,87022684194,verified,Rhonda & Jude,Queens,Springfield Gardens,40.67044,-73.75455,United States,US,False,strict,Entire home/apt,2007,$394 ,$79 ,1,261,2/28/2022,3.47,3,1,166,,
28741708,"Large, private 2BR in historic brownstone",57815259927,verified,Polina,Brooklyn,Prospect Heights,40.67708,-73.96552,United States,US,True,moderate,Entire home/apt,2005,"$1,185 ",$237 ,3,299,2/28/2022,4.02,3,1,157,,
28742260,Art Inspired One Bedroom Apt in Bedford Stuyvesant,6091119470,unconfirmed,Ozzy,Brooklyn,Bedford-Stuyvesant,40.695809999999994,-73.94374,United States,US,False,flexible,Entire home/apt,2016,$502 ,$100 ,3,40,2/28/2022,0.53,5,1,0,,
28742813,Renovated 1 bdrm apt close to city,76397740872,verified,Ronit,Brooklyn,Crown Heights,40.67269,-73.93905,United States,US,True,flexible,Entire home/apt,2005,$420 ,$84 ,3,180,2/28/2022,2.44,2,1,316,,
28743365,Sunny Clinton Hill Brownstone Apt w/ 600sq.ft Deck,80706878360,unconfirmed,Cory,Brooklyn,Clinton Hill,40.6889,-73.96349000000001,United States,US,False,strict,Entire home/apt,2003,$96 ,$19 ,30,6,2/28/2022,0.12,4,1,0,,
28743917,Artsy Bsmnt Apt in Bklyn Brownstone,92316393597,unconfirmed,Dan,Brooklyn,Prospect-Lefferts Gardens,40.66169,-73.95277,United States,US,True,moderate,Entire home/apt,2016,$920 ,$184 ,2,107,2/28/2022,1.49,3,1,30,,
28744470,Executive 1 BR - Elevator & Laundry,46947918534,verified,Stay With Vibe,Manhattan,Midtown,40.755990000000004,-73.96743000000001,United States,US,False,flexible,Entire home/apt,2021,$669 ,$134 ,30,19,2/28/2022,0.29,3,108,338,,
28745022,Lovely Brownstone Garden Apartment,11471475530,unconfirmed,Marni,Brooklyn,Bedford-Stuyvesant,40.68922,-73.95148,United States,US,True,moderate,Entire home/apt,2015,$702 ,$140 ,4,82,2/28/2022,1.16,3,1,330,,
28745574,Lux Alcove Sunlit Studio - Near JFK,60401921716,unconfirmed,Javier,Queens,Howard Beach,40.6647,-73.85576999999999,United States,US,False,flexible,Entire home/apt,2015,$968 ,$194 ,2,348,2/28/2022,5.18,2,1,72,,
28746127,Charming 1-Bedroom Apt in Bed-Stuy,23330351938,unconfirmed,Tunde,Brooklyn,Bedford-Stuyvesant,40.68655,-73.95421999999999,United States,US,True,strict,Entire home/apt,2003,$818 ,$164 ,2,114,2/28/2022,1.65,2,1,3,,
28746679,Modern stay w. 30 Min. to City Downtown on #4 line,23553265568,verified,Lexia,Brooklyn,East Flatbush,40.66296,-73.92896,United States,US,True,flexible,Entire home/apt,2004,$351 ,$70 ,10,107,2/28/2022,1.55,3,4,124,,
28747231,2 Bedroom Apartment / Prime Williamsburg Location,98477054972,verified,Timothy + Katrin,Brooklyn,Williamsburg,40.71224,-73.9624,United States,US,True,moderate,Entire home/apt,2007,$724 ,$145 ,2,118,2/28/2022,1.75,3,2,243,,
28747783,Private Room in Charming Bedstuy,71485017218,unconfirmed,Matt & Crutch,Brooklyn,Bedford-Stuyvesant,40.678259999999995,-73.92690999999999,United States,US,False,strict,Private room,2008,$591 ,$118 ,3,144,2/28/2022,2.12,2,3,154,,
28748336,Williamsburg large and sunny private room,50911723216,verified,Florencia,Brooklyn,Williamsburg,40.70899,-73.94893,United States,US,False,strict,Private room,2010,$667 ,$133 ,25,19,2/28/2022,0.28,5,3,0,,
28748888,Surfside Studio,88604222260,verified,Melissa,Queens,Rockaway Beach,40.58618,-73.81674,United States,US,True,strict,Entire home/apt,2009,$914 ,$183 ,1,311,2/28/2022,4.63,5,3,149,,
28749440,Chris' Cozy Cave!,80793243517,unconfirmed,Chris,Queens,Ditmars Steinway,40.779090000000004,-73.90899999999999,United States,US,True,strict,Entire home/apt,2006,$764 ,$153 ,3,137,2/28/2022,2.06,5,1,296,,
28749993,2 bed/2 bath floor - unique West Village townhouse,9607912612,unconfirmed,Barbara,Manhattan,West Village,40.73706,-74.00294,United States,US,False,strict,Entire home/apt,2005,$878 ,$176 ,4,110,2/28/2022,1.66,2,2,23,,
28750545,Private apartment in beautiful fresh meadows,52575582814,unconfirmed,Nick,Queens,Fresh Meadows,40.73287,-73.79169,United States,US,True,flexible,Entire home/apt,2017,$249 ,$50 ,2,14,2/28/2022,5.92,5,1,42,,
28751097,"Park-facing, spacious, pristine architect's apt.",16531935689,verified,Christopher,Manhattan,Inwood,40.86889,-73.92600999999999,United States,US,True,moderate,Entire home/apt,2004,$472 ,$94 ,30,11,2/28/2022,0.17,2,1,25,,
28751650,Cozy Quiet Upgraded Prvt Rm in House in Brooklyn!,15614213906,unconfirmed,Albert,Brooklyn,Gowanus,40.66727,-73.99173,United States,US,True,strict,Private room,2011,$509 ,$102 ,2,59,2/28/2022,0.9,3,1,262,,
28752202,Spacious Brooklyn Apt (2 Stops to NYC),21568306217,verified,Jamin,Brooklyn,Sunset Park,40.65617,-73.99767,United States,US,True,strict,Entire home/apt,2016,$203 ,$41 ,5,124,2/28/2022,1.97,2,1,61,,
28752754,Bright Garden Room with Kitchenette,75170696802,verified,Susan,Brooklyn,Downtown Brooklyn,40.69693,-73.98437,United States,US,False,flexible,Private room,2010,$60 ,$12 ,3,181,2/28/2022,2.93,4,1,34,,
28753306,Room with  two twin beds and en-suite bathroom,92242674651,verified,Maxine,Queens,St. Albans,40.701029999999996,-73.76037,United States,US,True,moderate,Private room,2022,$861 ,$172 ,3,33,2/28/2022,1.1,2,1,54,,
28753859,Nice Private Studio Apartment,85362758039,unconfirmed,Alexandra,Manhattan,East Harlem,40.79619,-73.93765,United States,US,True,moderate,Entire home/apt,2017,$491 ,$98 ,1,281,2/28/2022,4.53,5,3,46,,
28754411,Comfortable Accommodations Away From Home,97810594057,verified,Kenneth,Brooklyn,Bushwick,40.68288,-73.90935999999999,United States,US,True,flexible,Private room,2013,$525 ,$105 ,31,3,2/28/2022,0.28,2,2,334,,
28754963,Charming Duplex in Manhattan,95619433464,verified,Chito And Xavier,Manhattan,East Harlem,40.80981,-73.93954000000001,United States,US,True,flexible,Entire home/apt,2011,$210 ,$42 ,3,195,2/28/2022,3.19,5,2,114,,
28755516,Charming Studio with your Own Private Patio,8765707601,unconfirmed,Chito And Xavier,Manhattan,East Harlem,40.809709999999995,-73.93829000000001,United States,US,False,moderate,Entire home/apt,2022,$854 ,$171 ,3,221,2/28/2022,3.63,4,2,70,,
28756068,Renovated Cozy room  for 2 or solo traveler,79527280499,verified,Izabel,Brooklyn,Windsor Terrace,40.6489,-73.97483000000001,United States,US,False,moderate,Private room,2020,$457 ,$91 ,1,231,2/28/2022,3.77,5,3,275,,
28756620,Luxury Apt Close to UBS Arena and JFk,93108302338,unconfirmed,Cordelia,Queens,Springfield Gardens,40.69148,-73.74738,United States,US,True,strict,Entire home/apt,2004,"$1,003 ",$201 ,3,100,2/28/2022,1.66,5,1,313,,
28757173,Small room in Queens,51274113680,unconfirmed,Iso,Queens,Rego Park,40.72571,-73.86016,United States,US,True,flexible,Private room,2013,$611 ,$122 ,1,84,2/28/2022,1.39,2,3,364,,
28757725,Newly Renovated Cozy Suite - Your Peace of Mind,77756563733,unconfirmed,Debo,Queens,Cambria Heights,40.6942,-73.72613,United States,US,False,flexible,Private room,2017,$682 ,$136 ,2,347,2/28/2022,5.79,2,1,365,,
28758277,Brand New Historic Harlem Duplex Apartment,96406584031,unconfirmed,Julien,Manhattan,Harlem,40.82365,-73.95285,United States,US,False,strict,Entire home/apt,2018,$848 ,$170 ,3,51,2/28/2022,0.89,4,1,18,,
28758829,LIVE BROOKLYN! Private 1 BR APT - 5 min to Subway,64414634504,unconfirmed,David,Brooklyn,Bedford-Stuyvesant,40.69457,-73.94429000000001,United States,US,False,strict,Entire home/apt,2008,$646 ,$129 ,2,200,2/28/2022,3.4,4,2,323,,
28759382,Brooklyn Modern: Sunny 2BR,86124344810,verified,Melissa,Brooklyn,Gowanus,40.671279999999996,-73.98863,United States,US,False,flexible,Entire home/apt,2007,$239 ,$48 ,30,146,2/28/2022,2.48,3,1,35,,
28759934,"Amazing Harlem Apartment on 5th Avenue 
3 bedrooms",22189605773,unconfirmed,Steven,Manhattan,East Harlem,40.799040000000005,-73.9458,United States,US,False,flexible,Entire home/apt,2017,$181 ,$36 ,3,149,2/28/2022,2.67,4,2,46,,
28760486,Sun Filled 18ft Ceiling Duplex Noho/East Village,30825426692,unconfirmed,Genevieve,Manhattan,East Village,40.73018,-73.99255,United States,US,True,strict,Entire home/apt,2004,$162 ,$32 ,3,43,2/28/2022,0.74,5,1,4,,
28761039,Designer Light Filled Room in Williamsburg,85779493902,unconfirmed,Juliana,Brooklyn,Williamsburg,40.71587,-73.96209,United States,US,True,flexible,Private room,2007,$296 ,$59 ,5,23,2/28/2022,0.49,3,1,4,,
28761591,Modern Apartment in Historic Brownstone,22004090168,verified,Rebeccah & Daniel,Brooklyn,Bedford-Stuyvesant,40.68602,-73.9341,United States,US,True,moderate,Entire home/apt,2018,$328 ,$66 ,3,163,2/28/2022,2.9,2,1,213,,
28762143,LOVE MANHATTAN 1,86860638948,unconfirmed,Ociel,Bronx,Mott Haven,40.809909999999995,-73.91957,United States,US,False,moderate,Private room,2022,"$1,194 ",$239 ,1,165,2/28/2022,2.97,3,4,266,,
28762696,2 bed/2 bath garden apt in heart of Bushwick,66417794091,unconfirmed,David,Brooklyn,Bushwick,40.69494,-73.90815,United States,US,True,flexible,Entire home/apt,2016,$995 ,$199 ,3,185,2/28/2022,3.35,3,1,129,,
28763248,"Beautiful, sunny, spacious artist loft in LES",13621755199,verified,Jennifer,Manhattan,Lower East Side,40.712509999999995,-73.98175,United States,US,False,moderate,Entire home/apt,2013,$925 ,$185 ,28,14,2/28/2022,0.27,4,2,0,,
28763800,Beautiful urban 2BR with private deck and yard!!!,69443669159,unconfirmed,Stephanie,Brooklyn,Fort Hamilton,40.6225,-74.031,United States,US,False,moderate,Entire home/apt,2019,$557 ,$111 ,6,76,2/28/2022,1.38,5,2,206,,
28764352,Serene Private Loft Studio Apartment in Townhouse,95528243524,verified,Eric,Bronx,Concourse,40.82123,-73.92862,United States,US,True,moderate,Entire home/apt,2018,$691 ,$138 ,1,258,2/28/2022,4.8,3,2,36,,
28764905,Bed Stuy Renovated Gem,36805061045,verified,Gabe,Brooklyn,Bedford-Stuyvesant,40.68521,-73.95304,United States,US,True,strict,Entire home/apt,2010,$448 ,$90 ,4,115,2/28/2022,2.11,5,1,180,,
28765457,"Hip Modern Brooklyn Studio, Minutes to Manhattan!",71300399584,unconfirmed,Gary,Brooklyn,Clinton Hill,40.69119,-73.9679,United States,US,False,strict,Entire home/apt,2016,$348 ,$70 ,2,208,2/28/2022,3.8,2,1,166,,
28766009,Full floor 1 bedroom with Home Office in Prime NYC,96789194326,unconfirmed,Ethan,Manhattan,Lower East Side,40.720009999999995,-73.9939,United States,US,False,moderate,Entire home/apt,2019,"$1,137 ",$227 ,3,3,2/28/2022,1.8,4,1,283,,
28766562,Beautiful studio apartment,50759075009,unconfirmed,Marsha,Brooklyn,East Flatbush,40.65507,-73.9152,United States,US,False,strict,Entire home/apt,2020,"$1,067 ",$213 ,8,11,2/28/2022,0.22,4,1,112,,
28767114,# 1 B Brooklyn New York apt close to metro subway,89518999119,unconfirmed,Myles,Brooklyn,East Flatbush,40.63279,-73.94376,United States,US,False,flexible,Entire home/apt,2004,$459 ,$92 ,6,95,2/28/2022,1.87,2,2,77,,
28767666,"Cozy room for one JFK, LGA & subway to Manhattan",69902563408,verified,Christian,Queens,Jamaica,40.68655,-73.80434,United States,US,False,strict,Private room,2003,$451 ,$90 ,1,100,2/28/2022,1.97,5,4,334,,
28768219,Freehand New York - Premium Queen Room,40454769841,unconfirmed,Freehand,Manhattan,Flatiron District,40.7403,-73.98599,United States,US,False,flexible,Hotel room,2006,$594 ,$119 ,1,299,2/28/2022,6.08,5,5,365,,
28768771,Renovated 1 bedroom in Bedstuy Brooklyn brownstone,11126249236,unconfirmed,Janelle,Brooklyn,Bedford-Stuyvesant,40.68204,-73.92721999999999,United States,US,False,flexible,Entire home/apt,2018,$575 ,$115 ,14,27,2/28/2022,0.65,2,1,0,,
28769323,Hispanic Cultured NYC!,61380619504,unconfirmed,Mariela,Bronx,Fordham,40.85604,-73.90403,United States,US,False,moderate,Private room,2017,$100 ,$20 ,4,96,2/28/2022,1.91,3,3,48,,
28769875,"Queen Bedroom besides Central Park, West Side",20256119502,verified,Cristian,Manhattan,Upper West Side,40.79887,-73.96257,United States,US,False,strict,Private room,2010,"$1,108 ",$222 ,2,90,2/28/2022,1.86,4,3,293,,
28770428,Fort Greene 3 bedroom duplex apartment,93524953656,unconfirmed,Amir,Brooklyn,Fort Greene,40.69344,-73.97183000000001,United States,US,False,moderate,Entire home/apt,2003,"$1,077 ",$215 ,3,88,2/28/2022,1.84,2,2,96,,
28770980,Private apartment in the heart of Williamsburg,5661908726,verified,Anna,Brooklyn,Williamsburg,40.713409999999996,-73.95612,United States,US,True,flexible,Entire home/apt,2019,$201 ,$40 ,3,138,2/28/2022,2.95,4,1,273,,
28771532,Brooklyn Flat in prime Carroll Gardens (Room),28592075328,verified,John,Brooklyn,Carroll Gardens,40.67546,-73.99936,United States,US,True,flexible,Private room,2003,$826 ,$165 ,3,71,2/28/2022,1.5,4,1,158,,
28772085,Spacious home next to JFK airport,34899656019,verified,Paul,Queens,Jamaica,40.667229999999996,-73.78854,United States,US,True,strict,Entire home/apt,2012,$254 ,$51 ,3,140,2/28/2022,3.09,4,2,67,,
28772637,Study zone near Columbia ‚Ä¢,35888879791,unconfirmed,Tyler,Manhattan,Upper West Side,40.79827,-73.96438,United States,US,True,strict,Private room,2018,$639 ,$128 ,1,20,2/28/2022,0.44,5,3,259,,
28773189,Wild West Retreat in The Heart of Brooklyn,679299358,unconfirmed,Izaac,Brooklyn,Bedford-Stuyvesant,40.68906,-73.95706,United States,US,False,strict,Private room,2015,$738 ,$148 ,2,109,2/28/2022,2.36,3,2,7,,
28773742,Dreamy centrally located Bedroom with city views!,17183607698,verified,Itzi,Manhattan,SoHo,40.7186,-73.9996,United States,US,True,moderate,Private room,2010,$657 ,$131 ,2,116,2/28/2022,2.57,3,1,167,,
28774294,AMAZING SPECIAL GRAMMERCY MANHATTAN,88185841871,unconfirmed,Earl,Manhattan,Gramercy,40.73757,-73.98061,United States,US,True,moderate,Entire home/apt,2003,$515 ,$103 ,3,56,2/28/2022,1.25,3,1,11,,
28774846,"Colorful, quiet, private room near LaGuardia/NYC",41264739561,unconfirmed,Briyah,Queens,Ditmars Steinway,40.76736,-73.89303000000001,United States,US,False,flexible,Private room,2017,"$1,171 ",$234 ,1,98,2/28/2022,2.23,2,1,179,,
28775398,String lights home 1 min to subway,17329032549,verified,Ting Yi,Brooklyn,Bushwick,40.68714,-73.91556,United States,US,True,moderate,Entire home/apt,2010,$536 ,$107 ,2,105,2/28/2022,2.3,5,2,153,,
28775951,Huge Artist Loft Space - Red Hook,33597093201,verified,Gabriel,Brooklyn,Red Hook,40.67887,-74.00785,United States,US,False,flexible,Entire home/apt,2018,$679 ,$136 ,5,82,2/28/2022,1.81,2,1,49,,
28776503,Magical 1BR Apt.,92767860578,unconfirmed,Airik,Manhattan,East Harlem,40.79456,-73.94354,United States,US,True,flexible,Entire home/apt,2022,"$1,006 ",$201 ,4,7,2/28/2022,0.57,2,2,3,,
28777055,Clean & Comfortable 3BR in Prime Brooklyn Location,59570023937,unconfirmed,Anh & David,Brooklyn,Park Slope,40.6726,-73.98226,United States,US,False,moderate,Entire home/apt,2010,$425 ,$85 ,2,198,2/28/2022,4.42,2,1,243,,
28777608,Amazing entire Apartment W/ Bedroom & Bath,49885126542,unconfirmed,Jacqueline,Queens,Glendale,40.70118,-73.87892,United States,US,False,strict,Entire home/apt,2006,$141 ,$28 ,7,86,2/28/2022,1.94,2,1,320,,
28778160,2 Bedroom in 1897 Landmarked house,80539359271,verified,Missy & Julien,Brooklyn,Crown Heights,40.67492,-73.94729,United States,US,False,strict,Entire home/apt,2016,$570 ,$114 ,30,68,2/28/2022,1.57,3,2,88,,
28778712,"Near JFK & LaGuardia airport, cozy studio-style",12200901935,verified,Nhia,Queens,Queens Village,40.70765,-73.74776999999999,United States,US,True,flexible,Private room,2008,"$1,139 ",$228 ,1,109,2/28/2022,2.47,5,2,356,,
28779265,Entire NonSmoking Quiet Private Apartment,96747663746,unconfirmed,Maria,Staten Island,New Brighton,40.63847,-74.09229,United States,US,False,moderate,Private room,2016,$512 ,$102 ,3,128,2/28/2022,2.95,3,1,218,,
28779817,10 minutes from JFK Airport Rockaway Beach Bliss,9335200262,verified,Erica,Queens,Edgemere,40.59643,-73.76932,United States,US,False,strict,Entire home/apt,2012,$964 ,$193 ,1,85,2/28/2022,1.95,5,2,351,,
28780369,‚òÖPrivate Guest Suite in convenient location ‚òÖ,1333339653,verified,Chris,Queens,Woodhaven,40.69635,-73.85225,United States,US,True,strict,Private room,2015,$266 ,$53 ,3,183,2/28/2022,4.32,3,1,42,,
28780921,The Woodside Story- Private bathroom,44242057862,unconfirmed,Omar,Queens,Woodside,40.752359999999996,-73.90026999999999,United States,US,False,strict,Private room,2004,"$1,165 ",$233 ,2,110,2/28/2022,2.55,2,8,325,,
28781474,Superior Studio with Balcony,58169732747,unconfirmed,Bassam,Brooklyn,Bay Ridge,40.633390000000006,-74.0182,United States,US,True,flexible,Entire home/apt,2014,"$1,014 ",$203 ,2,130,2/28/2022,3.03,5,1,94,,
28782026,Studio 7 min walk to UBS Stadium,31911221643,verified,Ladaska,Queens,Bellerose,40.72204,-73.72277,United States,US,False,flexible,Entire home/apt,2004,"$1,107 ",$221 ,1,4,2/28/2022,1.24,4,1,365,,
28782578,Nice room near Manhattan in a safe neighborhood,74915034109,verified,Robertina,Queens,Jackson Heights,40.75156,-73.88298,United States,US,False,flexible,Private room,2011,"$1,155 ",$231 ,2,100,2/28/2022,2.36,2,4,32,,
28783131,Authentic Brooklyn Brownstone - Garden Unit,2597634429,verified,Elisha,Brooklyn,Crown Heights,40.67413,-73.94875,United States,US,True,moderate,Entire home/apt,2003,"$1,152 ",$230 ,3,104,2/28/2022,2.75,4,1,161,,
28783683,Fabulous Bed-Stuy Brownstone Garden Apartment,50141596526,unconfirmed,Ny,Brooklyn,Bedford-Stuyvesant,40.69057,-73.92781,United States,US,True,moderate,Entire home/apt,2009,$361 ,$72 ,4,63,2/28/2022,1.57,4,1,113,,
28784235,Entire 1 bedroom apt in Manhattan. Great location!,84069396612,unconfirmed,Chris,Manhattan,Upper East Side,40.76367,-73.95796,United States,US,False,strict,Entire home/apt,2020,$447 ,$89 ,4,43,2/28/2022,1.04,4,1,44,,
28784788,East Village Cottage Life,26211992386,unconfirmed,Eliza,Manhattan,East Village,40.72967,-73.97973,United States,US,True,flexible,Private room,2013,$691 ,$138 ,2,87,2/28/2022,2.13,2,1,113,,
28785340,TRIBECA/SOHO 2 BEDROOM LUXURY LOFT w FIREPLACE,89642573370,verified,Daniela,Manhattan,SoHo,40.72054,-74.00198,United States,US,True,strict,Entire home/apt,2018,$276 ,$55 ,2,40,2/28/2022,0.96,5,1,280,,
28785892,Cozy Apt Close To Manhattan with free parking,63595923986,unconfirmed,Jamie,Queens,Jackson Heights,40.753370000000004,-73.87612,United States,US,True,moderate,Entire home/apt,2018,$633 ,$127 ,3,107,2/28/2022,2.64,3,2,324,,
28786444,Hispanic Cultured NYC 2.0,19362082785,unconfirmed,Mariela,Bronx,Fordham,40.85651,-73.90443,United States,US,False,moderate,Private room,2016,$946 ,$189 ,4,50,2/28/2022,1.18,2,3,1,,
28786997,"Near LaGuardia Airport, Clean Private Luxury Suite",76466299704,unconfirmed,Alexis,Queens,Corona,40.75128,-73.85356,United States,US,True,flexible,Private room,2011,$474 ,$95 ,1,128,2/28/2022,3.21,4,2,188,,
28787549,"Private room in Manhattan, 5 mins from 2, 3 train 135 Station",95666197808,unconfirmed,Kaz,Manhattan,Harlem,40.811859999999996,-73.94309,United States,US,True,moderate,Private room,2021,$218 ,$44 ,30,10,2/28/2022,0.27,4,161,364,,
28788101,Large Bright Room with En-Suite Bathroom,37357486878,verified,Michelle,Manhattan,Harlem,40.8103,-73.94372,United States,US,False,moderate,Private room,2016,$168 ,$34 ,5,41,2/28/2022,1.28,3,3,111,,
28788654,Huge Studio style room in Manhattan,56333960598,verified,Andrew,Manhattan,Harlem,40.80535,-73.94793,United States,US,True,strict,Private room,2005,$930 ,$186 ,2,160,2/28/2022,4.07,3,3,78,,
28789206,ÂÆ∂Â∫≠ÂºèÂñÆÈñìÈõô‰∫∫Â∫äK,48792723240,verified,Fiona,Queens,Flushing,40.76489,-73.82954000000001,United States,US,False,strict,Private room,2022,$841 ,$168 ,1,27,2/28/2022,0.68,3,3,81,,
28789758,"Newly Built Pvt. Suite, Free Parking, King Bed-NYC",96749078083,unconfirmed,Renu,Queens,Forest Hills,40.73599,-73.84451999999999,United States,US,False,moderate,Entire home/apt,2022,$294 ,$59 ,4,156,2/28/2022,3.93,3,2,14,,
28790311,Hendrix Upstairs Oasis Rm #2,65960901851,verified,Tonisha,Brooklyn,East New York,40.665440000000004,-73.88879,United States,US,False,flexible,Private room,2019,$139 ,$28 ,1,54,2/28/2022,2.04,2,6,180,,
28790863,üçÄüèÜ‚ô•Ô∏èü¶úBetterHome Inn 2BR/5GUESTS JFK7 - LGA15 MINS,90183798637,verified,Better Home,Queens,Springfield Gardens,40.66202,-73.7686,United States,US,False,strict,Entire home/apt,2018,"$1,167 ",$233 ,1,294,2/28/2022,7.42,4,3,325,,
28791415,Bright and Clean South Slope Studio,49637158801,unconfirmed,Mary,Brooklyn,Sunset Park,40.661609999999996,-73.99049000000001,United States,US,False,flexible,Entire home/apt,2021,$157 ,$31 ,2,104,2/28/2022,2.64,5,1,98,,
28791967,A true NYC experience  ( shabby chic ),68169891716,verified,Eduardo,Manhattan,Upper East Side,40.7768,-73.96128,United States,US,True,moderate,Private room,2014,$928 ,$186 ,1,82,2/28/2022,2.09,2,3,12,,
28792520,Flushing downtown  luxury suite 202,50844135245,verified,Cindy,Queens,Flushing,40.74289,-73.83475,United States,US,False,moderate,Private room,2022,$453 ,$91 ,1,45,2/28/2022,1.14,3,6,345,,
28793072,Park Slope Brownstone Garden Apartment,63304962980,verified,Thatcher,Brooklyn,Park Slope,40.67007,-73.9798,United States,US,False,moderate,Entire home/apt,2018,$999 ,$200 ,30,26,2/28/2022,0.73,3,2,205,,
28793624,Big studio across the street from Prospect Park,82092555456,verified,Mariel,Brooklyn,Prospect-Lefferts Gardens,40.66137,-73.9616,United States,US,True,flexible,Entire home/apt,2006,$530 ,$106 ,30,23,2/28/2022,0.61,2,1,17,,
28794177,JFK Airport Private Room with Bathroom Room 7,4899366289,verified,Lakshmee,Queens,Jamaica,40.66794,-73.78501999999999,United States,US,True,strict,Private room,2012,$898 ,$180 ,1,265,2/28/2022,6.88,5,10,54,,
28794729,Flushing Meadows-Queensboro Hill Gem,2102605265,verified,Renee,Queens,Flushing,40.745777000000004,-73.828743,United States,US,True,flexible,Entire home/apt,2018,$653 ,$131 ,1,85,2/28/2022,2.43,5,1,353,,
28795281,Modern 2 Bedroom Walk in. 3 min from Subway !,48422942660,unconfirmed,Chaim,Brooklyn,Crown Heights,40.67116,-73.93293,United States,US,True,strict,Entire home/apt,2014,$105 ,$21 ,2,161,2/28/2022,4.68,4,4,95,,
28795834,Artistic Garden Sanctuary,60336608510,unconfirmed,Samara,Brooklyn,Flatbush,40.642509999999994,-73.95535,United States,US,True,strict,Entire home/apt,2020,$712 ,$142 ,2,60,2/28/2022,1.9,2,2,262,,
28796386,Carroll Gardens Apt  w Magical Manhattan Views,74773773297,unconfirmed,Linsey,Brooklyn,Columbia St,40.684870000000004,-74.00169,United States,US,False,flexible,Entire home/apt,2015,$459 ,$92 ,4,100,2/28/2022,2.74,2,1,61,,
28796938,Modern room for the Family in Times Square!,33579713927,unconfirmed,Row NYC,Manhattan,Theater District,40.758759999999995,-73.98846,United States,US,False,flexible,Hotel room,2007,$247 ,$49 ,1,13,2/28/2022,0.4,2,9,241,,
28797490,2 bathrooms; 10mins LGA: 4mins 7train (2),47219490904,verified,Kelly,Queens,Jackson Heights,40.75098,-73.87685,United States,US,False,moderate,Private room,2021,$112 ,$22 ,2,78,2/28/2022,2.14,4,13,356,,
28798043,3blocks to 7 train-30mins to City Exploration,48314637730,verified,Kelly,Queens,Jackson Heights,40.75308,-73.8764,United States,US,False,moderate,Private room,2010,$552 ,$110 ,2,99,2/28/2022,2.73,5,13,350,,
28798595,Furnished private room 5 minutes from Subway,8680486169,unconfirmed,Mathew,Manhattan,Harlem,40.83058,-73.94542,United States,US,False,moderate,Private room,2018,$760 ,$152 ,3,49,2/28/2022,1.35,5,2,64,,
28799147,Decatur street Limestone an Urban Zen  experience,3932821016,verified,Shelley,Brooklyn,Bedford-Stuyvesant,40.68272,-73.91957,United States,US,True,flexible,Entire home/apt,2021,$512 ,$102 ,4,138,2/28/2022,3.9,5,2,65,,
28799700,"Jfk5minutes entire apt self check in,no sharing",86918904736,unconfirmed,Raj,Queens,Jamaica,40.67875,-73.79146,United States,US,True,flexible,Entire home/apt,2015,$356 ,$71 ,1,13,2/28/2022,0.42,3,2,88,,
28800252,"Le Chateau Boutique in Le Brooklyn , NY ! Voila !",19229996300,unconfirmed,Javier,Brooklyn,Bushwick,40.68769,-73.91559000000001,United States,US,False,strict,Entire home/apt,2022,"$1,152 ",$230 ,2,123,2/28/2022,3.5,5,2,256,,
28800804,Garden Apartment in Park Slope Brownstone Êó•Êú¨Ë™ûÂØæÂøúÂèØËÉΩ,70122639203,unconfirmed,Keith & Masa,Brooklyn,Park Slope,40.667359999999995,-73.98156999999999,United States,US,True,moderate,Entire home/apt,2016,$724 ,$145 ,10,52,2/28/2022,1.62,4,1,28,,
28801357,"Bushwick private room, Great for a couple",19753879745,unconfirmed,Kaz,Brooklyn,Bushwick,40.69038,-73.91228000000001,United States,US,False,moderate,Private room,2022,$142 ,$28 ,30,8,2/28/2022,0.3,5,161,328,,
28801909,Modern  Brownstone Brooklyn Apt with Backyard,84816056956,unconfirmed,Lisa,Brooklyn,Bushwick,40.68862,-73.90912,United States,US,False,strict,Entire home/apt,2016,$779 ,$156 ,3,104,2/28/2022,2.95,4,1,281,,
28802461,‚ú™Birdman movie‚ú™ Private Room in Brooklyn,5668331815,verified,Andrey,Brooklyn,Bedford-Stuyvesant,40.67942,-73.91313000000001,United States,US,True,flexible,Private room,2004,$910 ,$182 ,30,144,2/28/2022,4.01,5,3,1,,
28803013,BRIGHT SUNNY ONE BEDROOM APT WITH TERRACE,93540807579,verified,Nicholas,Brooklyn,Gravesend,40.59762,-73.97744,United States,US,False,moderate,Entire home/apt,2004,"$1,108 ",$222 ,2,56,2/28/2022,1.69,2,3,138,,
28803566,Brick house floor in Brooklyn,11159681286,verified,Kevin,Brooklyn,Sunset Park,40.64351,-74.01464,United States,US,True,flexible,Entire home/apt,2007,$910 ,$182 ,2,101,2/28/2022,3.04,2,1,117,,
28804118,A little Gem in the heart of Boerum Hill Brooklyn.,67115456512,verified,Sandee,Brooklyn,Boerum Hill,40.68687,-73.98706,United States,US,False,flexible,Entire home/apt,2015,"$1,018 ",$204 ,2,104,2/28/2022,3.23,4,1,78,,
28804670,Mini Casa - Entire Place Studio,39850166843,verified,Kelly,Queens,Jackson Heights,40.7527,-73.87513,United States,US,False,flexible,Private room,2005,$789 ,$158 ,2,72,2/28/2022,2.1,4,13,349,,
28805223,Cozy Garden Level Apartment in Brooklyn,39247875970,unconfirmed,Rashid,Brooklyn,East New York,40.673790000000004,-73.87445,United States,US,True,flexible,Entire home/apt,2006,$882 ,$176 ,2,72,2/28/2022,2.32,2,1,274,,
28805775,Queens Village Morden 93,45915537940,verified,Qing,Queens,Queens Village,40.72205,-73.73571,United States,US,True,flexible,Entire home/apt,2018,"$1,148 ",$230 ,1,194,2/28/2022,5.66,4,1,66,,
28806327,Luxury City Suites Steps from Central Park,89270576047,unconfirmed,The Manhattan Club,Manhattan,Midtown,40.76487,-73.98119,United States,US,True,moderate,Private room,2007,"$1,140 ",$228 ,1,129,2/28/2022,3.92,3,4,320,,
28806880,Stunning Park Slope Duplex (15 Mins to Manhattan!),85318275506,unconfirmed,Susan,Brooklyn,South Slope,40.65988,-73.98470999999999,United States,US,True,flexible,Entire home/apt,2016,"$1,028 ",$206 ,30,81,2/28/2022,2.45,2,2,348,,
28807432,Park Slope Studio w/3 beds (15 Mins to Manhattan!),40577205789,verified,Susan,Brooklyn,South Slope,40.66158,-73.98482,United States,US,False,moderate,Entire home/apt,2017,$446 ,$89 ,2,96,2/28/2022,2.93,3,2,328,,
28807984,NYC Diamond 5 star 3bedrooms/5beds 2baths/ Parking,24307232694,unconfirmed,Charlene,Bronx,Wakefield,40.90436,-73.84992,United States,US,False,moderate,Entire home/apt,2009,"$1,100 ",$220 ,4,55,2/28/2022,1.7,5,4,355,,
28808536,Empire State Studio Apt,34305441767,unconfirmed,Jey,Manhattan,Kips Bay,40.74167,-73.98216,United States,US,True,flexible,Entire home/apt,2009,$66 ,$13 ,2,64,2/28/2022,1.95,3,1,269,,
28809089,A taste of New York,56369112643,verified,Lisa,Queens,South Ozone Park,40.67629,-73.82055,United States,US,False,strict,Entire home/apt,2022,$188 ,$38 ,3,79,2/28/2022,2.41,2,1,321,,
28809641,Stylish 2 Beds Apartment with private parking.,13445055978,unconfirmed,Sonia,Bronx,Allerton,40.867290000000004,-73.85113,United States,US,True,flexible,Entire home/apt,2015,$916 ,$183 ,2,90,2/28/2022,2.76,2,1,174,,
28810193,Private Entrance 2 Bedroom Apt‚ÄîAmazing Location!!!,38579911038,verified,Micah,Brooklyn,Clinton Hill,40.68466,-73.96635,United States,US,False,flexible,Entire home/apt,2021,$821 ,$164 ,7,71,2/28/2022,2.24,3,1,313,,
28810746,Brooklyn Heights 1 Bed Floorthru 950ft Garden Apt,50942235785,verified,Alex,Brooklyn,Brooklyn Heights,40.69166,-73.99848,United States,US,False,moderate,Entire home/apt,2013,$287 ,$57 ,3,130,2/28/2022,4.13,5,1,68,,
28811298,"Bolgheri, üë©üèΩ‚Äçüíª from home, quiet, Self Check-In",40314466016,unconfirmed,Debbie,Brooklyn,East New York,40.67002,-73.87826,United States,US,True,moderate,Private room,2011,$441 ,$88 ,4,28,2/28/2022,0.89,5,6,332,,
28811850,"Lovely 2 BR in Brooklyn w Garden, 20 min to Soho!",5268059521,verified,Katherine,Brooklyn,Bedford-Stuyvesant,40.68312,-73.9142,United States,US,True,strict,Entire home/apt,2007,$55 ,$11 ,5,69,2/28/2022,2.18,4,2,192,,
28812403,"Tranquility stay Near JFK entire space
private",31229397463,verified,DeMarco,Queens,Cambria Heights,40.69638,-73.72579,United States,US,True,flexible,Private room,2010,$975 ,$195 ,1,107,2/28/2022,3.47,4,1,352,,
28812955,Positivity JFK‚Ä¢Casino‚Ä¢Beach,96822632917,verified,Ryan,Queens,Ozone Park,40.67354,-73.8419,United States,US,True,flexible,Entire home/apt,2009,$881 ,$176 ,1,204,2/28/2022,6.52,2,4,350,,
28813507,Historic Home w/ private backyard (sleeps 6),80470418113,verified,Andre,Brooklyn,Bedford-Stuyvesant,40.67767,-73.91686,United States,US,True,strict,Entire home/apt,2020,$892 ,$178 ,3,60,2/28/2022,1.93,4,1,216,,
28814059,BRAND NEW COZY STUDIO NEAR CENTRAL PARK - UES,36039200468,verified,Inna,Manhattan,Upper East Side,40.76952,-73.95645,United States,US,False,strict,Entire home/apt,2012,$949 ,$190 ,30,14,2/28/2022,0.47,5,32,340,,
28814612,Spacious and comfortable private 3br in Bushwick,45291948148,unconfirmed,Andrew,Brooklyn,Bushwick,40.694759999999995,-73.92108,United States,US,True,strict,Entire home/apt,2011,$961 ,$192 ,2,80,2/28/2022,2.56,2,1,235,,
28815164,"Airy, Bright, Authentic Loft/Artist's space",82583495468,verified,Farah,Brooklyn,Bedford-Stuyvesant,40.693870000000004,-73.95571,United States,US,False,moderate,Entire home/apt,2006,"$1,075 ",$215 ,90,2,2/28/2022,0.22,3,1,277,,
28815716,Charming,66632817413,verified,Yvonne,Manhattan,Harlem,40.805620000000005,-73.94816,United States,US,False,flexible,Private room,2014,$375 ,$75 ,2,79,2/28/2022,2.62,3,1,12,,
28816269,Cozy Alcove Studio in the Heart of Williamsburg,42524916506,verified,Ana,Brooklyn,Williamsburg,40.711220000000004,-73.95214,United States,US,True,strict,Entire home/apt,2010,$661 ,$132 ,2,22,2/28/2022,0.69,4,1,0,,
28816821,NYC large apt 1 min from train,30198707687,verified,Irena,Queens,Kew Gardens,40.71245,-73.83306999999999,United States,US,True,strict,Entire home/apt,2004,$602 ,$120 ,14,32,2/28/2022,1.73,5,1,56,,
28817373,Beautiful Chic 2 bedroom Apt near Major Trains,57913187214,unconfirmed,Yngrid And Jiovanni,Brooklyn,East New York,40.67536,-73.88939,United States,US,True,flexible,Entire home/apt,2007,$571 ,$114 ,3,61,2/28/2022,2.01,2,3,361,,
28817926,gigi's and MOE private home away from home new,70611031050,verified,Gigi,Queens,Laurelton,40.67539,-73.75403,United States,US,False,moderate,Private room,2014,$938 ,$188 ,1,18,2/28/2022,0.93,3,1,365,,
28818478,Sunny private room/Williamsburg,54414096526,unconfirmed,Florencia,Brooklyn,Williamsburg,40.71071,-73.94856,United States,US,False,moderate,Private room,2021,$880 ,$176 ,28,15,2/28/2022,0.49,4,3,6,,
28819030,East Village Nest,72960377130,unconfirmed,Ann,Manhattan,East Village,40.72425,-73.97904,United States,US,False,moderate,Entire home/apt,2020,$553 ,$111 ,7,9,2/28/2022,0.32,5,2,4,,
28819582,"NEW 1.5 BED Apt in DWNTWN BK w/ Rooftop, W/D",71229561802,unconfirmed,Mary,Brooklyn,Boerum Hill,40.684870000000004,-73.98068,United States,US,True,strict,Entire home/apt,2015,"$1,078 ",$216 ,31,3,2/28/2022,0.11,5,1,0,,
28820135,Peaceful Harlem Haven,89232361999,verified,Taela,Manhattan,Harlem,40.82054,-73.9395,United States,US,True,moderate,Private room,2021,"$1,026 ",$205 ,5,37,2/28/2022,1.27,4,1,138,,
28820687,Modern Scandinavian Oasis in Tree-Lined Park Slope,39936092323,verified,Sarah,Brooklyn,Park Slope,40.67967,-73.97663,United States,US,False,moderate,Entire home/apt,2019,$111 ,$22 ,3,98,2/28/2022,3.36,4,1,313,,
28821239,Comfy Quarters - JFK Layover or NYC Stayover,86995398311,unconfirmed,Abena,Queens,Cambria Heights,40.700520000000004,-73.73884,United States,US,False,flexible,Entire home/apt,2014,$657 ,$131 ,1,47,2/28/2022,1.88,3,1,88,,
28821792,"True Hidden Gem, Center of Downtown NY",96390265921,verified,Takeshi,Manhattan,Lower East Side,40.71776,-73.98187,United States,US,False,strict,Private room,2018,$442 ,$88 ,3,143,2/28/2022,4.98,4,1,37,,
28822344,Sunny and Stylish West Village Flat,28763272422,verified,Brian,Manhattan,West Village,40.72874,-74.00318,United States,US,True,strict,Entire home/apt,2003,$617 ,$123 ,7,40,2/28/2022,1.4,3,1,309,,
28822896,Cozy Marine Park Apartment Near JFK Airport,45180798612,unconfirmed,Kadia,Brooklyn,Flatlands,40.6187,-73.93365,United States,US,True,flexible,Entire home/apt,2021,$498 ,$100 ,2,101,2/28/2022,3.49,4,1,353,,
28823449,Luxurious 4 bedroom 2 bath apt in queens,1106536049,unconfirmed,Jos√©,Queens,Woodhaven,40.69082,-73.86348000000001,United States,US,True,strict,Entire home/apt,2014,$578 ,$116 ,3,63,2/28/2022,2.45,2,3,238,,
28824001,"Private & Spacious 2 Bdrm Apt, Douglaston Queens",59938976505,unconfirmed,Jack,Queens,Douglaston,40.76678,-73.74813,United States,US,True,strict,Entire home/apt,2021,$903 ,$181 ,1,56,2/28/2022,1.97,4,1,11,,
28824553,Basement room with 1 double size bed near LGA,58775254966,verified,Gabriela,Queens,East Elmhurst,40.76822,-73.87467,United States,US,True,moderate,Private room,2011,$552 ,$110 ,1,117,2/28/2022,4.07,3,3,358,,
28825105,PRIVATE CLEAN ROOM IN BAYRIDGE 3,33553440333,unconfirmed,Sam,Brooklyn,Bay Ridge,40.62218,-74.02116,United States,US,True,flexible,Private room,2018,$695 ,$139 ,2,61,2/28/2022,2.15,4,5,75,,
28825658,"Family-friendly, Beautiful Private Space",48398210965,verified,Achara,Brooklyn,Flatbush,40.63067,-73.95662,United States,US,True,flexible,Private room,2010,$674 ,$135 ,2,14,2/28/2022,0.51,5,1,292,,
28826210,Luxury Park Slope 2 Bed 2 Bath. Brownstone.Outdoor,10358123217,unconfirmed,Antonella,Brooklyn,Park Slope,40.676809999999996,-73.97635,United States,US,False,moderate,Entire home/apt,2022,$986 ,$197 ,4,81,2/28/2022,2.88,2,1,57,,
28826762,Cozy Studio with a Modern/Luxe Feel,63624154771,verified,Laura,Queens,Astoria,40.7645,-73.91063,United States,US,True,flexible,Entire home/apt,2013,$676 ,$135 ,1,171,2/28/2022,6.11,2,1,331,,
28827315,"Carroll Gardens Chic Apartment, 5 min to Manhattan",35977967524,unconfirmed,Adam,Brooklyn,Carroll Gardens,40.68312,-73.99143000000001,United States,US,True,flexible,Entire home/apt,2014,$968 ,$194 ,5,66,2/28/2022,2.41,5,3,328,,
28827867,Elexey's Comfort . Room is located in the basement,32953602569,verified,Michelle,Queens,St. Albans,40.7061,-73.75839,United States,US,True,strict,Private room,2009,$357 ,$71 ,2,37,2/28/2022,1.32,4,4,354,,
28828419,Great Location,85742321478,verified,Sam,Manhattan,Hell's Kitchen,40.76121,-73.98921,United States,US,False,flexible,Entire home/apt,2015,"$1,188 ",$238 ,1,115,2/28/2022,4.74,3,1,49,,
28828972,Prime Williamsburg Location & Near Subway!,57762708728,unconfirmed,Rob,Brooklyn,Williamsburg,40.71483,-73.95942,United States,US,True,strict,Entire home/apt,2019,"$1,173 ",$235 ,2,12,2/28/2022,0.61,2,1,0,,
28829524,üòçL@@K!üòç Sunlit 3 bedroom in 20ft wide brownstone,53172687385,unconfirmed,Corey,Brooklyn,Bedford-Stuyvesant,40.69494,-73.9481,United States,US,True,moderate,Entire home/apt,2017,$164 ,$33 ,3,38,2/28/2022,1.57,5,2,331,,
28830076,Beautiful Getaway Destination  In Brooklyn,1601396793,verified,Clive,Brooklyn,Canarsie,40.64601,-73.90852,United States,US,True,moderate,Entire home/apt,2004,$281 ,$56 ,3,83,2/28/2022,3.13,4,1,130,,
28830628,Luxury 1 bedroom near subway & all 2A,58494047172,unconfirmed,Anna,Queens,Flushing,40.76619,-73.82839,United States,US,False,moderate,Entire home/apt,2014,$859 ,$172 ,2,40,2/28/2022,1.51,4,3,93,,
28831181,Brooklyn Escape,66187495450,verified,Antonio,Brooklyn,Bedford-Stuyvesant,40.681003999999994,-73.913139,United States,US,False,moderate,Private room,2017,"$1,056 ",$211 ,1,27,2/28/2022,1.0,3,5,62,,
28831733,Suite Boulevard - 15 min to Central Park,95072803872,verified,Luux,Queens,Long Island City,40.75542,-73.92047,United States,US,True,strict,Entire home/apt,2005,$657 ,$131 ,4,90,2/28/2022,3.47,5,3,230,,
28832285,Private Astoria Apartment - 15 min to Manhattan,82081389624,unconfirmed,Chris,Queens,Long Island City,40.76279,-73.92756,United States,US,False,flexible,Entire home/apt,2015,$357 ,$71 ,2,55,2/28/2022,2.19,5,2,21,,
28832838,"alex & kyrene sweet guest house 5 min from LGA,",86866792776,unconfirmed,Edgar,Queens,East Elmhurst,40.76448,-73.86508,United States,US,True,flexible,Entire home/apt,2014,$589 ,$118 ,2,69,2/28/2022,2.66,2,1,41,,
28833390,The Cozy Corner,63616666632,unconfirmed,Kerri,Queens,Jamaica,40.67129,-73.77873000000001,United States,US,False,moderate,Private room,2011,$381 ,$76 ,1,71,2/28/2022,2.77,4,3,355,,
28833942,Chelsea‚Äôs High Line Living! March/April Available,22099439350,unconfirmed,Evan,Manhattan,Chelsea,40.745309999999996,-74.00511999999999,United States,US,False,flexible,Entire home/apt,2006,"$1,121 ",$224 ,2,9,2/28/2022,1.54,4,2,37,,
28834495,Broadway Plaza Hotel,27585718758,verified,Broadway Plaza,Manhattan,Midtown,40.744440000000004,-73.9892,United States,US,True,moderate,Hotel room,2020,$624 ,$125 ,1,295,2/28/2022,18.06,2,1,0,,
28835047,Lux One Bedroom Suite,87526287146,verified,Nicole,Brooklyn,Bushwick,40.6954,-73.91298,United States,US,True,moderate,Entire home/apt,2019,$283 ,$57 ,30,7,2/28/2022,0.29,5,1,76,,
28835599,"Smile, Life is for Living",78758413525,unconfirmed,Yvonne,Queens,St. Albans,40.69014,-73.75173000000001,United States,US,False,moderate,Entire home/apt,2007,"$1,132 ",$226 ,2,4,2/28/2022,1.32,5,2,365,,
28836151,Luxurious Oasis near Central Park & Lincoln Center,19344137512,verified,Lucy,Manhattan,Upper West Side,40.78018,-73.98007,United States,US,False,strict,Entire home/apt,2021,$217 ,$43 ,3,42,2/28/2022,2.37,5,1,209,,
28836704,‚òÖ NEWLY RENOVATED SUNLIT STUDIO ON UpperEastSide ‚òÖ,42833828184,unconfirmed,Inna,Manhattan,Upper East Side,40.770451,-73.955894,United States,US,True,flexible,Entire home/apt,2013,$282 ,$56 ,30,11,2/28/2022,0.48,3,32,339,,
