id,NAME,host id,host_identity_verified,host name,neighbourhood group,neighbourhood,lat,long,country,country code,instant_bookable,cancellation_policy,room type,Construction year,price,service fee,minimum nights,number of reviews,last review,reviews per month,review rate number,calculated host listings count,availability 365,house_rules,license
20387066,Creative Bushwick - Cozy Private Room,70513199275,verified,Dr. Jihene,Brooklyn,Bushwick,40.6888,-73.92015,United States,US,False,flexible,Private room,2013,"$1,125 ",$225 ,1.0,18,6/23/2019,3.6,3,1,93,"We have ample off-street parking but if you have a car let us know and we will be in touch with you about parking. Please be careful not to drive or walk in the driveway for 233 Savin Hill Avenue. Check in time is 2 PM, check out time is 10 AM.  Guests who arrive early can drop off their luggage after 10 AM. We are unable to accommodate arrivals earlier than 10 AM.  Guests who need to stay after the check out time are welcome to use the common area on the first floor for luggage storage. NO SMOKING in the house or anywhere on the property. No Pets.",
20387618,Sonder | 116 John | Cozy 2BR+ Gym,1165490779,unconfirmed,Sonder,Manhattan,Financial District,40.70797,-74.0055,United States,US,False,moderate,Entire home/apt,2008,$203 ,$41 ,29.0,1,3/16/2019,0.26,2,96,311,,
20388171,Pet-friendly 1bd in the Heart of East Village,80095623911,unconfirmed,Joe,Manhattan,East Village,40.72772,-73.98046,United States,US,False,flexible,Entire home/apt,2007,$120 ,$24 ,3.0,25,6/9/2019,2.4,4,1,1,"Respect yourself, Respect others. Clean up after yourself , no smoking in the house, no partying.  Late check in after 9 pm and before 9 am is $50, lock out is $50 thank you ",
20388723,art-filled spacious room in artist's cozy home.,43234503261,verified,Dio,Brooklyn,Bushwick,40.69355,-73.92684,United States,US,True,flexible,Private room,2005,$929 ,$186 ,2.0,39,6/25/2019,3.75,4,2,158,The house is kept very clean host does all cleaning making of beds and daily cleaning of home. Absolutely no additional company with out first checking in,
20389275,Private Bedroom in MANHATTAN (Free Wifi),52617110324,verified,Sarah,Manhattan,Harlem,40.8228,-73.94442,United States,US,False,moderate,Private room,2013,$390 ,$78 ,5.0,2,5/23/2019,0.32,4,1,66,"Respect yourself, respect other, clean up after yourself. Late check in after 9 p.m. and before 9 A.m. is $50, lock out is $50. No smoking, drinking in the house . Thank you ",
20389828,"Cute, Cozy Private One-Bed in Crown Heights",2495344768,unconfirmed,Aaron,Brooklyn,Crown Heights,40.671820000000004,-73.94445999999999,United States,US,False,strict,Entire home/apt,2011,$504 ,$101 ,3.0,5,5/20/2019,0.52,4,1,0,,
20390380,Sunny Room in modern building in Bushwick,71889739752,verified,Raisa,Brooklyn,Bushwick,40.69961,-73.93138,United States,US,True,moderate,Private room,2009,$895 ,$179 ,3.0,4,9/21/2018,0.39,5,2,0,"- no loud music or electronics after 10 pm - must wash all used dishes, clear perishable food, and tie up garbage bags (in preparation for disposal) before checking out",
20390932,Private Room in great location Bushwick!,78081481037,unconfirmed,Raisa,Brooklyn,Bushwick,40.699940000000005,-73.93299,United States,US,True,moderate,Private room,2016,$705 ,$141 ,2.0,0,,,4,2,0,No company  Be respectful Animals must be locked up Smoke friendly,
20391484,The Buchanan’s,36986761998,unconfirmed,Violet,Queens,St. Albans,40.70046,-73.74834,United States,US,False,flexible,Entire home/apt,2008,$329 ,$66 ,2.0,17,7/1/2019,1.69,4,1,352,"We don't wear shoes in the home. Guests should be respectful with noise levels when coming, going, watching TV or listening to music. We have neighbors in the building and don't want to disturb anyone. Guests should pick up after themselves, especially in kitchen & bathroom. Guests staying a week or longer may be expected to help with basic chores (taking out trash, etc). Please keep your bath towel & clothing in your bedroom after use & clean hair from the shower drain. If you forget toiletries, please ask before you use ours, and we will do our best to help. You are welcome to use our washer & dryer. Please let use show you how to use them before you do your first load of laundry. Please do not use air conditioners or space heaters in the room without permission. We provide a fan & extra blankets when needed. Please do not light candles or incense, or spray artificial air fresheners in our home. We have natural sprays and diffusers that you may use. Please close & lock windows when n",
20392037,2 bedroom apartment in Astoria,15830647877,verified,Maiko,Queens,Astoria,40.769420000000004,-73.92772,United States,US,True,strict,Entire home/apt,2009,$665 ,$133 ,2.0,3,1/4/2019,0.47,4,2,0,"Enjoy yourself as if this were your home.  All we ask is that you are mindful of other guests and tenants when entering and exiting the home.   No smoking on the property, both inside and outside. No candles. No pets.",
20392589,"One bedroom apartment Woodhaven, Queens NY.",33984147701,verified,Jason C,Queens,Woodhaven,40.6959,-73.84868,United States,US,True,moderate,Entire home/apt,2010,"$1,037 ",$207 ,7.0,3,6/18/2019,1.0,4,1,2,,
20393141,Large bedroom ensuite,48039848434,verified,Samantha,Brooklyn,East New York,40.67154,-73.87913,United States,US,False,flexible,Private room,2017,"$1,007 ",$201 ,3.0,2,10/7/2018,0.19,5,1,179,"If you are new to Airbnb, the idea is that I’m not renting a room, but rather sharing my home. I live and work here, and enjoy meeting new people. It's like having old friends visit, not like a hotel. You are welcome to make yourself at home in the common living areas and to use the kitchen, but please leave everything as clean and put away as you have found it. As we will be sharing a bathroom, I appreciate your tidying up and keeping personal items in your room. The cat is not allowed outdoors – he can be sneaky so please don’t leave doors open and keep an eye out for him. You are welcome to the kitchen (and common areas), thank you for cleaning your dishes after using them.   I am environmentally friendly and appreciate you being mindful as well.  Thank you for being considerate and for treating the home as you would yours.  Please turn off lights, fans (and AC or heaters when available) when not in the bedroom.  Always lock doors and first floor windows when outside of the home.  P",
20393694,Bright Brooklyn Studio,75703679025,unconfirmed,Caroline,Brooklyn,Bedford-Stuyvesant,40.68056,-73.95371999999999,United States,US,False,strict,Entire home/apt,2004,$907 ,$181 ,3.0,5,6/10/2019,0.66,2,1,4,,
20394246,Art Gallery apartment in a Queens’ Victorian house,11689016852,verified,Andrzej,Queens,Woodhaven,40.69508,-73.86032,United States,US,False,strict,Entire home/apt,2019,"$1,177 ",$235 ,3.0,24,7/7/2019,2.55,3,1,308,Take shoes off when you come in,
20394798,Williamsburg Duplex with outdoor deck,44170979210,verified,Jason,Brooklyn,Williamsburg,40.71399,-73.9454,United States,US,False,flexible,Entire home/apt,2019,$165 ,$33 ,6.0,1,1/1/2019,0.16,5,1,71,This is a quiet home. No parties. No pets. No smoking.,
20395351,"Charming, Sunny West Village 1BR - Prime Location!",66371830385,unconfirmed,Jenna,Manhattan,West Village,40.73641,-73.99929,United States,US,False,strict,Entire home/apt,2010,$177 ,$35 ,2.0,3,4/23/2019,0.34,3,1,0,"NO PETS!  NO SMOKING ON PREMISES! NO PARTY! A printed house rule will be provided. Please be respectful to others when all rooms are booked. 10 AM Check-out and Check-in is between 12 PM (noon) - 3 PM.   Late check in after 8 pm is $50, lock out is $50. Respect yourself, Respect others, clean up after yourself.  No Smoking/drinking in apt.  Thank You! Location Rules: The ""Exact Address Location Is Not Given.  It Is Not Disclosed For Security Reasons"" And Is Given Out 24 Hours Prior to Check-in.  If This Is a Problem for You, Please STOP Here And Contact Other Hosts for Your Stay.   This Is a Part Of My House Rules.",
20395903,~Flatiron 2 Bedroom~Amazing Location~Sleeps 6~,55606318815,verified,Ryan,Manhattan,Midtown,40.74478,-73.98442,United States,US,False,strict,Entire home/apt,2009,$184 ,$37 ,4.0,32,6/21/2019,3.04,5,1,255,"No smoking, drinking. Respect yourself , respect other, clean up after yourself. Late check in after 9 pm and before 9 a.m. is $50, lock out is $50.  Thank you ",
20396455,Superior Studio with Balcony,27487234852,verified,Bassam,Brooklyn,Bay Ridge,40.633340000000004,-74.01784,United States,US,False,moderate,Private room,2005,"$1,048 ",$210 ,1.0,40,7/4/2019,3.79,2,2,169,"NO PETS!  NO SMOKING ON PREMISES!  NO PARTY! NO ""DRUGS"" - Keep the Place Clean at All Times! - Do Not Ask the ""Neighbors"" for anything.  Ask Me!  - No Neighbors Interaction! - No ""Drugs""!  - No Noise! A printed house rule will be provided. Please be respectful to others when all rooms are booked. 10 AM Check-out and Check-in is between 12 PM (noon) - 3 PM.   Late check in after 8 pm is $50, lock out is $50. Respect yourself, Respect others, clean up after yourself.  No Smoking/drinking in apt.  Thank You! Location Rules: The ""Exact Address Location Is Not Stockton St.  It Is 2 Streets Away.  It Is Not Disclosed For Security Reasons"" And Is Given Out 24 Hours Prior to Check-in.  If This Is a Problem for You, Please STOP Here And Contact Other Hosts for Your Stay.   This Is a Part Of My House Rules.",
20397007,Room in heart of Williamsburg on Bedford Ave.,92138238409,verified,Colin,Brooklyn,Williamsburg,40.71289,-73.9637,United States,US,False,moderate,Private room,2019,"$1,187 ",$237 ,1.0,0,,,3,1,0,,
20397560,luz lunar bibis,93151875101,unconfirmed,Gabriel,Bronx,Norwood,40.876329999999996,-73.88328,United States,US,True,strict,Private room,2008,"$1,066 ",$213 ,1.0,18,7/1/2019,1.93,5,1,153,"No smoking or drinking in the apt. Lock out will be $50. late check in after 9 pm and before 9 a.m. is $50. Respect yourself, respect other, clean up after yourself. Thank you",
20398112,Your Private Safe-Clean Haven w/Private Bath,19284990846,unconfirmed,Haidy,Bronx,Pelham Bay,40.84633,-73.83029,United States,US,False,flexible,Private room,2003,$659 ,$132 ,2.0,28,6/25/2019,2.69,2,1,78,,
20398664,Big Bed Paradise,34778008448,verified,Amarjit S,Staten Island,Arrochar,40.59623,-74.0839,United States,US,True,flexible,Private room,2005,$894 ,$179 ,4.0,8,6/8/2019,0.85,2,8,290,,
20399217,Lush mid-century haven in Greenpoint,7390337335,verified,Laine,Brooklyn,Greenpoint,40.733470000000004,-73.95164,United States,US,False,strict,Private room,2017,$975 ,$195 ,3.0,2,11/24/2018,0.2,4,1,0,"NO SMOKING, please stop smoking a block away so as not to bring smoke-filled lungs into the house, I'm highly sensitive, and it makes me feel sick. Please clean after yourself on an on-going basis, especially in the common areas. We recycle paper, glass, metal in a separate bin, and throw food, plastic bags, and wrappers into the normal trash, can you participate? This 100 year old building has character in the details, but might appear less clean. The wood work was painted white before I moved in. I consistently use bleach between guests, but the grooves have ""greyed"" overtime, and I haven't repainted yet. I hope you won't be that picky ;-) My end-of-stay cleaning fee is to cover my time and expenses washing, drying, changing the sheets and sanitizing the room in between guests. I don't do any daily cleaning (of your room, the bathroom or the kitchen).  I only clean in-between guests or when needed - I noticed I am not a clean freak, I go after the obvious (bread crumbs and slime) - s",
20399769,A Cozy Place to Stay in Woodside Queens!,23369680305,unconfirmed,Kazuya,Queens,Maspeth,40.73786,-73.90616,United States,US,False,flexible,Private room,2005,$198 ,$40 ,30.0,1,5/31/2019,0.77,5,103,235,Please make sure the front house doors are locked when leaving. Please return keys to lock box upon check-out. Please limit use of the 2nd floor resident's bathroom to nighttime breaks only. The back areas of house are being renovated and are off-limits.,
20400321,NYC Chelsea Luxury Modern Studio,77904843908,unconfirmed,Alice,Manhattan,Chelsea,40.73918,-73.99753,United States,US,False,moderate,Entire home/apt,2005,$232 ,$46 ,6.0,5,12/31/2018,0.56,5,1,0,Friendly pets allowed. Please don't let the cat out. Smoking allowed on balcony.,
20400874,Sonder | 116 John | Pleasant 1BR + Gym,36812305335,verified,Sonder,Manhattan,Financial District,40.70776,-74.00477,United States,US,True,flexible,Entire home/apt,2020,$75 ,$15 ,29.0,0,,,2,96,313,No Smoking & No Pets,
20401426,Spacious Bright Private Bedroom In Williamsburg!!!,72628765617,unconfirmed,Ali,Brooklyn,Williamsburg,40.71407,-73.93856,United States,US,False,moderate,Private room,2012,$478 ,$96 ,5.0,3,10/7/2018,0.31,4,1,0,"This is a fragrance free property.  I have fragrance free shampoo, conditioner, body wash and soap available.  If you could refrain from wearing perfume or cologne and using strong smelling shampoo and soap I would really appreciate it.  Natural products made with essential oils and herbs are fine.  For example, Aubrey Organics, Desert Essence and Avalon Organics are made with ingredients such as lavender, rose and coconut which are all fine. The room is on the third floor. There is no curfew.  I will give you a key and you can come and go as you please. I have an active life so sometimes I am not home but I do my best to be available by phone or text to assist you with your needs.  If you need something you can always call me, whether it is early in the morning or late at night.   You can keep things in the fridge and use the kitchen. You can use the washing machine and the dryer. This is a non-smoking household.  This includes the porch and the outdoor areas around the house.  Sorry,",
20401978,Private Room in the heart of Williamsburg,52505518905,unconfirmed,Karim,Brooklyn,Williamsburg,40.71893,-73.95866,United States,US,True,flexible,Private room,2016,$723 ,$145 ,1.0,47,7/6/2019,4.35,2,1,28,No Smoking in the building and common courtesy and respect. Roomate who rents with me needs use of the batroom around 7:15 am to  get ready for work. Enjoy your time here in Boston!,
20402530,"Beautiful, sunny, private apartment",83720815583,verified,Martha,Brooklyn,Sunset Park,40.647040000000004,-74.00819,United States,US,False,flexible,Entire home/apt,2019,$503 ,$101 ,4.0,23,6/11/2019,2.61,4,1,31,#NAME?,
20403083,"large, stylish, airy East Village loft apartment!",75967811118,verified,Yemisi,Manhattan,East Village,40.72307,-73.98369,United States,US,True,moderate,Entire home/apt,2020,$430 ,$86 ,3.0,7,5/5/2019,0.69,2,1,0,#NAME?,
20403635,"Studio near times grand central, Times Square, UN",1074774907,unconfirmed,Viswanadha,Manhattan,Midtown,40.752159999999996,-73.97171999999999,United States,US,True,strict,Entire home/apt,2019,"$1,155 ",$231 ,1.0,2,9/23/2018,0.2,3,1,0,"Contact us for reservations. Check in is 3pm, check out at 11am, though other arrangements can be made.",
20404187,Spacious Lower East Side Room,82946675224,verified,Christian,Manhattan,Lower East Side,40.720929999999996,-73.98595999999999,United States,US,True,flexible,Private room,2018,$765 ,$153 ,3.0,17,1/28/2019,1.65,5,1,188,"•Smoking is allowed outside the house.  •Sorry, no pets  •Please take shoes off in the living room. •Do not flush anything down toilet except toilet paper •Please maintain a reasonable volume •Please respect the property •Do not purchase anything on cable",
20404740,New York Apartment,98342871281,unconfirmed,Karen,Manhattan,Civic Center,40.7131,-74.00527,United States,US,False,moderate,Entire home/apt,2005,"$1,109 ",$222 ,15.0,0,,,3,1,0,"NO SMOKING, please stop smoking a block away so as not to bring smoke-filled lungs into the house, I'm highly sensitive, and it makes me feel sick. Please clean after yourself on an on-going basis, especially in the common areas. We recycle paper, glass, metal in a separate bin, and throw food, plastic bags, and wrappers into the normal trash, can you participate? This 100 year old building has character in the details, but might appear less clean. The wood work was painted white before I moved in. I consistently use bleach between guests, but the grooves have ""greyed"" overtime, and I haven't repainted yet. I hope you won't be that picky ;-) My end-of-stay cleaning fee is to cover my time and expenses washing, drying, changing the sheets and sanitizing the room in between guests. I don't do any daily cleaning (of your room, the bathroom or the kitchen).  I only clean in-between guests or when needed - I noticed I am not a clean freak, I go after the obvious (bread crumbs and slime) - s",
20405292,Affordable bedroom in Brooklyn townhouse.,78907850230,verified,Julie,Brooklyn,East Flatbush,40.6504,-73.95011,United States,US,True,moderate,Private room,2005,$984 ,$197 ,3.0,2,2/18/2019,0.19,3,2,0,,
20405844,"""In the Clouds"" Brooklyn Heights Studio",7007990163,verified,Jenna,Brooklyn,Brooklyn Heights,40.695029999999996,-73.99475,United States,US,False,moderate,Entire home/apt,2012,$306 ,$61 ,8.0,1,9/27/2018,0.1,3,1,207,No Smoking and No Pets,
20406397,beautiful modern 1 bed room apt,7095669452,unconfirmed,Alex,Manhattan,Chelsea,40.748129999999996,-74.00478000000001,United States,US,True,flexible,Private room,2005,$970 ,$194 ,2.0,4,5/28/2019,0.45,2,1,0,,
20406949,Spacious Room in Midtown East Apartment,38882689051,unconfirmed,Buke,Manhattan,Midtown,40.76043,-73.97075,United States,US,False,moderate,Private room,2019,$901 ,$180 ,3.0,3,10/14/2018,0.31,2,2,127,"I have neighbors and work in the morning, so I ask that you be courteous with noise levels at night and in the morning. Please clean up after yourself if you make a mess or cook. Please be dog friendly. I have an adorable and quiet Boston Terrier, he is kennel and house trained and walked throughout the day, but he is home during the day.",
20407501,Bright and Cozy Room in Williamsburg,65367725490,verified,Pauline,Brooklyn,Williamsburg,40.7073,-73.96607,United States,US,False,strict,Private room,2010,$566 ,$113 ,4.0,17,4/7/2019,1.59,4,2,131,"No smoking  and  Please respect each others space . When leaving out your space please dress respectful to other guess  though out the house . ( example , if you are in the house please wear a Robe of some sort .",
20408053,"Clean, Cozy Home in Perfect Park Slope Location",52339470834,unconfirmed,Young Jean,Brooklyn,Park Slope,40.681779999999996,-73.97957,United States,US,True,strict,Entire home/apt,2013,$678 ,$136 ,120.0,0,,,5,1,0,"All guests are expected to be respectful and mindful of shared spaces, including bathroom, kitchen, and TV room. This includes cleaning up after you and your group in all shared areas. Absolutely no smoking. Guests arriving or returning after 10:00pm must maintain a courteous volume in consideration of other guests. Pets are welcome! If you have a pet and use the backyard, please clean up after your pet.",
20408606,South Williamsburg Condo - Rooftop & Balcony,653456847,unconfirmed,Julie,Brooklyn,Williamsburg,40.71113,-73.96181,United States,US,False,moderate,Entire home/apt,2007,$62 ,$12 ,3.0,1,9/30/2018,0.11,3,1,9,"All I ask is that you are respectful of my home and things, as well as my neighbors, who are excellent! Oh, and no indoor smoking, please :)",
20409158,Spacious Private Room near Train and Prospect Park,6628038945,unconfirmed,Aaron,Brooklyn,Prospect-Lefferts Gardens,40.65815,-73.95546,United States,US,False,flexible,Private room,2015,$452 ,$90 ,31.0,3,6/1/2019,0.45,4,2,84,"No pets, no smoking or partying.  No rental to guests under 25.",
20409710,Sunny Apt in Brooklyn Close to Prospect Park,50600643853,unconfirmed,Sophia,Brooklyn,Kensington,40.63472,-73.97268000000001,United States,US,True,moderate,Private room,2021,$804 ,$161 ,3.0,2,1/1/2019,0.19,3,1,281,"All guests are expected to be respectful and mindful of shared spaces, including bathroom, kitchen, and TV room. This includes cleaning up after you and your group in all shared areas. Absolutely no smoking. Guests arriving or returning after 9:00pm must maintain a courteous volume in consideration of other guests. Pets are welcome! If you have a pet and use the backyard, please clean up after your pet.",
20410263,Park Slope Perfect 2 BR,63607701014,verified,Dani,Brooklyn,South Slope,40.66875,-73.98779,United States,US,True,strict,Entire home/apt,2006,"$1,066 ",$213 ,31.0,1,5/24/2019,0.64,4,2,281,• Check-in time is 4PM. Occassional Get-togethers are ok but no wild parties please. No drinking or drugs.,
20410815,room in a soho loft,39036460965,unconfirmed,Swetha,Manhattan,SoHo,40.72099,-73.99920999999999,United States,US,False,strict,Private room,2010,$914 ,$183 ,3.0,8,4/29/2019,0.81,2,2,361,"Check-in is 2:00 pm, and checkout 11:00 am. You may bring bags in before check in time or leave it to pick up later. Let me know to arrange it. After reservation please send me your arrival and departure time for logistics Help yourself coffee or tea anytime NO shoes to the second floor  Keep the volume low before 8am and after 10pm Close the doors gently No shower after  11:30pm No laundry after  before 9am and after 8pm Keep the kitchen in a decent condition after your use Close the shower curtain well, no hair in the tub, no water around the sink on the sink there is a sponge you can use it to dry Turn off the light when you leave the room Trash out from the room  BLUE BOX recycling  Please respect this rules. Full refunded of security despoit in this case",
20411367,Sun-Drenched  Perch in Charming Brownstone,72316923055,unconfirmed,Joyce,Brooklyn,Carroll Gardens,40.68112,-73.99296,United States,US,True,moderate,Entire home/apt,2016,$897 ,$179 ,4.0,9,5/18/2019,0.87,2,1,0,"We expect that you would treat the house as if it were your own. We would ask that you be respectful of noise after 10p. We expect that if you cook, you may use any of our kitchen utensils and appliances, but they should be cleaned/dishes washed/etc. before leaving the house. When you leave, please strip the bed of sheets and pillowcases, towels, etc, and either leave them on the floor, or if you are feeling helpful, bring them to the laundry room and put them into the washing machine with the provided detergent.  Basically, please treat the house as if it were your inlaw's house, and you were visiting for the holidays. Show the house respect, and keep the common areas clean, and it'll be a wonderful experience! ",
20411920,South Williamsburg Loft,72566972786,verified,Alexandra,Brooklyn,Williamsburg,40.70856,-73.96632,United States,US,True,strict,Private room,2019,$771 ,$154 ,2.0,2,7/3/2019,2.0,4,1,10,Any additional guests must get prior approval.,
20412472,Charming Private Room in Apt Share- Astoria NY,84999393230,verified,Linda,Queens,Astoria,40.76305,-73.91874,United States,US,False,moderate,Private room,2010,$228 ,$46 ,5.0,1,9/8/2018,0.1,4,1,0,"Please respect yourself, respect others, clean up after yourself especially after using the bathroom and kitchen , clean your dishes. Late check in fee after 9 Pm is $50, Lock out is $50.",
20413024,"Massive, Private 1 Bedroom near Barclays Center",76347619923,verified,Nathan,Brooklyn,Park Slope,40.6783,-73.97559,United States,US,True,strict,Private room,2014,$922 ,$184 ,1.0,13,4/7/2019,1.22,4,1,1,"• Check-in time is 3:00PM. • check out time is 11:00AM • No parties or events • Not suitable for pets • No smoking You have access to the kitchen (and all common areas), please clean after yourself.  Please mind the cat, avoid letting him out. He will be your new best friend and love you instantly if you want him to. I look forward to meeting you and hosting you.",
20413576,Step back in time and see NYC as it was in the 80s,12300373079,unconfirmed,Jeff,Staten Island,Stapleton,40.63782,-74.07732,United States,US,False,moderate,Private room,2015,$526 ,$105 ,1.0,2,9/13/2018,0.19,5,2,353,No shoes in the house,
20414129,Industrial Brooklyn Duplex w/ Rooftops!,46797109289,unconfirmed,Bryce,Brooklyn,Crown Heights,40.67436,-73.9551,United States,US,True,moderate,Entire home/apt,2009,$628 ,$126 ,4.0,6,4/7/2019,0.61,3,1,4,Please keep a tidy ship and be respectful of our neighbors. No smoking No additional guests Quiet hours between 10 pm - 10 am,
20414681,Aqua Room East Williamsburg (15 min to Manhattan),9217171183,verified,Holden,Brooklyn,Bushwick,40.707770000000004,-73.92115,United States,US,False,flexible,Private room,2005,$331 ,$66 ,1.0,33,6/19/2019,3.14,4,3,28,,
20415233,Peaceful garden + private studio in the UES,71984703240,unconfirmed,Elena,Manhattan,Upper East Side,40.780570000000004,-73.95186,United States,US,False,strict,Entire home/apt,2006,$395 ,$79 ,4.0,3,4/16/2019,0.31,5,1,100,,
20415786,Cozy Antique Haven in Brooklyn,74594332033,unconfirmed,Linda,Brooklyn,Crown Heights,40.66663,-73.93455,United States,US,False,strict,Private room,2020,$609 ,$122 ,3.0,2,10/13/2018,0.21,5,1,50,"- I like to keep a quiet house. Please keep all noise low, especially in the morning and late at night. - Please take your shoes off before entering the apartment. - Always bolt the apartment door when entering or exiting. - If I am away when you check out, please put the keys in the lockbox and remember to set the code to 0000. - I don't charge for cleaning or extra people. Kindly return the favor by keeping the place clean. - No smoking indoors. - You may make use of food and beverages only if they are explicitly shared. If you have any questions, please ask.",
20416338,"Private, big, clean cozy room, in TIMES SQUARE",24905435784,verified,Naor,Manhattan,Midtown,40.7571,-73.98014,United States,US,True,strict,Private room,2021,$131 ,$26 ,3.0,28,6/15/2019,2.71,4,1,0,Absolutely no additional guests other than those confirmed in the reservation.  Please be mindful of cleanliness in living spaces - I live here and like to keep things tidy. :) No smoking in the building. No drugs.,
20416890,Five stars room in very comfy aptm. chek this out,64212446999,unconfirmed,Luis,Queens,Elmhurst,40.73366,-73.87651,United States,US,True,strict,Private room,2020,$283 ,$57 ,2.0,10,6/11/2019,0.98,4,6,354,"No drinking, no smoking, no parties, no pets, no drugs, no girlfriends or boyfriends moving in. Looking for a quiet, studious, clean person who is looking for a comfortable and affordable place to stay during the school year, work  or vacation stay.   No children please.",
20417443,Private Room in a Recently Remodeled Apt Bushwick,93244926740,unconfirmed,Ivan,Brooklyn,Bushwick,40.70325,-73.91349,United States,US,False,moderate,Private room,2018,"$1,083 ",$217 ,1.0,8,4/21/2019,0.81,5,1,0,"Please, no smoking inside the house or on the property. Cleanliness is a must, as we would be sharing a bathroom & kitchen. It is expected that you would clean the tub after each use; be professional & respectful at all times. No guests are allowed to stay overnight if not checked-in prior to your arrival and have valid identification upon arrival . We will all clean up the kitchen as we use it (dishwasher is available). Please have identification to verify your identity. No pets.",
20417995,Sofa bed space for rent nightly,48541919482,verified,Moza,Queens,Elmhurst,40.73853,-73.88646999999999,United States,US,True,moderate,Shared room,2006,$340 ,$68 ,1.0,0,,,5,1,179,"No Smoking. NO pets. Please take off shoes when entering the apartment. NO PARTIES or HOSTING EVENTS, if a guests hosts an event or party, guests may be asked to leave.",
20418547,Beautiful Historic Brooklyn!,4924764254,unconfirmed,Kc,Brooklyn,Bedford-Stuyvesant,40.69652,-73.94821,United States,US,False,strict,Private room,2006,"$1,185 ",$237 ,2.0,46,6/23/2019,4.68,4,4,36,"All I ask is that you are respectful of my home and things, as well as my neighbors, who are excellent!",
20419099,Hidden gem that's  only 15 minutes from Manhattan.,76906839033,verified,Didier,Queens,Woodside,40.75537,-73.90741,United States,US,True,flexible,Private room,2004,$373 ,$75 ,2.0,0,,,3,1,126,,
20419652,"Manhattan Charm, Brooklyn Price!!!",37014923620,verified,Kc,Brooklyn,Bedford-Stuyvesant,40.69676,-73.94794,United States,US,True,strict,Private room,2017,"$1,133 ",$227 ,2.0,41,6/23/2019,4.07,2,4,39,"All guests are expected to be respectful and mindful of shared spaces, including bathroom, kitchen, and TV room. This includes cleaning up after you and your group in all shared areas. Absolutely no smoking. Guests arriving or returning after 10:00pm must maintain a courteous volume in consideration of other guests. Pets are welcome! If you have a pet and use the backyard, please clean up after your pet.",
20420204,Comfort Away from Home,18594806568,unconfirmed,Patrick,Brooklyn,East Flatbush,40.6491,-73.92532,United States,US,False,flexible,Entire home/apt,2012,$112 ,$22 ,3.0,12,6/30/2019,1.21,2,1,167,"No drinking, no smoking, no parties, no pets, no drugs, no girlfriends or boyfriends moving in. Looking for a quiet, studious, clean person who is looking for a comfortable and affordable place to stay during the school year.  House is open to mix sex. No children please.",
20420756,Brazilian hospitality in Long Island City,23492220819,unconfirmed,Dalva,Queens,Long Island City,40.75428,-73.93323000000001,United States,US,False,flexible,Private room,2018,$890 ,$178 ,4.0,23,6/27/2019,2.21,4,1,8,#NAME?,
20421309,Beautiful Sun Drenched Williamsburg Apartment,71891028518,unconfirmed,Shachi,Brooklyn,Williamsburg,40.71615,-73.94171,United States,US,False,flexible,Entire home/apt,2019,$823 ,$165 ,2.0,3,5/27/2019,0.48,5,2,330,,
20421861,Comfortable room in the heart of Williamsburg!!,35760411845,verified,Greetings From Saul And Diana,Brooklyn,Williamsburg,40.7191,-73.95988,United States,US,False,flexible,Private room,2022,"$1,052 ",$210 ,1.0,13,7/1/2019,1.32,5,1,65,"No smoking or drinking in the apt. Lock out will be $50. late check in after 9 pm and before 9 a.m. is $50. Respect yourself, respect other, clean up after yourself. Thank you ",
20422413,Private Studio with Backyard in Brooklyn,10652614848,verified,Jasmine,Brooklyn,Bedford-Stuyvesant,40.68231,-73.95201999999999,United States,US,True,strict,Entire home/apt,2022,"$1,164 ",$233 ,2.0,17,6/30/2019,2.17,4,1,77,"Respect yourself, respect others, clean up after yourself. No smoking/drinking in apt. Late in check in after 9 P.M. or before 9A.m. is $50, lock out is $50. Thank you ",
20422966,Affordable quite private room in Fresh Meadows,25664675356,unconfirmed,Jackie,Queens,Flushing,40.738209999999995,-73.81006,United States,US,True,strict,Private room,2003,$944 ,$189 ,1.0,7,6/9/2019,0.73,4,5,90,"This is a non-smoking residence.  There is light housekeeping (biweekly changing of linens, removal of kitchen trash) but guests are expected to clean up after themselves and keep the area tidy, including removing hair from bathtub and sink and washing dishes right away.  Remove shoes in the apartment. Slippers are OK. Turn off lights when exiting a room or hallway. Guests are not permitted without prior authorization. Overnight guests are not allowed.  Be courteous to others in the household.  Additional rules will be in the house manual, available upon arrival. ",
20423518,Brooklyn Getaway,61566907928,unconfirmed,Keagon,Brooklyn,Windsor Terrace,40.660470000000004,-73.98244,United States,US,True,flexible,Entire home/apt,2007,$921 ,$184 ,2.0,12,6/30/2019,1.16,2,1,19,"(1) Please leave your shoes in the foyer (2) No smoking (3) No drugs (4) In consideration of the neighbors in the building, no loud music or parties (5) Only guests registered as part of the Airbnb booking may enter the apartment, unless prior arrangements are made with me before you make your booking (6) Guests are responsible for cleaning up after themselves in the kitchen",
20424070,Sunny 3rd floor huge Master Bedroom,76699154987,unconfirmed,Joanne,Brooklyn,Bedford-Stuyvesant,40.68392,-73.95265,United States,US,True,flexible,Private room,2010,$115 ,$23 ,30.0,1,5/25/2019,0.65,2,1,282,Make yourself at home. We are 420 friendly,
20424622,huge 2 bedroom / 2 bathroom GREENPOINT  duplex,60307815738,unconfirmed,Inna,Brooklyn,Greenpoint,40.72927,-73.9477,United States,US,True,moderate,Entire home/apt,2003,$599 ,$120 ,2.0,14,7/1/2019,6.18,3,1,45,"- - NO PETS!  NO SMOKING ON PREMISES!  NO PARTY! No ""DRUGS""! - Keep the Place Clean at All Times! - Do Not Ask the ""Neighbors"" for anything.  Ask Me!-  - No Neighbors Interaction! - No ""Drugs"" Please!!! - No Noise! A printed house rule will be provided. Please be respectful to others when all rooms are booked.  10 AM Check-out and Check-in is between 12PM (noon) - 3 PM.   Late check in after 8 pm is $50, lock out is $50. Respect yourself, Respect others, clean up after yourself.  No Smoking/drinking in apt.  Thank You! Location Rules: The ""Exact Address Location Is Not Stockton St.  It Is 2 Streets Away.  It Is Not Disclosed For Security Reasons"" And Is Given Out 24 Hours Prior to Check-in.  If This Is a Problem for You, Please STOP Here And Contact Other Hosts for Your Stay.   This Is a Part Of My House Rules.",
20425175,Cozy apartment in midtown east,29367141869,verified,Tyler,Manhattan,Midtown,40.75142,-73.97049,United States,US,True,flexible,Entire home/apt,2015,$909 ,$182 ,2.0,7,3/4/2019,0.68,3,1,0,"All guests are expected to be respectful and mindful of shared spaces, including bathroom, kitchen, and TV room. This includes cleaning up after you and your group in all shared areas. Guests arriving or returning after 10:00pm must maintain a courteous volume in consideration of other guests. If you have a pet and use the backyard, please clean up after your pet.",
20425727,Cozy private room in 2br apt Brooklyn,8291943985,verified,Zsanett,Brooklyn,Borough Park,40.63516,-74.00078,United States,US,True,flexible,Private room,2020,$555 ,$111 ,1.0,55,6/23/2019,5.16,4,2,59,,
20426279,Prewar Gem in Middle of Everything!,54282592368,verified,(Email hidden by Airbnb),Manhattan,Midtown,40.76399,-73.98076999999999,United States,US,True,flexible,Private room,2014,$298 ,$60 ,3.0,3,11/17/2018,0.31,2,2,0,"This is a non-smoking residence.  There is light housekeeping (washing of linens (biweekly), towels, removal of kitchen trash) but guests are expected to clean up after themselves and keep the area tidy, including removing hair from the bathtub and sink and washing dishes right away.  Remove shoes in the apartment. Slippers are OK. Turn off lights when exiting a room or hallway. Guests are not permitted without prior authorization. Overnight guests are not allowed.  Be courteous to others in the household.  Additional rules will be in the house manual, available upon arrival. ",
20426832,5 minutes walking distance to everything you need,24382212652,verified,Jasmine,Queens,Flushing,40.76106,-73.8305,United States,US,True,strict,Private room,2018,"$1,087 ",$217 ,1.0,22,6/22/2019,2.14,3,1,82,"1. This apartment is for residential purpose only. No any commercial or other non-residential activities are allowed.  2. Keep quiet and clean in the apartment.  3. No guest is allowed to stay after 9:00 p.m. and before 8:30 a.m. Anyone who keeps his/her guest overnight without permission from the host will lose the reservation and should move out immediately.  4. No party in the apartment.  5. No smoking inside of the house.  6. No pets, please. 7. You need to share housing duty if staying over 5 days.",
20427384,Cozy 1 BR APT->CHELSEA!!!,69991771426,verified,Enrica,Manhattan,Chelsea,40.741859999999996,-74.00372,United States,US,True,flexible,Entire home/apt,2018,$198 ,$40 ,4.0,3,4/13/2019,0.31,3,1,0,,
20427936,2BD Mid-Century Union Sq Brownstone/ Gramercy Park,97588513143,unconfirmed,Colette,Manhattan,Gramercy,40.739470000000004,-73.9847,United States,US,False,flexible,Entire home/apt,2014,$407 ,$81 ,4.0,7,5/27/2019,0.68,3,1,64,"We do not tolerate ""partying"" in the house.  We want families, couples, and generally guests that are low maintenance and low-key.   Also, please ""pick up"" after yourself a bit before you leave...make yo momma proud :)",
20428489,Stuytown apartment,6872639312,unconfirmed,Brittany,Manhattan,Stuyvesant Town,40.72957,-73.97715,United States,US,True,moderate,Entire home/apt,2015,$815 ,$163 ,2.0,5,11/5/2018,0.48,2,1,0,,
20429041,Uptown Manhattan: Private Room w Private Entrance!,2104001584,verified,Jasmine,Manhattan,Washington Heights,40.8466,-73.93432,United States,US,False,moderate,Private room,2008,$775 ,$155 ,3.0,28,6/9/2019,2.64,2,2,0,,
20429593,Chic entire downstairs in 3br duplex,27517147544,verified,Sara,Queens,Ridgewood,40.70576,-73.91129000000001,United States,US,False,strict,Private room,2011,$488 ,$98 ,3.0,3,5/27/2019,0.32,4,2,0,,
20430145,New york Multi-unit building,70253466414,unconfirmed,Kinga,Manhattan,Upper West Side,40.79372,-73.97431,United States,US,False,strict,Entire home/apt,2013,$946 ,$189 ,5.0,3,4/24/2019,0.29,2,1,89,"NO PETS!  NO SMOKING ON PREMISES!  NO PARTY! A printed house rule will be provided. Please be respectful to others when all rooms are booked. 10 AM Check-out and Check-in is between 12 PM (noon) - 3 PM.   Late check in after 8 pm is $50, lock out is $50. Respect yourself, Respect others, clean up after yourself.  No Smoking/drinking in apt.  Thank You! Location Rules: The ""Exact Address Location Is Not Disclosed For Security Reasons"" And Is Given Out 24 Hours Prior to Check-in.  If This Is a Problem for You, Please STOP Here And Contact Other Hosts for Your Stay.   This Is a Part Of My House Rules.",
20430698,Plant-filled colorful Bushwick bedroom!,88846282996,verified,Olive,Brooklyn,Bushwick,40.69247,-73.91196,United States,US,True,flexible,Private room,2008,$638 ,$128 ,5.0,1,10/9/2018,0.11,2,1,0,"Respect yourself, respect others, clean up after yourself. No smoking or drinking in the apt. Late check in after 9 p.m. and before 9 A.m. is $50, lock out is $50. Thank you ",
20431250,Simple and cozy studio apartment in Williamsburg,50456727258,unconfirmed,Lana,Brooklyn,Williamsburg,40.712070000000004,-73.95784,United States,US,True,moderate,Entire home/apt,2021,"$1,065 ",$213 ,3.0,18,6/24/2019,1.87,3,1,61,,
20431802,Organic Oasis Duplex (EMF-free),34417031276,unconfirmed,Karliin,Manhattan,Hell's Kitchen,40.76292,-73.99219000000001,United States,US,False,flexible,Entire home/apt,2010,"$1,186 ",$237 ,60.0,0,,,4,1,177,"Respect yourself respect others please clean up after yourself. NO smoking, drinking or partying . Lock out is $50 , late check in after 9 Pm and early check in before 9 A.M. is $50, pay upon arrival.",
20432355,Quiet and clean room in the heart of Brooklyn,94231823934,verified,Siham,Brooklyn,Bedford-Stuyvesant,40.68613,-73.92349,United States,US,False,strict,Private room,2009,$395 ,$79 ,1.0,42,5/19/2019,3.99,5,2,67,"Guests who use kitchen must wash their dishes (or put them in dishwasher) and wipe stove and counters after eating, in courtesy to other guests.   No smoking inside or behind the house; smoking is permitted only in smoking area in front of house.  To maintain quiet on floors with bedrooms, please use headphones to listen to music/videos or when making (SENSITIVE CONTENTS HIDDEN) calls in bedrooms, and keep hallways conversations quiet and short. ",
20432907,Modern Remodeled 1 bedroom Apartment,88839780185,verified,Keno,Brooklyn,Brownsville,40.66176,-73.92,United States,US,False,flexible,Entire home/apt,2010,$707 ,$141 ,3.0,0,,,5,1,54,,
20433459,Heart of Harlem,74774413676,unconfirmed,Anthony J,Manhattan,Harlem,40.80672,-73.94993000000001,United States,US,False,flexible,Private room,2012,$105 ,$21 ,1.0,47,6/28/2019,4.45,3,1,10,"No pets, No Smoking, Smoking allowed on deck",
20434012,"Lovely, Clean & Spacious. Your Own Woodside Room!",10672018869,unconfirmed,Kazuya,Queens,Woodside,40.74272,-73.91075,United States,US,True,flexible,Private room,2021,$839 ,$168 ,30.0,0,,,4,103,0,No smoking at all. Keep the room and apartment clean. Keep quiet and no party after 9:30 p.m.  This room is available to people who plan to stay 3 weeks at least. It is $45 per night if you stay over one month. It is $50 if you stay less than 3 weeks.  You need to share house cleaning duty with other guests if you stay 3 weeks.,
20434564,Stylish and cozy flat in West Village with 3 beds,70563140624,unconfirmed,Christina,Manhattan,West Village,40.7334,-74.00323,United States,US,False,flexible,Entire home/apt,2013,$667 ,$133 ,3.0,21,6/29/2019,2.09,3,3,162,,
20435116,"Cozy&Clean Suite-private entry, bedroom & bathroom",571315945,unconfirmed,Tajudeen,Staten Island,Mariners Harbor,40.63068,-74.15521,United States,US,True,moderate,Private room,2011,"$1,091 ",$218 ,2.0,86,6/25/2019,10.12,3,1,56,This apartment is for residential purpose. No any commercial or other non-residential activities are allowed.  Keep quiet and clean in the apartment.  No guest is allowed to stay after 9:00 p.m. and before 8:30 a.m. Anyone who keeps his/her guest overnight without permission from the host will lose the reservation and should move out immediately.  No party in the apartment. You need to share housing duty if staying over 5 days.,
20435668,"Pvt Single Bed 10 min from JFK, Close to Manhattan",37204007158,verified,Melissa,Queens,Queens Village,40.71711,-73.75608000000001,United States,US,True,moderate,Private room,2014,$399 ,$80 ,2.0,7,5/22/2019,0.76,2,2,155,"Please treat our house as you would treat your own (assuming that it is good).  Please clean up after yourself.  Kindly remove your shoes by the door, slippers are welcome (if they have not been treading the outdoors).  If you use the kitchen, please wipe down the stove and counter-tops and clean the dishes in the sink to prevent critters from visiting you at night.  Laundry is available free of charge just next to the kitchen, we have a washer and dryer.  Clean bedding will be provided for you when you check in, and cleaned after you check out.   We will not be responsible for personal accidents or sickness, we would ask you to clean up after yourself.  If you plan a lengthy stay, we can wash your sheets once a week.  If you'd like additional washing, please wash your sheets along with your other laundry.  A key will be provided to you for your bedroom should you want to lock anything up.",
20436221,"Spacious, Convenient Williamsburg Apartment",55595162031,unconfirmed,Jesus,Brooklyn,Williamsburg,40.713879999999996,-73.94999,United States,US,False,flexible,Private room,2010,$85 ,$17 ,5.0,3,9/30/2018,0.29,5,1,0,"NO PETS!  NO SMOKING ON PREMISES! NO PARTY! A printed house rule will be provided. Please be respectful to others when all rooms are booked. 10 AM Check-out and Check-in is between 12 PM (noon) - 3 PM.   Late check in after 8 pm is $50, lock out is $50. Respect yourself, Respect others, clean up after yourself.  No Smoking/drinking in apt.  Thank You! Location Rules: The ""Exact Address Location Is Not Disclosed For Security Reasons"" And Is Given Out 24 Hours Prior to Check-in.  If This Is a Problem for You, Please STOP Here And Contact Other Hosts for Your Stay.   This Is a Part Of My House Rules.",
20436773,Brand New Cozy Apt Upper West Manhattan,63220885529,verified,Ada,Manhattan,Upper West Side,40.800979999999996,-73.96025,United States,US,False,strict,Private room,2022,$966 ,$193 ,1.0,45,6/24/2019,4.44,2,1,0,"No smoking in house. No Pets No parties or hosting events. No recreational drugs. Please clean up after yourself. Please take off shoes and leave them in the shoe cabinet before entering the apartment. Guests may be asked to leave Immediately if partying, hosting events, or bringing pets.",
20437325,Gorgeous Sun-filled Rooftop Apt in Prime Harlem,64928993663,verified,Lucie,Manhattan,Harlem,40.8101,-73.94453,United States,US,True,moderate,Entire home/apt,2013,$120 ,$24 ,4.0,0,,,2,1,364,"* If you are booking a room, you must be the person staying in room. DO NOT book a room for somebody else!* *ALSO, please only book if you have a face photo in your profile!* This is a residential building, with professionals living throughout. Being respectful is a must! Loud music, smoking and pets are not allowed in the building. Also, only guests listed on the booking are allowed in the house. Strangers, friends or family members are not allowed inside the house. For your safety, and mine. :) Lost keys will result in a $50 fee to replace the locks in the house.",
20437878,Bright and cheery room in Harlem,82602134933,verified,Rachel Leigh,Manhattan,Harlem,40.82996,-73.94714,United States,US,True,moderate,Private room,2018,$587 ,$117 ,1.0,20,6/1/2019,2.05,4,2,6,,
20438430,Penthouse 1 bedroom in LIC,74366423093,unconfirmed,Cherie,Queens,Long Island City,40.75094,-73.93806,United States,US,False,moderate,Entire home/apt,2009,"$1,196 ",$239 ,3.0,4,11/25/2018,0.38,5,1,0,,
20438982,Bronx Home,361736533,unconfirmed,Lucie,Bronx,Wakefield,40.88563,-73.85975,United States,US,False,flexible,Private room,2006,$168 ,$34 ,2.0,40,6/30/2019,3.77,3,1,0,No cigarette smoking inside the house. Happy to have you on the porch or yard.  420 friendly.,
20439535,Spacious Apartment in Ditmas Park,71257379943,unconfirmed,Amal,Brooklyn,Flatbush,40.64063,-73.95666999999999,United States,US,True,flexible,Entire home/apt,2009,$553 ,$111 ,2.0,6,11/25/2018,0.58,4,1,0,"1. Please feel welcome to use our kitchen, bathroom or any other common area but we don allow guest to go in our bedroom. 2. Keep the apartment clean/clean up after yourself 3. We have a dog and a cat, so please have this in mind before staying with us. 4. Respect our pets.",
20440087,Brooklyn Garden Apartment,54647824387,unconfirmed,David,Brooklyn,Park Slope,40.67009,-73.98491999999999,United States,US,False,moderate,Entire home/apt,2019,$417 ,$83 ,13.0,23,6/11/2019,2.35,5,1,0,"- NO PETS!  NO SMOKING ON PREMISES!  NO PARTY! No ""DRUGS""! - Keep the Place Clean at All Times! - Do Not Ask the ""Neighbors"" for anything.  Ask Me!-  - No Neighbors Interaction! - No ""Drugs"" Please!!! - No Noise! A printed house rule will be provided. Please be respectful to others when all rooms are booked.  10 AM Check-out and Check-in is between 12 PM (noon) - 3 PM.   Late check in after 8 pm is $50, lock out is $50. Respect yourself, Respect others, clean up after yourself.  No Smoking/drinking in apt.  Thank You! Location Rules: The ""Exact Address Location Is Not Stockton St.  It Is 2 Streets Away.  It Is Not Disclosed For Security Reasons"" And Is Given Out 24 Hours Prior to Check-in.  If This Is a Problem for You, Please STOP Here And Contact Other Hosts for Your Stay.   This Is a Part Of My House Rules.",
20440639,A Nice Room to Stay in the Heart of Manhattan,94604905858,verified,Kazuya,Manhattan,Harlem,40.81094,-73.94273000000001,United States,US,False,moderate,Private room,2004,$882 ,$176 ,30.0,2,6/15/2019,0.22,4,103,215,"Respect yourself, respect other, clean up after yourself. No smoking/drinking. Late check in after 9 pm or before 9 am is $50. Lock out is $50 Thank you",
20441191,NYC HUB XL @ 900ft from subway; 30 min to Midtown,53530972409,unconfirmed,Jeff,Queens,Jamaica,40.71075,-73.7823,United States,US,False,moderate,Entire home/apt,2011,$831 ,$166 ,2.0,17,7/5/2019,2.3,2,7,324,"We expect guests to make themselves at home in the condo but treat it with respect and care.  This is not a party pad but we want you to enjoy yourself while here.  Absolutely no smoking/candles/incense in apartment.  There is a back deck that you have exclusive use of during your stay.  Pets must be crated when left in apt on own.  For relief Please walk pet in the neighborhood, not in the yard. Maximum 4 guests.  We live next door.",
20441744,NYC Private home-1 bedroom/Private Entrance,18018219128,verified,Yahaira,Bronx,Williamsbridge,40.87135,-73.85736,United States,US,True,flexible,Entire home/apt,2007,$896 ,$179 ,2.0,5,12/10/2018,0.48,2,5,0,The only rule is please clean up after yourself if you eat in the living room or the bedroom.,
20442296,Peaceful Studio In South Williamsburg,66720002852,verified,Mat,Brooklyn,Williamsburg,40.71286,-73.9599,United States,US,False,strict,Entire home/apt,2011,$151 ,$30 ,2.0,4,6/22/2019,1.04,2,1,213,"We have ample off-street parking but if you have a car let us know and we will be in touch with you about parking. Please be careful not to drive or walk in the driveway for 233 Savin Hill Avenue. Check in time is 2 PM, check out time is 10 AM.  Guests who arrive early can drop off their luggage after 10 AM. We are unable to accommodate arrivals earlier than 10 AM.  Guests who need to stay after the check out time are welcome to use the common area on the first floor for luggage storage. NO SMOKING in the house or anywhere on the property. No Pets.",
20442848,Large cozy bedroom close to Times Square 43D4,40508553500,unconfirmed,John,Manhattan,Hell's Kitchen,40.75537,-73.995,United States,US,True,strict,Private room,2016,"$1,128 ",$226 ,30.0,2,10/27/2018,0.23,4,1,352,#NAME?,
20443401,Cozy Greenpoint Railroad Apartment,88679327687,unconfirmed,Flannery,Brooklyn,Greenpoint,40.73473,-73.95776,United States,US,True,flexible,Entire home/apt,2007,$240 ,$48 ,2.0,23,7/1/2019,2.28,4,1,214,Please make sure the front house doors are locked when leaving. Please return keys to lock box upon check-out. Please limit use of the 2nd floor resident's bathroom to nighttime breaks only. The back areas of house are being renovated and are off-limits.,
20443953,Artsy Harlem room with quick access to everything,19931805544,verified,Rahat,Manhattan,Harlem,40.81758,-73.94188,United States,US,False,flexible,Private room,2013,$818 ,$164 ,2.0,22,6/29/2019,2.06,3,1,275,"We ask that you treat everything here with care, as it is our home. NO SMOKING IS ALLOWED IN THE HOUSE OR ANYWHERE ON OUR PROPERTY.  If anything is damaged please let us know immediately.",
20444505,Designer Beach House Studio in Williamsburg,17996569217,unconfirmed,Geoffrey,Brooklyn,Williamsburg,40.71286,-73.95898000000001,United States,US,False,moderate,Entire home/apt,2013,$315 ,$63 ,2.0,17,5/28/2019,1.68,4,1,0,"This property is a quiet, family-friendly living space. Pricing includes required City of Boston excise tax of 14.45%",
20445058,Private Room w/ Private Shower,88571373184,unconfirmed,Esther,Brooklyn,Sunset Park,40.64614,-74.0064,United States,US,False,moderate,Private room,2021,$568 ,$114 ,2.0,12,6/30/2019,1.16,3,1,41,"We have ample off-street parking but if you have a car let us know and we will be in touch with you about parking. Please be careful not to drive or walk in the driveway for 233 Savin Hill Avenue. Check in time is 2 PM, check out time is 10 AM.  Guests who arrive early can drop off their luggage after 10 AM. We are unable to accommodate arrivals earlier than 10 AM.  Guests who need to stay after the check out time are welcome to use the common area on the first floor for luggage storage. NO SMOKING in the house or anywhere on the property. No Pets.",
20445610,The Ultimate W-Burg Experience-Historic Building!,4840894346,unconfirmed,Jan,Brooklyn,Williamsburg,40.711529999999996,-73.94556999999999,United States,US,True,moderate,Entire home/apt,2008,$557 ,$111 ,2.0,5,6/23/2019,0.54,5,1,179,"Check-in is 2:00 pm, and checkout 11:00 am. You may bring bags in before check in time or leave it to pick up later. Let me know to arrange it. After reservation please send me your arrival and departure time for logistics NO shoes inside Keep the volume low before 8am and after 11pm No laundry after  before 9am and after 8pm No dishes unwashed  Turn off the lights and AC when you leave the house Trash out from the house before you leave ( BLUE BOX recycling, gray one for food) Please respect this rules and you get the full refund of security deposit",
20446162,Private room in Brooklyn(Borough park) safe area,67528167161,verified,Zsanett,Brooklyn,Borough Park,40.63592,-74.00064,United States,US,False,moderate,Private room,2005,$348 ,$70 ,1.0,46,2/1/2019,4.31,5,2,36,,
20446714,Home Away From Home,26726048933,unconfirmed,Kristina,Brooklyn,Greenpoint,40.730290000000004,-73.9515,United States,US,True,flexible,Private room,2003,"$1,096 ",$219 ,5.0,1,11/12/2018,0.13,5,2,95,,
20447267,Gracious Spacious Bushwick Loft,87967043833,unconfirmed,Diana,Brooklyn,Bushwick,40.69852,-73.92428000000001,United States,US,False,flexible,Private room,2014,$119 ,$24 ,2.0,4,5/31/2019,1.43,2,2,64,"The golden rule is my mantra- treat others (and their homes) as you'd like to be treated. This is a three unit building, please be respectful of neighbors and observe quiet hours between midnight and 6 a.m.  No smoking or pets permitted.",
20447819,Beautiful 3 bed apt close to Central Park,69746578807,verified,Jimmy,Manhattan,Upper East Side,40.77041,-73.96109,United States,US,False,strict,Entire home/apt,2019,$881 ,$176 ,2.0,11,6/23/2019,1.07,4,1,8,,
20448371,*Rare Find* AMAZING Two Bed Property,93743327406,unconfirmed,Jazzy,Manhattan,Hell's Kitchen,40.76383,-73.98921999999999,United States,US,False,flexible,Entire home/apt,2008,$992 ,$198 ,2.0,28,6/2/2019,2.83,3,1,147,I do not allow guests with pets. Smoking is allowed on the patio or outdoors. Please be kind to the environment and recycle. Also turn  all unnecessary lights off when not in use. All beds need to be stripped upon departure. Sanitary napkins need to be disposed of properly (taken outside to the trash) not in the bathroom garbage. The suite has a separate sitting area with leather couch not to be used as second bedroom.  Guest must have a mobile device which makes and receives calls and or text messages.,
20448924,One private Room Harrigan Luxury Townhouse Suite,44712012801,unconfirmed,Marie,Brooklyn,East New York,40.671859999999995,-73.88815,United States,US,False,strict,Private room,2015,$115 ,$23 ,2.0,1,9/4/2018,0.1,2,2,362,"Unlike most other Airbnb listings, what we do here is long-term rentals by the year, or by the semester and we can welcome compatible short-term guests. We try to keep the atmosphere conducive to studying and resting and a couple of house-rules are in place to this end.  1. No smoking on the premises.  2. No loud music or TV etc.  3. Only for one person (no couples, no visitors). We seldom have visitors, let alone overnight guests. We know this will be a major turn-off to many people, but we believe we can find a like-minded roommate who can have fun outside the house.  4. If you re not sure about your check-out date, you can reserve the minimum days and extend your stay at a discounted rate.  5. Check-in time is flexible, but it has to be coordinated at least 24 hours ahead. On arrival, a short registration process with a picture ID is needed in exchange for keys and wifi access.  6. Inside the apartment, we take off our outside shoes. So if you bring your own flip-flops, slippers or ",
20449476,Cozy and Affordable Room in NYC,34447837944,unconfirmed,Carolina,Manhattan,East Harlem,40.79329,-73.94725,United States,US,True,moderate,Private room,2017,$306 ,$61 ,5.0,5,11/24/2018,0.47,2,1,0,No smoking allowed inside or on the property.  Pets not allowed without prior discussion/approval.  ,
20450028,Charming and cozy bedroom - close to Manhattan,48533186649,unconfirmed,Maxime,Queens,Long Island City,40.7583,-73.93294,United States,US,True,moderate,Private room,2007,"$1,076 ",$215 ,4.0,3,9/24/2018,0.29,5,1,0,,
20450581,NEW Bohemian Brooklyn 1 Bed,89795024964,unconfirmed,Rebecca,Brooklyn,Flatbush,40.63847,-73.95693,United States,US,True,moderate,Entire home/apt,2004,$534 ,$107 ,2.0,0,,,5,1,30,,
20451133,Beautiful Studio in Brooklyn,18226701676,unconfirmed,Eli,Brooklyn,Bergen Beach,40.62299,-73.90501,United States,US,True,flexible,Entire home/apt,2005,$201 ,$40 ,2.0,25,6/30/2019,2.68,2,1,148,,
20451685,Cute Williamsburg studio,37016449028,verified,Caleb,Brooklyn,Williamsburg,40.71645,-73.95721,United States,US,True,moderate,Entire home/apt,2009,$518 ,$104 ,3.0,1,1/1/2019,0.16,3,1,2,"This is a non-smoking residence.  There is light housekeeping (biweekly changing of linens, removal of kitchen trash) but guests are expected to clean up after themselves and keep the area tidy, including removing hair from bathtub and sink and washing dishes right away.  Remove shoes in the apartment. Slippers are OK. Turn off lights when exiting a room or hallway. Guests are not permitted without prior authorization. Overnight guests are not allowed.  Be courteous to others in the household.  Additional rules will be in the house manual, available upon arrival. ",
20452237,Room with Private Entrance in Williamsburg,22681498898,verified,Yasser,Brooklyn,Williamsburg,40.71733,-73.95810999999999,United States,US,True,strict,Private room,2007,$957 ,$191 ,1.0,62,7/4/2019,5.83,3,1,65,,
20452790,Renovated Bathroom and floor with PRIVATE Backyard,763422957,verified,Momoyo,Queens,Woodside,40.74131,-73.89774,United States,US,True,moderate,Private room,2016,$337 ,$67 ,28.0,2,5/5/2019,0.24,5,7,0,"We have ample off-street parking but if you have a car let us know and we will be in touch with you about parking. Please be careful not to drive or walk in the driveway for 233 Savin Hill Avenue. Check in time is 2 PM, check out time is 10 AM.  Guests who arrive early can drop off their luggage after 10 AM. We are unable to accommodate arrivals earlier than 10 AM.  Guests who need to stay after the check out time are welcome to use the common area on the first floor for luggage storage. NO SMOKING in the house or anywhere on the property. No Pets.",
20453342,5min to metro - Cozy and Bright - Shared Kitchen,17814311406,unconfirmed,Bedly Bushwick,Queens,Ridgewood,40.70117,-73.91083,United States,US,False,flexible,Private room,2012,"$1,125 ",$225 ,30.0,3,6/19/2019,0.36,5,9,7,"No smoking or drinking in the apt. Lock out will be $50. late check in after 9 pm and before 9 a.m. is $50. Respect yourself, respect other, clean up after yourself. Thank you",
20453894,Artist Loft Room,47468955376,unconfirmed,Florence,Brooklyn,Williamsburg,40.71229,-73.95591999999999,United States,US,False,moderate,Private room,2004,$843 ,$169 ,25.0,3,1/3/2019,0.33,3,1,0,,
20454447,Shared Apt w/ Young professionals - Fast WiFi,31891673890,unconfirmed,Bedly Bushwick,Brooklyn,Bushwick,40.69985,-73.91195,United States,US,False,flexible,Private room,2009,$981 ,$196 ,30.0,0,,,4,9,43,"•No Smoking in any part of the property •Please do not leave any trash outside, please leave trash in bag inside the unit •Do not flush ANYTHING down toilet except toilet paper •Please maintain a reasonable volume •Please respect the property •No large parties •No more than 4 guests •Please ask before accessing bar •Do not purchase anything on cable •Please do not leave exterior doors open so that we can keep out insects and pests",
20454999,Stunning 5 BR Townhouse with Chef's Kitchen #10288,13881929485,verified,Natalie,Brooklyn,Crown Heights,40.67243,-73.94977,United States,US,False,moderate,Entire home/apt,2008,$664 ,$133 ,3.0,24,7/1/2019,2.27,4,1,139,No smoking in the house or on the decks. Please do not leave cigarette butts on the property. Two-night minimum stay.,
20455551,Cozy super private room in Brooklyn!,36903575518,verified,Marina,Brooklyn,Crown Heights,40.67508,-73.94242,United States,US,True,moderate,Private room,2006,"$1,091 ",$218 ,5.0,2,12/2/2018,0.2,3,1,0,,
20456104,Cozy room 20-101,9996246213,verified,Shimin,Brooklyn,Sunset Park,40.640209999999996,-74.00867,United States,US,False,flexible,Private room,2021,$854 ,$171 ,1.0,18,4/27/2019,1.73,3,5,0,"Prices $150.00 per night for 1 or 2 people. Late night noise is not allowed. Over night guests are not allowed. It is allowed if you may like to cook dinner and eat at home, with us or on your own. We go to bed between 11pm and 1 am. We rise at 10am.  House is very solid & quiet.",
20456656,Cute & Comfy 1 bedroom apt (Downtown NYC),84054332813,unconfirmed,Elle,Manhattan,Chinatown,40.71409,-73.99575,United States,US,True,flexible,Entire home/apt,2007,$619 ,$124 ,3.0,9,4/19/2019,0.87,5,1,68,"CHECK IN: 2pm CHECK OUT: 10am SMOKING: Please no smoking inside.  Smoking allowed outside, please dispose of cigarettes in appropriate containers provided. NO PARTIES: (please inform hosts of additional guests or visitors during your stay, only the original occupants at the time of booking are allowed to stay in the property overnight and secondly no additional guest will be brought in without prior authorization). Keep the volume low before 8am and after 11pm NO PETS: We love our pets, but ask you leave your loved ones at home. Shoes should be left inside the entrance door. PLEASE tidy the room before you depart.  Return furnishings and others items to be as they were upon your arrival. Thank you!",
20457208,Bushwick Duplex Haven near L train,97479629538,unconfirmed,Xavier,Brooklyn,Bushwick,40.704879999999996,-73.92520999999999,United States,US,True,strict,Private room,2019,$360 ,$72 ,2.0,13,3/23/2019,1.25,2,2,3,We except our guest to be respectful of our home and us. There is no smoking in the home but smoking outside is allowed and needs to be disposed of properly.,
20457760,Beautiful room in East Harlem!,6500691262,unconfirmed,Daniela,Manhattan,East Harlem,40.793,-73.94125,United States,US,True,flexible,Private room,2006,$723 ,$145 ,3.0,5,4/28/2019,0.47,3,1,0,"NO PETS!  NO SMOKING ON PREMISES! NO PARTY! A printed house rule will be provided. Please be respectful to others when all rooms are booked. 10 AM Check-out and Check-in is between 12 PM (noon) - 3 PM.   Late check in after 8 pm is $50, lock out is $50. Respect yourself, Respect others, clean up after yourself.  No Smoking/drinking in apt.  Thank You! Location Rules: The ""Exact Address Location Is Not Disclosed For Security Reasons"" And Is Given Out 24 Hours Prior to Check-in.  If This Is a Problem for You, Please STOP Here And Contact Other Hosts for Your Stay.   This Is a Part Of My House Rules.",
20458313,Big & Sunny room w/toilet in Williamsburg,33448024438,verified,Marcos,Brooklyn,Williamsburg,40.70698,-73.94295,United States,US,False,flexible,Private room,2004,$218 ,$44 ,1.0,3,6/11/2019,0.28,3,2,173,The Perfect home stay for clean and responsible person. Home is keep neat and clean at all times. Guest wipe up after themselves after using the kitchen. There is no smoking in home and no pets allowed in home. No overnight guest to keep the stay peaceful and quiet.,
20458865,Idyllic West Village Bedroom - Private Room,3625155407,verified,Julianne,Manhattan,West Village,40.73086,-74.00498,United States,US,True,moderate,Private room,2004,$804 ,$161 ,5.0,4,6/5/2019,0.41,4,2,117,"I would expect guess to be respectful,  no smoking in the house.  No loud music, and keeping the place clean as well.",
20459417,Private Room in Charming NYC Guest Suite (single),1358102636,unconfirmed,Nina,Staten Island,Clifton,40.617059999999995,-74.08567,United States,US,False,strict,Private room,2014,$346 ,$69 ,2.0,8,4/28/2019,0.77,5,7,37,"Please, no smoking inside the building or on the porches.  Due to sensitivities, we ask that you not use perfume, cologne, or aerosol products in the house. No parties. No illegal drug use.  We are an eco-friendly family and appreciate your help in recycling (bin in the kitchen) and turning off lights, fans, etc. when not in use.  Please lock all doors of the building behind you.",
20459970,Private room in Charming NYC Guest Suite (Double),87233133075,unconfirmed,Nina,Staten Island,Clifton,40.61683,-74.08551999999999,United States,US,False,strict,Private room,2012,$565 ,$113 ,2.0,4,4/13/2019,0.39,5,7,37,Respect our rules.  Please remove  shoes when inside the house.,
20460522,Shared Loft in Charming Guest Suite (Front Left),28258105625,verified,Nina,Staten Island,Clifton,40.61542,-74.08496,United States,US,False,flexible,Shared room,2007,"$1,162 ",$232 ,3.0,0,,,2,7,37,"No smoking or drinking in the apt. Lock out will be $50. late check in after 9 pm and before 9 a.m. is $50. Respect yourself, respect other, clean up after yourself. Thank you",
20461074,Beautiful apartment 3 subway stops from Manhattan!,22773071740,unconfirmed,Nat,Brooklyn,Borough Park,40.6428,-73.99297,United States,US,False,flexible,Private room,2007,$721 ,$144 ,1.0,0,,,2,1,0,No drugs please.,
20461627,"The Elkins House – Truly Rare, Historic 5BR 3 Bath",60325185506,unconfirmed,Amber,Brooklyn,Crown Heights,40.677820000000004,-73.94373,United States,US,True,moderate,Entire home/apt,2015,$353 ,$71 ,4.0,46,6/17/2019,4.55,2,1,194,Keep noise down and have consideration for other guest.  No smoking on premises.,
20462179,High Ceiling + Sunny Brooklyn loft experience  :D!,39134736101,unconfirmed,Hardik,Queens,Ridgewood,40.7018,-73.89643000000001,United States,US,False,strict,Private room,2010,$958 ,$192 ,1.0,16,11/23/2018,1.54,4,1,0,,
20462731,"Private room in TRIBECA Loft, elevator into apt!",49124787563,unconfirmed,Daniel,Manhattan,Tribeca,40.71392,-74.00754,United States,US,True,moderate,Private room,2014,$980 ,$196 ,2.0,3,4/7/2019,0.84,5,1,0,"Guests who use kitchen must wash their dishes (or put them in dishwasher) and wipe stove and counters after eating, in courtesy to other guests.   No smoking inside or behind the house; smoking is permitted only in smoking area in front of house.  To maintain quiet on floors with bedrooms, please use headphones to listen to music/videos or when making (SENSITIVE CONTENTS HIDDEN) calls in bedrooms, and keep hallways conversations quiet and short. ",
20463283,PARK AVE - Easiest Apartment to Get to in NYC,83404612720,verified,Nick,Manhattan,Murray Hill,40.74775,-73.98226,United States,US,True,moderate,Private room,2006,$785 ,$157 ,1.0,13,5/19/2019,1.27,5,1,2,"NO PETS!  NO SMOKING ON PREMISES!  NO PARTY! A printed house rule will be provided. Please be respectful to others when all rooms are booked. 10 AM Check-out and Check-in is between 12 PM (noon) - 3 PM.   Late check in after 8 pm is $50, lock out is $50. Respect yourself, Respect others, clean up after yourself.  No Smoking/drinking in apt.  Thank You! Location Rules: The ""Exact Address Location Is Not Disclosed For Security Reasons"" And Is Given Out 24 Hours Prior to Check-in.  If This Is a Problem for You, Please STOP Here And Contact Other Hosts for Your Stay.   This Is a Part Of My House Rules.",
20463836,Light-filled Brooklyn Brownstone Apartment,77436103896,verified,J.S.,Brooklyn,Bedford-Stuyvesant,40.683679999999995,-73.92028,United States,US,True,strict,Private room,2013,$215 ,$43 ,3.0,7,10/29/2018,0.69,5,1,13,,
20464388,Brooklyn Apartment,20575342876,unconfirmed,Maka,Brooklyn,Bedford-Stuyvesant,40.69037,-73.92694,United States,US,False,moderate,Private room,2007,$81 ,$16 ,9.0,1,4/9/2019,0.33,3,1,83,,
20464940,Ladies bedroom Bed 1,96729538032,unconfirmed,Melissa,Brooklyn,Bedford-Stuyvesant,40.69425,-73.95668,United States,US,False,moderate,Shared room,2022,$226 ,$45 ,1.0,15,6/1/2019,1.45,5,34,365,"* If you are booking a room, you must be the person staying in room. DO NOT book a room for somebody else!* *ALSO, please only book if you have a face photo in your profile!* This is a residential building, with professionals living throughout. Being respectful is a must! No loud music, No smoking and pets are NOT allowed in the building.  Also, only guests listed on the booking are allowed in this house. Strangers, friends and family members are not allowed inside the house. For your safety, and mine. :) Lost keys will result in a $50 fee to replace the locks in the house.",
20465493,TW #7 Private Rm. 2nd Fl. Full Size Bed 1 Guest,17965524198,verified,Sharon & Erika,Bronx,Schuylerville,40.83729,-73.83323,United States,US,False,moderate,Private room,2011,$160 ,$32 ,1.0,2,5/10/2019,0.19,5,5,330,- No shoes on carpets and rugs - Eating and Drinking only in Kitchen - Quiet time from 11pm - 6am - No gatherings or parties,
20466045,Huge private room in a Brooklyn Brownstone,21135278079,unconfirmed,Sheki,Brooklyn,Crown Heights,40.67818,-73.94709,United States,US,True,moderate,Private room,2003,$308 ,$62 ,7.0,1,9/2/2018,0.1,5,3,143,"No smoking (indoors or outside on the property). No pets. No parties. Prefer quiet professional singles or couples in town for work and/or tourism. No children. Please note that this is Alex's home (he lives there), so please be respectful by keeping noise down and cleaning up after yourselves.",
20466597,"Light-drenched room in cozy, art-filled apartment",10867932463,unconfirmed,Michele,Brooklyn,Carroll Gardens,40.677240000000005,-73.99797,United States,US,True,strict,Private room,2003,$871 ,$174 ,1.0,25,6/3/2019,2.36,5,1,65,,
20467150,PERFECT LONG TERM RENTAL~1 BR- EAST 60TH STREET,94363147539,verified,Pranjal,Manhattan,Upper East Side,40.75991,-73.96105,United States,US,False,strict,Entire home/apt,2012,$515 ,$103 ,30.0,0,,,5,65,364,Check in is after 3 pm and check out is at 12 pm.  No parties or events.  No smoking.  No pets.  No unauthorized guests.  My home is not child proof.  Please leave your shoes at the entrance of the apartment.,
20467702,Best Brooklyn location - stylish and comfortable,53156659502,unconfirmed,Lindsay,Brooklyn,Cobble Hill,40.68643,-73.9976,United States,US,False,flexible,Entire home/apt,2015,"$1,181 ",$236 ,4.0,38,7/5/2019,3.75,4,2,33,,
20468254,Amazing Private Room in BK,85704296163,unconfirmed,Ann,Brooklyn,Bedford-Stuyvesant,40.691590000000005,-73.9388,United States,US,False,flexible,Private room,2022,$848 ,$170 ,2.0,30,6/11/2019,2.98,5,3,314,"We ask that no alcohol or pork be brought into the home. Other than that, my home is your home. I simply ask that you please treat the home and its inhabitants with respect.",
20468806,"Spanish Harlem, NYC Apartment with Roofdeck Garden",90043931324,unconfirmed,Douglas,Manhattan,East Harlem,40.7887,-73.9414,United States,US,True,flexible,Private room,2009,"$1,042 ",$208 ,1.0,50,5/18/2019,4.84,4,1,0,,
20469359,Chelsea renovated 2 bedroom Apartment,58477066703,unconfirmed,Marie,Manhattan,Hell's Kitchen,40.762609999999995,-73.99143000000001,United States,US,True,moderate,Entire home/apt,2022,$620 ,$124 ,3.0,1,6/23/2019,1.0,5,1,90,"I would like you to respect my house as though it was yours. You break it you buy it. No smoking cigarettes or drugs within the units. Smoking is allowed on the outside porch, however do not throw cigarette butts on the floor/grass please use the ash tray. If something goes wrong or unpleasant with your stay,  please call me immediately so we can rectify the situation.",
20469911,PRIVATE 1 BED IN APT OFF  PROSPECT PARK |  Q & B,13307877966,unconfirmed,Jennifer,Brooklyn,Flatbush,40.6531,-73.96184000000001,United States,US,True,strict,Private room,2003,"$1,158 ",$232 ,2.0,5,7/1/2019,0.53,5,2,86,"No drunken, naked brawling.  Other than that, no rules. And no smoking. Or illegal drugs. Or pets. OK, so there were more rules. I only accept guests who have been verified through Airbnb.  And I'm a little suspect if you have a blank profile and no picture.  Remember, I'm inviting you into my home and I hope you're not a axe murderer. If this is your first experience with Airbnb, read all the Airbnb information on this website.  Airbnb is not a hostel, nor is it a hotel. I rarely accept guests if they have never used Airbnb before. Please keep the bedroom clean and organized.  You will have exclusive access to the bathroom on the second floor during your stay.   However, this also serves as the guest bathroom, so do your best to keep it tidy.  Don't leave your unmentionables hanging on the light fixtures. You will have access to the first floor (living room, dining room and kitchen) and the guest bedroom and bathroom on the second floor.  My bedroom and study on the second floor and t",
20470463,Ladies bedroom Bed 3,35916325079,unconfirmed,Melissa,Brooklyn,Bedford-Stuyvesant,40.6925,-73.95551,United States,US,False,flexible,Shared room,2005,$130 ,$26 ,1.0,16,6/15/2019,1.51,3,34,365,Please do not smoke in the house.  Please no parties or loud events.,
20471016,24HR Doorman Condo&Gym 3Blocks From Time Square!!!,45153832428,unconfirmed,Greg,Manhattan,Hell's Kitchen,40.76168,-74.00079000000001,United States,US,False,moderate,Entire home/apt,2007,$364 ,$73 ,2.0,14,12/30/2018,1.35,2,1,0,"Check-in is 2:00 pm, and checkout 11:00 am (the bedrooms please, you leave your bags to pick up later or bring them early). After reservation please send me your arrival and departure time for logistics 1.No shoes to the second floor  2.Keep the volume low before 8am and after 10pm 3.Close the doors gently 4.No shower after  11:30pm 5.No Laundry after  before 9am and after 8pm 6.Keep the kitchen and  bathroom in decent condition after you 7.Close the shower curtain well (important) 8.No water around the sink (under the sink there is a sponge you can use it to dry) 9.Turn off the light when you leave the room 10.Trash out from the room  BLUE BOX recycling  11.Leave the key in the room THANK YOU",
20471568,"Spacious, Sunny Room in BKLYN, NYC.",23047405037,unconfirmed,Andrei,Brooklyn,Midwood,40.613490000000006,-73.94896,United States,US,False,flexible,Private room,2010,$204 ,$41 ,1.0,6,5/26/2019,0.67,2,1,180,#NAME?,
20472120,Spacious private room in the heart of EastVillage,91205462170,unconfirmed,Yaasha,Manhattan,East Village,40.72882,-73.97807,United States,US,False,flexible,Private room,2003,"$1,186 ",$237 ,1.0,6,1/6/2019,0.58,4,2,0,,
20472673,Cozy Room With Access to Two Full Bathrooms,30866721235,verified,Austin,Brooklyn,Bedford-Stuyvesant,40.68465,-73.93847,United States,US,False,flexible,Private room,2005,$433 ,$87 ,2.0,62,6/28/2019,6.08,4,3,4,Keep your bedroom and apartment clean. Keep quiet when you share this apartment with other guests. No smoking inside the apartment. Your staying will be terminated if you smoke inside the building. No party after 9:30 p.m.,
20473225,Agate Bedroom,205209506,unconfirmed,Melissa,Brooklyn,Bedford-Stuyvesant,40.69448,-73.95696,United States,US,True,moderate,Private room,2012,$781 ,$156 ,2.0,20,6/12/2019,1.96,3,34,344,,
20473777,Big beautiful room with tons of sunlight,41166609380,unconfirmed,Blaine,Brooklyn,Bushwick,40.69695,-73.92268,United States,US,False,moderate,Private room,2018,$382 ,$76 ,28.0,1,10/31/2018,0.12,2,1,0,"• Check-in time is 3PM. • Check-out time is 11:00AM. • No parties or events • Not suitable for pets • No smoking No smoking, no drugs, no parties and please, no visiting pets or unannounced visitors. Please lock up door when you go out, and during the heating season, turn down the heat. If you are new to Airbnb, the idea is that I’m not renting a room, but rather sharing my home. I live and work here, and enjoy meeting new people. It's like having old friends visit, not like a hotel. You are welcome to make yourself at home in the common living areas and to use the kitchen, but please leave everything as clean and put away as you have found it. As we will be sharing a bathroom, I appreciate your tidying up and keeping personal items in your room. The cat is not allowed outdoors – he can be sneaky so please don’t leave doors open and keep an eye out for her. You are welcome to the kitchen (and common areas), thank you for cleaning your dishes after using them.   I am environmentally fri",
20474329,★SPRING/ SUMMER SALE ALERT★ 10 MIN TO TIMES SQUARE,78247653608,verified,William,Manhattan,Hell's Kitchen,40.76511,-73.98714,United States,US,True,strict,Entire home/apt,2022,$709 ,$142 ,2.0,19,6/1/2019,2.19,4,1,68,"Drinking in moderation, smoking outdoors, no drugs. Please clean up after yourself.",
20474882,Top Luxury NYC EmpireSt View 3BR/2BA w/Terrace+Gym,74269087156,verified,Lea,Manhattan,Kips Bay,40.74487,-73.97608000000001,United States,US,True,moderate,Entire home/apt,2013,$101 ,$20 ,5.0,1,9/14/2018,0.1,2,1,364,,
20475434,"Authentic, Traditional NYC -  Walk to Times Square",34523606682,verified,John,Manhattan,Hell's Kitchen,40.76543,-73.98871,United States,US,True,strict,Entire home/apt,2009,"$1,025 ",$205 ,2.0,28,6/7/2019,2.95,3,1,233,"Please take your street shoes off when entering the house. This is a smoke free home. Please no smoking in and around the house. For all my male guests: Please sit on the toilet. No standing please! This is a shared facility. Therefore, please be considerate of the amount of water and electricity you use. Please keep the noise level low.",
20475986,Spacious room in Brooklyn by the subway!,58755060789,unconfirmed,ZhongJei,Brooklyn,Borough Park,40.64423,-73.99686,United States,US,True,flexible,Private room,2017,$583 ,$117 ,3.0,1,6/3/2019,0.81,5,1,53,"NO PETS!  NO SMOKING ON PREMISES! NO PARTY! A printed house rule will be provided. Please be respectful to others when all rooms are booked. 10 AM Check-out and Check-in is between 12 PM (noon) - 3 PM.   Late check in after 8 pm is $50, lock out is $50. Respect yourself, Respect others, clean up after yourself.  No Smoking/drinking in apt.  Thank You! Location Rules: The ""Exact Address Location Is Not Disclosed For Security Reasons"" And Is Given Out 24 Hours Prior to Check-in.  If This Is a Problem for You, Please STOP Here And Contact Other Hosts for Your Stay.   This Is a Part Of My House Rules.",
20476539,Cozy Room In Brooklyn,292606012,verified,Qusuquzah,Brooklyn,Cypress Hills,40.680640000000004,-73.88285,United States,US,False,moderate,Private room,2017,$875 ,$175 ,2.0,5,5/19/2019,0.49,5,3,365,"No smoking of any kind indoors; no smoking on deck or in back garden; smoking allowed in front garden, where chairs and a table are provided.  Guests using kitchen area are asked to keep it clean and put away food in refrigerator or cabinets or plastic containers.  Quiet hours after 11pm. ",
20477091,Fresh room w/ skyline view in heart of Bushwick,29738618107,verified,Michael,Brooklyn,Bushwick,40.70706,-73.9201,United States,US,False,flexible,Private room,2013,$993 ,$199 ,3.0,7,6/11/2019,0.68,5,2,11,"•No Smoking in any part of the property •Please do not leave any trash outside, please leave trash in bag inside the unit •Do not flush anything down toilet except toilet paper •Please maintain a reasonable volume •Please respect the property •No large parties •No more than 4 guests •Please ask before accessing bar •Do not purchase anything on cable •Please do not leave exterior doors open so that we can keep out insects and pests",
20477643,CORNER SUITE HIGH CELING in a Luxury Building,50468787550,unconfirmed,Teresa,Manhattan,Hell's Kitchen,40.7603,-73.98822,United States,US,False,flexible,Private room,2015,$411 ,$82 ,5.0,13,6/23/2019,1.26,4,1,123,"Unlike most other Airbnb listings, what we do here is long-term rentals by the year, or by the semester.  We try to keep the atmosphere conducive to studying and resting and a couple of house-rules are in place to this end.  1. Towels and linens (sheets, blankets, and pillows) are NOT provided. The bed is twin size. 2. No smoking on the premises.  3. No loud music or TV etc.  4. Only for one person (no couples, no visitors). We seldom have visitors, let alone overnight guests. We know this will be a major turn-off to many people, but we believe we can find a like-minded roommate who can have fun outside the house.  5. If you are not sure about your check-out date, you can reserve the minimum days and extend your stay at a discounted rate.  6. Check-in time has to be coordinated at least 48 hours ahead. On arrival, a short registration process with a picture ID is needed in exchange for keys and wifi access.  7. Inside the apartment, we take off our outside shoes. So if you bring your o",
20478196,Brand new independent one bedroom apartment,34991252604,unconfirmed,Chang,Queens,Flushing,40.737359999999995,-73.80071,United States,US,False,strict,Entire home/apt,2003,$169 ,$34 ,1.0,86,6/24/2019,8.06,3,1,121,,
20478748,Shared Loft in Charming Guest Suite (Front Right),37584094160,verified,Nina,Staten Island,Clifton,40.61672,-74.0855,United States,US,False,moderate,Shared room,2009,$383 ,$77 ,2.0,1,9/4/2018,0.1,5,7,37,No Parties No Loud Music No Smoking,
20479300,"Nice, clean and large room. Peaceful place",55230224515,unconfirmed,Antonio,Queens,Long Island City,40.7544,-73.93314000000001,United States,US,False,strict,Private room,2008,$384 ,$77 ,3.0,25,6/24/2019,2.44,3,2,245,,
20479852,West Village Prime Location Light and Chic,12039096446,unconfirmed,Cate,Manhattan,West Village,40.73723,-74.00845,United States,US,False,strict,Entire home/apt,2012,$185 ,$37 ,1.0,8,5/7/2019,0.75,4,3,296,"- NO PETS!  NO SMOKING ON PREMISES! NO PARTY! A printed house rule will be provided. Please be respectful to others when all rooms are booked. 10 AM Check-out and Check-in is between 12 PM (noon) - 3 PM.   Late check in after 8 pm is $50, lock out is $50. Respect yourself, Respect others, clean up after yourself.  No Smoking/drinking in apt.  Thank You!  Location Rules: The ""Exact Address Location Is Not Disclosed For Security Reasons"" And Is Given Out 24 Hours Prior to Check-in.  If This Is a Problem for You, Please STOP Here And Contact Other Hosts for Your Stay.   This Is a Part Of My House Rules.",
20480405,Shared Loft in Charming Guest Suite (Rear),54646711582,verified,Nina,Staten Island,Clifton,40.61575,-74.08658,United States,US,True,moderate,Shared room,2014,$680 ,$136 ,2.0,0,,,5,7,37,"NO PETS.  NO SMOKING.  NO PARTIES.  No recreational drugs.  No open flames.  No excess noise after 10:00 pm.  Avoid disturbing neighbors.   NO PETS.  If a pet is found on the premise, a pet surcharge of $300 will be applied. You will be asked to leave immediately and will forfeit your security deposit if an animal is on the property without permission of owner. NO SMOKING PLEASE.  A $500 cleaning fee will be deducted from your deposit if smoking occurs in the unit. This is a NO PARTY house. Parties, loud get-togethers, or gatherings are not allowed because of neighbor issues, and possible damage to property. If a party, loud gathering, or loud disturbance does occur, or if neighbors or other guests call for a loud disturbance, you will forfeit your security deposit and will be evicted immediately. Please Note:  During your stay we ask that you leave the house tidy and in good order.  Guests must provide their own toiletries/cleaning supplies/paper products.  We will have a starter kit ",
20480957,Comfortable 2 bedroom apt in Times Square 5ppl,15359466979,verified,Georgian,Manhattan,Hell's Kitchen,40.75885,-73.98996,United States,US,True,moderate,Entire home/apt,2005,$628 ,$126 ,1.0,63,6/27/2019,6.18,5,1,216,"Guests who use kitchen must wash their dishes (or put them in dishwasher) and wipe stove and counters after eating, in courtesy to other guests. No smoking inside or behind the house; smoking is permitted only in smoking area in front of house. To maintain quiet on floors with bedrooms, please use headphones to listen to music/videos or when making (website hidden) calls in bedrooms, and keep hallways conversations quiet and short.  ",
20481509,Sunny Brooklyn Apartment With Private Terrace,80322393356,verified,Sam,Brooklyn,Bedford-Stuyvesant,40.69164,-73.93431,United States,US,True,strict,Entire home/apt,2018,$359 ,$72 ,3.0,3,9/25/2018,0.29,5,1,105,"Respect yourself, respect others, clean up after yourself. No smoking or drinking in the apt. Late check in after 9 p.m. and before 10 A.m. is $50, lock out is $50. Thank you",
20482062,Cheap and Worth it!,78681580010,unconfirmed,Rafael,Queens,Elmhurst,40.74038,-73.87380999999999,United States,US,True,flexible,Private room,2008,"$1,141 ",$228 ,1.0,24,2/2/2019,2.32,2,1,0,"NO PETS!  NO SMOKING ON PREMISES!  NO PARTY! No ""DRUGS""! - Keep the Place Clean at All Times! - Do Not Ask the ""Neighbors"" for anything.  Ask Me!-  - No Neighbors Interaction! - No ""Drugs"" Please!!! - No Noise! A printed house rule will be provided. Please be respectful to others when all rooms are booked. 10 AM Check-out and Check-in is between 12 PM (noon) - 3 PM.   Late check in after 8 pm is $50, lock out is $50. Respect yourself, Respect others, clean up after yourself.  No Smoking/drinking in apt.  Thank You! Location Rules: The ""Exact Address Location Is Not Stockton St.  It Is 2 Streets Away.  It Is Not Disclosed For Security Reasons"" And Is Given Out 24 Hours Prior to Check-in.  If This Is a Problem for You, Please STOP Here And Contact Other Hosts for Your Stay.   This Is a Part Of My House Rules.",
20482614,Comfortable Carroll Gardens 2 BR Amazing Location,68930763607,verified,David,Brooklyn,Carroll Gardens,40.6798,-73.99271999999999,United States,US,False,strict,Entire home/apt,2009,$936 ,$187 ,2.0,7,7/6/2019,0.9,2,1,45,"•Parties or Gatherings are not permitted. •Please be courteous to the neighbors and keep noise levels low, especially between the hours of 10pm-10am. •Absolutely no smoking in the apartment. Smoking only on the back porch •Overnight guests are not permitted unless included on the initial reservation. •Please help us conserve energy by turning off lights, small appliances, lamps, etc. when not being used.  •Please store recyclables separately. •Pets are not permitted at any time. •If you need flexibility around the specified check in or check out times, let us know in advance. •Owner is NOT responsible for any accidents, injuries or illness that occurs while on the premises or its facilities.",
20483166,"Lovely Room in Sunnsyide, 15 min ride to Manhattan",83228091963,unconfirmed,Kazuya,Queens,Sunnyside,40.737590000000004,-73.92126999999999,United States,US,True,moderate,Private room,2009,$422 ,$84 ,30.0,3,5/10/2019,0.31,3,103,251,,
20483719,A Nice and Warm Place to Stay in Sunnyside!,76784580990,unconfirmed,Kazuya,Queens,Sunnyside,40.73919,-73.92004,United States,US,True,moderate,Private room,2020,$572 ,$114 ,30.0,2,6/23/2019,0.21,2,103,233,,
20484271,"Private Guest Suite Close To Ferry, Colleges, RUMC",70376560547,unconfirmed,Carrie,Staten Island,Tompkinsville,40.63482,-74.095,United States,US,False,flexible,Entire home/apt,2003,$895 ,$179 ,2.0,13,6/16/2019,2.89,3,1,247,,
20484823,Bushwick Oasis | Gorgeous View,16774735562,verified,Yuting,Brooklyn,Bushwick,40.694309999999994,-73.92246999999999,United States,US,True,flexible,Private room,2018,$681 ,$136 ,1.0,68,7/6/2019,6.54,4,3,168,,
20485375,"J- LUXURY SHARED ROOM, AC FREE WIFI+CABLE GARDEN",22313059873,unconfirmed,Nikole,Queens,South Ozone Park,40.67172,-73.79669,United States,US,False,flexible,Shared room,2015,$778 ,$156 ,4.0,4,5/1/2019,0.41,3,7,365,#NAME?,
20485928,"J- *LUXURY SHARED ROOM AC FREE WIFI CABLE, GARDEN",64222237910,unconfirmed,Nikole,Queens,South Ozone Park,40.6726,-73.79566,United States,US,True,strict,Shared room,2012,$403 ,$81 ,5.0,1,9/30/2018,0.11,3,7,365,"just act like my friend in building and don't be mean to Jack, he's ugly I know but sweet and small.",
20486480,Modern chic studio in luxury building,50878695489,unconfirmed,Camilla,Brooklyn,Bedford-Stuyvesant,40.692170000000004,-73.95837,United States,US,False,moderate,Entire home/apt,2006,$881 ,$176 ,4.0,3,12/1/2018,0.37,5,1,0,"House Rules  Please treat my home as if it were your own. Be respectful of me, my guests, and anyone you may encounter in the building.  No smoking (indoors or on the balcony). Please clean up after yourself, especially in the bathroom. Upon leaving, please put your trash in the chute and strip the linens of the bed. If you have any questions, please ask me. No parties or loud noises in the unit after 10 pm but the club lounge is 24 hours and you are welcome to relax and socialize on the 20th (URL HIDDEN) long as your respectful and not overly loud.   PLEASE ALSO BE MINDFUL OF NEIGHBORS.",
20487032,Private/Relaxing Queen PopUp bed 30min2timessqr,97701376370,unconfirmed,Noah,Manhattan,Inwood,40.86524,-73.92195,United States,US,False,moderate,Private room,2019,$566 ,$113 ,1.0,12,2/8/2019,1.37,3,1,0,,
20487585,1BR/Studio Superb for a professional (Hidden by Airbnb) Home,3840266225,verified,H,Manhattan,Hell's Kitchen,40.75435,-73.99744,United States,US,True,flexible,Entire home/apt,2019,$853 ,$171 ,4.0,6,4/7/2019,0.56,3,1,3,Smoking is strictly prohibited. Your pets are welcome but please mind them. NO PARTIES ALLOWED.  EXCESSIVE NOISE IS STRICTLY PROHIBITED.,
20488137,Isaac apartament,37572930725,verified,Juan,Manhattan,East Harlem,40.792359999999995,-73.94689,United States,US,True,moderate,Entire home/apt,2009,$283 ,$57 ,1.0,1,1/2/2019,0.16,2,2,7,"Check-in is after 3PM Some general information about the apartment. Please try to keep it relatively quite, especially at night. Strict no parties or entertainment policy. No additional guests are allowed outside of reservation. No smoking inside the apartment or hallway. No pets allowed in the apartment. Unfortunately no young children as the house is not equipped for children under 10.   When making a booking - please have a verified email address and phone number on your airbnb account. Respect and treat the apartment as your own and how you would expect others to treat yours. Please communicate with us as soon as possible, should something go wrong during your stay, so we can try to fix it as soon as possible. Once you've confirmed the booking, please respect the apartment and don't hesitate to make it your own. We want you to feel like you are at home, so to sum it all up.. don't do things you wouldn't do at your own place We look forward to welcoming you and have a great time in ",
20488689,The Space in Brooklyn,84917345370,unconfirmed,Frederick,Brooklyn,Crown Heights,40.66472,-73.92871,United States,US,True,flexible,Private room,2015,$255 ,$51 ,1.0,0,,,2,1,0,"Please do not smoke or do drugs in our home, and please do not have parties.  There is no glass allowed on the roof (which is on the 9th floor).",
20489242,Large Lux Apt with Amazing NYC Views - Location!,68773856381,unconfirmed,Raul,Manhattan,Kips Bay,40.74371,-73.97946,United States,US,True,moderate,Entire home/apt,2014,$580 ,$116 ,3.0,3,1/1/2019,0.28,2,2,13,,
20489794,Times Square Apartment,71142746353,unconfirmed,Will,Manhattan,Hell's Kitchen,40.76228,-73.99027,United States,US,True,moderate,Entire home/apt,2005,$163 ,$33 ,3.0,25,7/1/2019,2.48,3,1,30,"Please remember that this is a residential building.  All building rules, hotel occupancy restrictions, and year-round tenants must be respected.",
20490346,"Free Cleaning & WiFi, Young Professional Roommates",38231776945,unconfirmed,Marie & Tyler,Brooklyn,Bushwick,40.70466,-73.92553000000001,United States,US,True,flexible,Private room,2006,$136 ,$27 ,30.0,1,10/31/2018,0.12,2,3,4,,
20490898,"Comfort Beds 4 mins to 2,5,3 4,trains to Manhattan",53410349086,verified,Sasha,Brooklyn,East Flatbush,40.65562,-73.93952,United States,US,False,flexible,Private room,2018,$245 ,$49 ,3.0,3,5/5/2019,0.29,2,5,90,,
20491451,"30+ Day Stay-2000 sq ft Guest House, Deck, Rooftop",38090257888,verified,Ali,Queens,Flushing,40.757,-73.80927,United States,US,True,strict,Entire home/apt,2021,$359 ,$72 ,6.0,0,,,2,7,363,,
20492003,"Spacious, Private LIC Studio 2 Blocks to Train!",53467726398,verified,Cassidy,Queens,Sunnyside,40.74375,-73.91563000000001,United States,US,False,strict,Entire home/apt,2014,$671 ,$134 ,2.0,0,,,2,2,0,#NAME?,
20492555,Welcome Home To Ridgewood!,50985804096,verified,Alejandro,Queens,Ridgewood,40.707240000000006,-73.91268000000001,United States,US,True,flexible,Entire home/apt,2015,$191 ,$38 ,1.0,94,7/7/2019,8.84,5,1,0,#NAME?,
20493108,Huge West Village Loft in Luxury Building,59652187217,verified,Dylan,Manhattan,West Village,40.732409999999994,-74.00721999999999,United States,US,False,moderate,Entire home/apt,2011,$810 ,$162 ,6.0,2,12/30/2018,0.2,3,1,0,#NAME?,
20493660,"352 Prospect pl, 1st floor",94013356719,unconfirmed,Allam,Brooklyn,Prospect Heights,40.677690000000005,-73.96548,United States,US,False,moderate,Entire home/apt,2019,$232 ,$46 ,15.0,2,11/3/2018,0.24,4,1,57,,
20494212,Modern Luxury Studio in Heart of Astoria,32823510943,verified,Roger,Queens,Astoria,40.768359999999994,-73.91405,United States,US,False,strict,Entire home/apt,2008,$185 ,$37 ,5.0,28,6/29/2019,2.75,5,1,38,,
20494765,Private Room in Prospect Place,12368314946,verified,Nishant,Brooklyn,Prospect Heights,40.67893,-73.97113,United States,US,True,moderate,Private room,2003,$399 ,$80 ,16.0,0,,,2,2,89,"No parties, smoking or pets. Feel free to enjoy the location and space, just be respectful, thank you! (My doorman will know if you are bringing people up to the apartment.)",
20495317,Charming room in upper Manhattan,53269829348,verified,Rachel Leigh,Manhattan,Harlem,40.82867,-73.94561,United States,US,True,flexible,Private room,2015,"$1,048 ",$210 ,1.0,28,6/27/2019,2.78,2,2,5,,
20495869,Prospect Suite,38413167326,unconfirmed,Jessica,Brooklyn,Prospect Heights,40.67752,-73.96977,United States,US,True,moderate,Private room,2011,$554 ,$111 ,2.0,16,6/4/2019,1.62,4,2,357,#NAME?,
20496421,New Large Luxury Residence in Manhattan,24718216883,verified,Justin,Manhattan,Hell's Kitchen,40.75525,-73.99597,United States,US,False,moderate,Entire home/apt,2017,$811 ,$162 ,3.0,4,3/26/2019,0.38,4,1,108,NO Smoking Pets Allowed with Fee,
20496974,QUIET MASTER BEDROOM,72619633875,unconfirmed,Maria C.,Brooklyn,Bushwick,40.68636,-73.91331,United States,US,False,strict,Private room,2009,$931 ,$186 ,3.0,1,9/11/2018,0.1,4,1,26,"Please remember that this is a residential building. The building rules, apartment occupancy restrictions and the year-round tenants must be respected.  Parties, pets and smoking are not allowed under any circumstances and incur significant fees.",
20497526,Sunny room in Park Slope with air mattress,14102494658,verified,Nicole,Brooklyn,Park Slope,40.6715,-73.98451,United States,US,True,moderate,Private room,2005,$554 ,$111 ,1.0,1,9/15/2018,0.1,5,1,0,"Please remember that this is a residential building. The building rules, apartment occupancy restrictions and the year-round tenants must be respected.  Parties and smoking are not allowed under any circumstances and incur significant fees. Pets may be considered with pre-approval and an additional pet fee.",
20498078,Sunnyside's beauty,41213384618,verified,Sammy,Queens,Sunnyside,40.7441,-73.92153,United States,US,False,strict,Entire home/apt,2020,$197 ,$39 ,2.0,31,6/25/2019,3.31,3,1,169,Professional building with professional behavior expectations!,
20498631,Garden Oasis,88919906566,verified,Lou,Manhattan,East Village,40.72795,-73.97768,United States,US,True,flexible,Entire home/apt,2011,$907 ,$181 ,2.0,2,1/2/2019,0.22,5,1,0,"We expect guests to treat our home as if it were their own. Be neat and clean, considerate, and respectful of both our home and our neighbors. There is NO smoking in the home, NO pets, NO drugs!!!",
20499183,Amazing Large Sunny Studio in Greenwich Village,76164881749,unconfirmed,Shaun,Manhattan,West Village,40.73765,-74.00157,United States,US,False,flexible,Entire home/apt,2009,$144 ,$29 ,30.0,11,6/26/2019,1.24,4,1,6,#NAME?,
20499735,Beautiful Historic Home in Brooklyn,80246971355,verified,Caroline,Brooklyn,Prospect-Lefferts Gardens,40.66318,-73.95371999999999,United States,US,True,flexible,Entire home/apt,2008,$694 ,$139 ,1.0,2,10/2/2018,0.21,3,10,220,,
20500288,Ideal New York Apartment,53004566266,unconfirmed,Stephanie,Manhattan,East Village,40.7249,-73.98026,United States,US,True,moderate,Entire home/apt,2014,$739 ,$148 ,2.0,5,6/11/2019,0.48,3,1,0,,
20500840,Cozy flat with back Patio,82836062683,unconfirmed,Philmore,Brooklyn,Canarsie,40.64693,-73.89537,United States,US,False,strict,Entire home/apt,2013,$954 ,$191 ,5.0,0,,,4,2,220,,
20501392,"Spread Love, It's the Brooklyn Way!",42137527235,unconfirmed,Taitu,Brooklyn,Midwood,40.615590000000005,-73.9496,United States,US,False,moderate,Entire home/apt,2003,$732 ,$146 ,2.0,1,1/1/2019,0.16,3,1,55,,
20501944,Spacious Room in Murray Hill,53838357833,verified,Piyush,Manhattan,Kips Bay,40.743359999999996,-73.97628,United States,US,True,strict,Private room,2022,"$1,031 ",$206 ,20.0,1,9/28/2018,0.11,5,1,0,,
20502497,Spacious Deco Apt.- Columbus Circle,55635025404,unconfirmed,Alexis,Manhattan,Hell's Kitchen,40.76708,-73.98295,United States,US,True,moderate,Private room,2009,$167 ,$33 ,6.0,4,1/1/2019,0.45,4,1,365,"Our check in time is 3pm. If you would like to check in earlier please let us know ahead of time.   We are happy to accomidate if possible, but do understand that we need some time to make sure your room is ready on your arrival.  Clean up after yourself & turn lights off on our roof deck.  It is a common space in the building.    There is No Smoking in the apartment or on the roof deck.  Please no guests without checking with us. We have some nosy neighbors so if they ask where you are staying please let them know with friends or family.  Some of our neighbors are not happy with us using AirBNB.   Thank you for helping us out!",
20503049,"Upper Manhattan room like a studio ""White room""",48744035651,verified,Maribel,Manhattan,Washington Heights,40.84536,-73.93564,United States,US,True,strict,Private room,2003,$689 ,$138 ,6.0,5,6/9/2019,0.53,4,1,361,,
20503601,Luxury apartment close to Empire State Building,33111483341,verified,Panos,Manhattan,Midtown,40.744040000000005,-73.98263,United States,US,False,flexible,Entire home/apt,2005,$176 ,$35 ,5.0,5,12/9/2018,0.51,3,2,179,,
20504154,Bedroom on UES,75682068715,verified,Ahmet,Manhattan,Upper East Side,40.77353,-73.95357,United States,US,True,moderate,Private room,2012,$476 ,$95 ,3.0,10,6/9/2019,0.99,3,1,14,,
20504706,Large Bedroom Steps from Subway (Ground Flr Room),19126731430,verified,Lee And Teri,Brooklyn,Flatbush,40.64184,-73.9642,United States,US,False,moderate,Private room,2020,"$1,095 ",$219 ,2.0,42,6/8/2019,3.96,4,5,47,,
20505258,Huge 1 bedroom in Williamsburg for Travelers,24506414242,verified,Philip,Brooklyn,Williamsburg,40.71012,-73.9595,United States,US,False,strict,Entire home/apt,2018,$214 ,$43 ,5.0,5,5/30/2019,0.49,2,1,35,,
20505811,Beautiful 2 Bedroom Apartment Near LGA and City,41283509841,verified,Farhan,Queens,East Elmhurst,40.76708,-73.8795,United States,US,True,flexible,Entire home/apt,2005,$242 ,$48 ,1.0,52,6/21/2019,4.92,5,3,296,,
20506363,A Charming Hideout for a perfect weekend,39601676443,verified,Vanessa,Brooklyn,East Flatbush,40.64557,-73.94684000000001,United States,US,False,strict,Entire home/apt,2011,$619 ,$124 ,1.0,14,2/24/2019,1.49,4,1,0,,
20506915,"Clean, Modern Studio. First floor access! #10292",97580366005,verified,Jason,Manhattan,Upper East Side,40.77936,-73.9518,United States,US,False,strict,Entire home/apt,2015,"$1,059 ",$212 ,2.0,41,6/28/2019,4.16,2,1,247,,
20507467,A cozy quiet 1-bedroom with a balcony in Astoria,19934838039,unconfirmed,Igor,Queens,Astoria,40.76255,-73.91934,United States,US,False,flexible,Entire home/apt,2012,$902 ,$180 ,6.0,2,11/21/2018,0.19,4,1,19,"Shoes off in the house, please! Turn A/C off when not home, and hand-wash the knives. Thanks :).",
20508020,Your Home Next to the Empire State Building,15859167235,verified,Tassie,Manhattan,Murray Hill,40.74628,-73.97899,United States,US,False,moderate,Entire home/apt,2005,$387 ,$77 ,2.0,11,6/30/2019,1.07,3,1,27,,
20508572,Heights,22386693887,verified,Candace,Brooklyn,East Flatbush,40.661840000000005,-73.93436,United States,US,True,moderate,Private room,2008,$949 ,$190 ,1.0,2,5/19/2019,0.22,3,6,365,Parties and smoking are not allowed under any circumstances and incur significant fees. Pets may be considered with pre-approval and an additional pet fee.,
20509124,"Private, spacious home in Central Brooklyn!",43146418879,unconfirmed,Sarah,Brooklyn,Crown Heights,40.67672,-73.94934,United States,US,False,moderate,Entire home/apt,2013,$666 ,$133 ,2.0,3,12/28/2018,0.3,5,1,0,"In the building you are my guest, know my name and our unit at all times or they will throw you out.  they don't care if you are from airbnb or the king of England, you don't know who you are here with they toss you.  Don't make a problem for the doorman under any circumstances (being drunk and locked out, call me not him).  He can't get you in.   There are some high rollers in the building, act like you have been there before :) There are some nice common areas, just act like the upstanding business professional you are.",
20509677,Modern Sunlit Brooklyn Apartment,1520800815,unconfirmed,Kevin,Brooklyn,Bedford-Stuyvesant,40.67856,-73.94483000000001,United States,US,False,flexible,Private room,2009,$487 ,$97 ,2.0,11,5/5/2019,1.15,3,1,4,,
