id,NAME,host id,host_identity_verified,host name,neighbourhood group,neighbourhood,lat,long,country,country code,instant_bookable,cancellation_policy,room type,Construction year,price,service fee,minimum nights,number of reviews,last review,reviews per month,review rate number,calculated host listings count,availability 365,house_rules,license
9285836,Large Bedroom,44077873620,unconfirmed,Harry,Brooklyn,Flatbush,40.63836,-73.95698,United States,US,False,flexible,Private room,2020,$172 ,$34 ,1,6,1/1/2017,0.16,5,1,369,"Check Out is at Noon (12:00pm) unless otherwise specified. Cleanliness is next to godliness!  No smoking, no pets, no parties! Please take your shoes off upon entering the apt. Thank you!",
9286388,Private room available in 2 bedroom apartment,50831626634,verified,Habby,Brooklyn,Bushwick,40.70487,-73.92126999999999,United States,US,True,moderate,Private room,2016,"$1,139 ",$228 ,3,11,6/2/2019,0.37,1,1,324,"PLEASE  NOTE: • 6.25% MA State Sales Tax is already incorporated into the room rate and extra guest fees. • The total listed as the cleaning fee is comprised of a $119 cleaning fee and a $39 damage protection plan which provides $3,000 worth of coverage for accidental damage to the property during the stay. There is no smoking allowed in the boat. Use of illegal substances will be cause for immediate termination of the rental and reported to the police. All pets must be on a leash when outside the boat.  Quiet hours are between 9:30pm and 8am.  Noise must be kept to a minimum during this time period.",
9286941,Private Bedroom Near Prospect Park,73199329947,verified,Vin,Brooklyn,Crown Heights,40.67324,-73.95156999999999,United States,US,True,flexible,Private room,2015,$129 ,$26 ,1,4,5/15/2016,0.1,4,1,121,Residential building so no loud gatherings  No noise after 11  Basically treat it like its your place  No cleaning fee charged so please leave kitchen like you found it,
9287493,East Village Couch Crash 9PM-9AM,30882469738,unconfirmed,Michelle,Manhattan,East Village,40.729820000000004,-73.98823,United States,US,False,moderate,Shared room,2012,$275 ,$55 ,1,4,9/15/2016,0.1,1,2,413,"House Rules Welcome to Boston-Furnished-Rentals. We respectfully request that you take care of all furniture, appliances, and all other belongings in our apartments. Pets are allowed only with prior approval. Please turn off all lights and appliances including the A/C and heat when you leave. We also ask that you follow our trash rules while staying with us. The efforts of all our guests allow us to pass on savings for everyone. We look forward to your visit and thanks for choosing Boston-Furnished-Rentals while enjoying Boston.",
9288045,Charming 1 BR apartment east of Central Park,51449105865,verified,Tania,Manhattan,East Harlem,40.7887,-73.94736,United States,US,False,flexible,Entire home/apt,2019,$561 ,$112 ,3,11,8/21/2018,0.28,4,1,113,"House Rules Welcome to Boston-Furnished-Rentals. We respectfully request that you take care of all furniture, appliances, and all other belongings in our apartments. Pets are allowed only with prior approval. Please turn off all lights and appliances including the A/C and heat when you leave. We also ask that you follow our trash rules while staying with us. The efforts of all our guests allow us to pass on savings for everyone. We look forward to your visit and thanks for choosing Boston-Furnished-Rentals while enjoying Boston.",
9288598,Affordable Private Cozy Room!,52574874387,verified,Alba & Genesis,Bronx,Morris Heights,40.8522,-73.91014,United States,US,True,strict,Private room,2011,$513 ,$103 ,3,21,6/8/2019,0.64,1,2,101,"Expect to have our place treated with respect, but don't want guests to feel uncomfortable so if there's a beer(s) in the fridge, feel free, snacks in the drawers, usually fresh fruit in the bowl, up for grabs etc...",
9289150,Spacious 1BR Williamsburg Apartment,60449456221,unconfirmed,Kailei,Brooklyn,Williamsburg,40.712140000000005,-73.95837,United States,US,False,flexible,Entire home/apt,2005,$732 ,$146 ,2,28,4/22/2019,0.7,1,1,115,"House Rules Welcome to Boston-Furnished-Rentals. We respectfully request that you take care of all furniture, appliances, and all other belongings in our apartments. Pets are allowed only with prior approval. Please turn off all lights and appliances including the A/C and heat when you leave. We also ask that you follow our trash rules while staying with us. The efforts of all our guests allow us to pass on savings for everyone. We look forward to your visit and thanks for choosing Boston-Furnished-Rentals while enjoying Boston.",
9289702,Sunlit Red Hook Pied-à-terre,33826575762,unconfirmed,Steve,Brooklyn,Red Hook,40.678490000000004,-74.01178,United States,US,True,flexible,Private room,2019,$66 ,$13 ,2,66,6/24/2019,4.58,1,1,356,"No Smoking on the apartment.  No Ilegal Drugs  No Parties on property. No pets PLEASE TRY  TO BE AS QUIET AS POSSIBLE CONSIDER OTHER NEIGHBORS OR TENANTS. THANK YOU IN ADVANCE!. Reiterating what's below>>> No parties!  No loud noises, please! - realize that there are other guests (and especially residents) like you in the building that may in fact want to get sleep on a regular basis (sometime between the hours of 10pm and 7am, probably!)  During the day, jumping jacks are probably ok. If you have any problems or if neighbors complain call me at (phone number hidden) and mediate over the phone or in person.   Hull st. court apartment rules: 0.  Absolutely NO smoking in the apartment or  building.  Anyhow if you need to, please do go out to Hull street and people watch while smoking. The North end has multiple cigar bars, too! 1.  Most important, please, No Parties = be quiet, use ""indoor voices"" like they taught us in grade school!  Also, keep the stereo at a reasonable level, etc.   I",
9290254,Bright Apartment in Clinton Hill,82217757482,verified,Jasper,Brooklyn,Clinton Hill,40.68517,-73.9666,United States,US,True,flexible,Entire home/apt,2012,"$1,144 ",$229 ,5,0,,,3,1,209,"No Smoking on the apartment.  No Ilegal Drugs  No Parties on property. No pets** (ask) PLEASE TRY  TO BE AS QUIET AS POSSIBLE CONSIDER OTHER NEIGHBORS OR TENANTS. THANK YOU IN ADVANCE!. Reiterating what's below>>> No parties!  No loud noises, please! - realize that there are other guests (and especially residents) like you in the building that may in fact want to get sleep on a regular basis (sometime between the hours of 10pm and 7am, probably!)  During the day, jumping jacks are probably ok. If you have any problems or if neighbors complain call me at (phone number hidden) and mediate over the phone or in person.   Hull st. court apartment rules: 0.  Absolutely NO smoking in the apartment or  building.  Anyhow if you need to, please do go out to Hull street and people watch while smoking. The North end has multiple cigar bars, too! 1.  Most important, please, No Parties = be quiet, use ""indoor voices"" like they taught us in grade school!  Also, keep the stereo at a reasonable level, ",
9290807,Huge sunny bedroom in Crown Heights,83505632283,unconfirmed,Molly,Brooklyn,Crown Heights,40.67265,-73.94674,United States,US,True,moderate,Private room,2012,$504 ,$101 ,1,0,,,3,1,273,"PLEASE  NOTE: • 6.25% MA State Sales Tax is already incorporated into the room rate and extra guest fees. • The total listed as the cleaning fee is comprised of a $119 cleaning fee and a $39 damage protection plan which provides $3,000 worth of coverage for accidental damage to the property during the stay. There is no smoking allowed in the boat. Use of illegal substances will be cause for immediate termination of the rental and reported to the police. All pets must be on a leash when outside the boat.  Quiet hours are between 9:30pm and 8am.  Noise must be kept to a minimum during this time period.",
9291359,SUNNY and SPACIOUS room in Brooklyn,33126035372,unconfirmed,Kay,Brooklyn,Williamsburg,40.7128,-73.9605,United States,US,True,flexible,Private room,2004,$435 ,$87 ,5,1,7/12/2016,0.03,3,1,283,,
9291911,Quiet Chelsea One Bedroom,70586107170,unconfirmed,Stephan And Liz,Manhattan,Chelsea,40.73911,-74.00046999999999,United States,US,True,flexible,Entire home/apt,2006,$814 ,$163 ,30,87,6/8/2019,2.17,3,1,200,"Quiet, residential. No smoking. No pets",
9292464,Beautiful Bedroom on Hudson River/Riverside Park,8790204580,unconfirmed,David,Manhattan,Harlem,40.833420000000004,-73.94949,United States,US,True,moderate,Private room,2006,$860 ,$172 ,1,6,3/22/2019,0.16,2,1,386,"Please feel to use the kitchen, laundry, etc. I take great pride in keeping my things nice, so please be respectful and we will be all set :)",
9293016,Fully Furnished & Sunny UES Studio,60718461387,verified,Sara,Manhattan,Upper East Side,40.760529999999996,-73.96181,United States,US,False,strict,Entire home/apt,2004,$207 ,$41 ,2,22,6/2/2019,0.55,4,1,232,House rules  1- Since this is a apartment that is lived in at times there are some closets and draws with personal items and I would ask not to use those spaces but there is plenty of space for your stuff. 2- Residential Building so no loud noises or parties especially after 10:30. 3- No overnight company unless approved. 4- Common Courtesy  5-No  or smoking.,
9293568,Posh Madison Ave Apt,85044183864,verified,Corporate Housing,Manhattan,Upper East Side,40.78328,-73.95695,United States,US,True,moderate,Entire home/apt,2004,$150 ,$30 ,30,8,4/21/2019,0.25,3,91,147,,
9294121,Beautiful studio,60355256033,verified,Marianna,Queens,Ditmars Steinway,40.77872,-73.91396,United States,US,False,strict,Entire home/apt,2017,$529 ,$106 ,1,4,5/28/2016,0.1,3,1,107,,
9294673,Artistic NEW LOFT 4 br/2 bath in Times Sq,72304141831,unconfirmed,One,Manhattan,Hell's Kitchen,40.762679999999996,-73.99235,United States,US,False,strict,Entire home/apt,2005,$998 ,$200 ,3,59,6/23/2019,1.51,4,1,122,No smoking.   We do allow pets.,
9295225,One Bedroom Apartment in Greenpoint!,2165950704,unconfirmed,Stephanie,Brooklyn,Greenpoint,40.731640000000006,-73.95323,United States,US,True,strict,Entire home/apt,2018,$562 ,$112 ,1,152,6/18/2019,3.8,3,3,22,,
9295777,Modern Clean Studio 2 blocks from Central Park,43182168315,verified,Eugene,Manhattan,Upper West Side,40.785920000000004,-73.97447,United States,US,True,strict,Entire home/apt,2021,"$1,015 ",$203 ,1,181,7/6/2019,4.61,4,1,95,No smoking. No pets allowed in the building. Quiet hours apply.,
9296330,Huge room in central Bushwick flat,14352622882,unconfirmed,Maya,Brooklyn,Bushwick,40.696690000000004,-73.92785,United States,US,True,moderate,Private room,2007,$318 ,$64 ,1,3,6/25/2016,0.08,1,1,62,"This is my apartment that I rent out when I'm away; I ask that you treat my things as you would yours and leave it as you found it.  There is no smoking in the apartment as well as no pets. - Please be quiet in the hallway/stairs - I live in a small apartment building (5 apartments) and all of my neighbors are very quiet and polite so please reciprocate. - No overnight guests that are not on the reservation/have not been agreed upon in advance. - No smoking in the apartment, out the window, etc.   -Please be mindful of shutting off lights when not in use/when leaving the apartment. -If you cook please take care of your dishes (you can use the dishwasher). ",
9296882,Your cozy and cute space 7 train,9782953542,verified,Sophie,Queens,Elmhurst,40.74561,-73.87344,United States,US,False,flexible,Private room,2021,$310 ,$62 ,1,89,7/3/2019,2.35,1,8,168,"Since I actually live here for part of the time, the closet space is off limits. Please no shoes in the house!",
9297434,The Heart of west HARLEM-With a European flair,59703410305,verified,Timothy,Manhattan,Harlem,40.82776,-73.94700999999999,United States,US,False,strict,Entire home/apt,2017,$341 ,$68 ,3,0,,,3,1,265,Please be respectful of the space and building!  No loud noises or extra guests beyond 10pm.,
9297987,Lovely Room in Beautiful Brooklyn,12698254558,unconfirmed,Marina,Brooklyn,Bedford-Stuyvesant,40.685829999999996,-73.95676999999999,United States,US,False,strict,Private room,2014,"$1,162 ",$232 ,3,0,,,2,1,107,,
9298539,2BR Comfy Apt - 15min from MIDTOWN,87336698122,verified,Steven,Queens,Sunnyside,40.74518,-73.91704,United States,US,False,moderate,Entire home/apt,2019,$525 ,$105 ,30,7,1/4/2019,0.18,1,2,42,,
9299091,Clean/Elegant HK Apt. w/ Cute Bear,17657146912,unconfirmed,Devon,Manhattan,Hell's Kitchen,40.762570000000004,-73.98603,United States,US,False,flexible,Entire home/apt,2018,"$1,118 ",$224 ,3,20,5/29/2017,0.5,1,1,91,Absolutely no parties are permitted. The apartment is in a multi-unit building so guests must be respectful of other tenants in the building.,
9299644,Prime Brand New 1 bed!5206,23152698871,unconfirmed,Jeremy & Laura,Manhattan,Murray Hill,40.74962,-73.97431,United States,US,False,strict,Entire home/apt,2007,$898 ,$180 ,30,2,1/9/2019,0.17,3,96,140,"No Smoking on the apartment.  No Ilegal Drugs  No Parties on property. No pets PLEASE TRY  TO BE AS QUIET AS POSSIBLE CONSIDER OTHER NEIGHBORS OR TENANTS. THANK YOU IN ADVANCE!. Reiterating what's below>>> No parties!  No loud noises, please! - realize that there are other guests (and especially residents) like you in the building that may in fact want to get sleep on a regular basis (sometime between the hours of 10pm and 7am, probably!)  During the day, jumping jacks are probably ok. If you have any problems or if neighbors complain call me at (phone number hidden) and mediate over the phone or in person.   Hull st. court apartment rules: 0.  Absolutely NO smoking in the apartment or  building.  Anyhow if you need to, please do go out to Hull street and people watch while smoking. The North end has multiple cigar bars, too! 1.  Most important, please, No Parties = be quiet, use ""indoor voices"" like they taught us in grade school!  Also, keep the stereo at a reasonable level, etc.   I",
9300196,Mysig tvåa på Upper East Side,14562206307,unconfirmed,Carolin,Manhattan,Upper East Side,40.76955,-73.95002,United States,US,False,flexible,Entire home/apt,2014,$473 ,$95 ,1,0,,,4,1,101,We expect from you just to respect the basic rules: no smoking and being careful with the house furniture and things.,
9300748,COLUMBIA PRESBYTERIAN MED CTR *ARIA* 1 Bedroom Apt,10581752820,unconfirmed,Juliana,Manhattan,Washington Heights,40.84216,-73.94100999999999,United States,US,False,strict,Entire home/apt,2009,$440 ,$88 ,30,7,2/4/2018,0.19,2,34,294,"Respect my home, space and belongings.  Absolutely no smoking allowed in the unit.   Please respect my neighbors by keeping the noise levels to a minimum, particularly between the hours of 10pm-7am.  Enjoy your stay in Boston, fall in love with my city and make yourself at home!!",
9301300,Large Private Room in Midtown East,11043823300,unconfirmed,Hatsumi,Manhattan,Upper East Side,40.76272,-73.96269000000001,United States,US,True,flexible,Private room,2016,$875 ,$175 ,1,4,5/15/2016,0.1,1,1,34,"No smoking, no loud music after 11pm.",
9301853,Bed-Sty Fly,92617573597,unconfirmed,Jasmine,Brooklyn,Bedford-Stuyvesant,40.68612,-73.94384000000001,United States,US,True,moderate,Entire home/apt,2014,$514 ,$103 ,2,100,6/23/2019,2.52,5,1,374,"WHEN BOOKING, PLEASE PROVIDE THE FOLLOWING IN YOUR MESSAGE to me:  - 1. Total number of guests (adults, children, babies)? Are there any elderly or children under 18? If so, what are their ages?  - 2. Arrival Date AND Time of Check In? (Check In between 2 pm and 9 pm with some leniency)  - 3. Departure Date (Check out before 12 pm/noon ideally)  - 4. Please tell me a little about yourselves and the purpose of your trip. - 5. What Other Needs or Special Requests or Extra Options (please read below for additional options and possible related additional fees).  ------  PLEASE NOTE THE FOLLOWING BEFORE REQUESTING A BOOKING:  * I will reply as soon as possible to let you know if my apartment will be available for ALL your needs.  - 1. We are happy to host Friendly, Neat, Low-Maintainence Adults & Well-Behaved Children.  ---- All cookware and utensils in the kitchen are at your disposal, but please ask about food before eating as this is my home and I may be saving something. There will be w",
9302405,Sunny 1 BR Apt in Bed Stuy,86794968451,unconfirmed,Sasha,Brooklyn,Bedford-Stuyvesant,40.68521,-73.95089,United States,US,False,moderate,Entire home/apt,2020,$572 ,$114 ,5,7,8/10/2018,0.18,5,1,13,,
9302957,A cozy place to set your mind free.,73195582819,unconfirmed,Judy,Brooklyn,East New York,40.67729,-73.87996,United States,US,True,moderate,Entire home/apt,2013,$263 ,$53 ,5,37,6/28/2019,1.48,5,1,264,"Please remember that this is a residential building. The building rules, apartment occupancy restrictions, and the year-round tenants must be respected. There is no smoking allowed in the apartments and significant fees will take place if occurs.",
9303510,Huge apartment in beautiful Brooklyn Brownstone,8285375211,unconfirmed,Virginie,Brooklyn,Greenpoint,40.7279,-73.94494,United States,US,True,flexible,Entire home/apt,2010,$317 ,$63 ,6,0,,,2,2,339,No Smoking on the apartment.  No illegal  Drugs  No Parties on property. No pets PLEASE TRY  TO BE AS QUIET AS POSSIBLE CONSIDER OTHER NEIGHBORS OR TENANTS. THANK YOU IN ADVANCE!.,
9304062,Cozy & Comfortable Private Bedroom,51195423069,verified,Franklin,Queens,Elmhurst,40.74503,-73.87671,United States,US,True,flexible,Private room,2008,$898 ,$180 ,2,27,10/31/2017,0.68,3,1,75,"Please, no smoking, and treat our home like your home.",
9304614,Sunny and comfortable Apartment,63065386606,verified,Tee,Brooklyn,Fort Hamilton,40.62168,-74.03023,United States,US,True,strict,Entire home/apt,2018,$605 ,$121 ,20,23,4/13/2019,0.6,4,3,141,"No smoking or loud parties inside the apartment. As long as you are respectful, and do not cause any damage to the property or make too much noise to disturb me or the neighbors, you will be fine!",
9305167,Private room in Bushwick!,92790188238,verified,Rebecca,Brooklyn,Williamsburg,40.705529999999996,-73.94203,United States,US,True,flexible,Private room,2012,$71 ,$14 ,1,0,,,5,4,91,"I only accept clean people , reliable, no smokers. no alchool or drug tollerated.",
9305719,"Cozy, quiet, studio apartment",28233282734,unconfirmed,Anna,Manhattan,East Village,40.73072,-73.99174000000001,United States,US,False,strict,Entire home/apt,2010,$95 ,$19 ,3,31,6/11/2019,0.8,3,1,382,"-  1.Guest(s) agree to NO PARTIES anywhere on the property. Legal action will be taken for parties that cause damages to the unit, property, reputation, or relationship with building staff or other residents.  2.Smoking of any kind is not permitted in the unit or on the premises. Fee for smoking will be 10 times your total reservation cost. For example, your total reservation cost is $350. Fee for smoking on premises will be $3,500. 3.Guests agree to abide by maximum occupancy of unit, and observe quiet hours between 9pm and 9am  4.Guests are responsible for action of ALL GUESTS occupying their unit at all times.  5.Guests agree to return all keys, remotes. Replacement fees may apply for unreturned items  6.Guests understand that onsite building staff (maintenance and concierge) are not affiliated with AIRBNB. Please contact me directly for any needed items.  7.Guests understand that no pets are to be in the unit.  8.Guests agree to pay replacement cost for any unreturned items, and $5",
9306271,Gorgeous large sunny room in NYC!,93480838251,verified,Anthony,Brooklyn,Crown Heights,40.6703,-73.94209000000001,United States,US,False,moderate,Private room,2003,$507 ,$101 ,2,115,6/30/2019,2.87,4,5,193,Guests only have access to the first floor bedroom and bathroom.  The rest of the house is off limits.  Guests who stay a week or more may use the laundry in the basement for free.  Please do not apply hair or beard dye in the bathroom as it was recently renovated.  Please feel free to send me any special requests and I will try to honor them.,
9306823,"Sunny, Quiet Downtown 1BR Apt - Great location!",15580495509,verified,Jonathan & Nancy,Manhattan,Chelsea,40.74069,-74.00069,United States,US,True,flexible,Entire home/apt,2006,$118 ,$24 ,30,1,10/31/2016,0.03,3,2,163,"This apartment is in a 3 families residential building, there is a no smoking and no drug policy, and the occupants should be concerned with common courtesy and no noises after 9.30-10 pm. No parties are allowed.  We will meet you when you arrive at the building with the keys and will explain anything else you might like to know.  We look forward to meeting you.   ",
9307376,Well located apartment near NY City,13318617638,verified,Anne,Bronx,Riverdale,40.8883,-73.91665,United States,US,False,flexible,Entire home/apt,2004,"$1,063 ",$213 ,2,79,6/30/2019,1.99,1,1,197,,
9307928,Comfortable Bedroom right by express subway!,44538064038,unconfirmed,Dani,Brooklyn,Crown Heights,40.667590000000004,-73.95187,United States,US,True,moderate,Private room,2016,"$1,071 ",$214 ,3,5,4/9/2017,0.13,4,1,25,"The usual: no smoking, no parties, no pets (sadly)! Please remove shoes upon entering the apartment, and be mindful of neighbors. It's a quiet building at any hour of the day, so do try to preserve the status quo. Thank you!",
9308480,~Luxury 1 bedroom apt. near Columbus Circle,37334966334,unconfirmed,Kara,Manhattan,Midtown,40.76528,-73.98175,United States,US,False,strict,Entire home/apt,2022,$350 ,$70 ,30,0,,,1,121,416,,
9309033,Entire  Large Park Slope 2BR Apt,76687070926,unconfirmed,Chip,Brooklyn,Park Slope,40.68224,-73.97785,United States,US,False,strict,Entire home/apt,2014,$917 ,$183 ,1,0,,,2,1,159,As if it were your own home!,
9309585,NYC Midtown-West Luxury 1BR Apt.,95828816172,unconfirmed,Kara,Manhattan,Midtown,40.76554,-73.98289,United States,US,True,moderate,Entire home/apt,2019,$529 ,$106 ,30,0,,,4,121,270,,
9310137,NYC  modern 1 bedroom apt. near Carnegie Hall!,87855151925,unconfirmed,Kara,Manhattan,Midtown,40.765370000000004,-73.98331999999999,United States,US,False,strict,Entire home/apt,2013,$470 ,$94 ,30,0,,,3,121,246,#NAME?,
9310690,"Stunning, Waterfront Views! Williamsburg Brooklyn",59933412098,unconfirmed,Rebecca,Brooklyn,Williamsburg,40.712140000000005,-73.96866,United States,US,True,flexible,Entire home/apt,2014,$158 ,$32 ,3,21,6/2/2019,0.53,2,1,9,#NAME?,
9311242,Luxury 1-Bedroom Midtown West NYC Apartment,23045109839,verified,Kara,Manhattan,Midtown,40.76573,-73.98295,United States,US,False,moderate,Entire home/apt,2004,$563 ,$113 ,30,1,11/22/2017,0.05,5,121,173,No smoking and no parties,
9311794,Brooklyn / Williamsburg / Cozy Large Private Room,48100703644,unconfirmed,Koji,Brooklyn,Williamsburg,40.71135,-73.94435,United States,US,False,strict,Private room,2004,"$1,191 ",$238 ,1,1,4/17/2016,0.03,1,1,262,"There are still some older people in this neighborhood and it should go without saying it is important to have respect for the locals.  No smoking, & no parties!",
9312346,Luxury 1-Bedroom NYC apt. near Rockefeller Center!,44137045828,verified,Kara,Manhattan,Midtown,40.76497,-73.98201,United States,US,True,strict,Entire home/apt,2010,$697 ,$139 ,30,0,,,4,121,102,"Absolutely, No Smoking, No parties.",
9312899,Luxury 1 Bedroom Midtown West Apartment!,68381432414,unconfirmed,Kara,Manhattan,Midtown,40.76526,-73.9817,United States,US,True,flexible,Entire home/apt,2015,$452 ,$90 ,30,0,,,1,121,31,No pets and no smoking. Please place all of your dishes in the dishwasher.,
9313451,Sleek 1 bedroom apt. near Times Square!,16487774795,unconfirmed,Kara,Manhattan,Hell's Kitchen,40.76685,-73.98363,United States,US,True,strict,Entire home/apt,2018,$272 ,$54 ,30,0,,,2,121,319,,
9314003,Sunshine Studio near Columbia U,92638075737,verified,Cinthia,Manhattan,Upper West Side,40.80229,-73.96719,United States,US,False,moderate,Entire home/apt,2010,"$1,023 ",$205 ,1,2,11/23/2016,0.05,2,1,205,No pets  No smoking  No loud partying in the space,
9314556,Charming Brownstone w/Backyard,62395830245,verified,Sachea,Brooklyn,Bedford-Stuyvesant,40.67909,-73.93222,United States,US,False,flexible,Entire home/apt,2021,$972 ,$194 ,2,33,6/9/2019,0.87,4,1,328,"PLEASE  NOTE: • 6.25% MA State Sales Tax is already incorporated into the room rate and extra guest fees. • The total listed as the cleaning fee is comprised of a $119 cleaning fee and a $39 damage protection plan which provides $3,000 worth of coverage for accidental damage to the property during the stay. There is no smoking allowed in the boat. Use of illegal substances will be cause for immediate termination of the rental and reported to the police. All pets must be on a leash when outside the boat.  Quiet hours are between 9:30pm and 8am.  Noise must be kept to a minimum during this time period.",
9315108,Studio in the Heart of Gramercy!,2231214460,verified,Julie,Manhattan,Gramercy,40.73638,-73.98453,United States,US,True,moderate,Entire home/apt,2006,$826 ,$165 ,2,0,,,3,1,119,,
9315660,Private Master Bedroom in Luxury Bu,79147689691,verified,Lin,Brooklyn,Crown Heights,40.67543,-73.96311999999999,United States,US,False,strict,Private room,2009,"$1,110 ",$222 ,5,1,8/18/2016,0.03,3,1,324,"Please Note: This unit was just renovated in August 2015 and it comfortably accommodates one to three guests, but up to 4 guests are permitted if you so desire (two guests in the bedroom, 1 guest on the available twin air mattress and 1 guest on the couch). Please request an air mattress (if needed) when making a reservation. No smoking, no pets, no parties, and must be 25 years old to book.   For check-out, please ensure: -  All plates and cups are left in the sink or dishwasher -  All trash is left in the kitchen trash can or bagged and left next to the trash can (additional bags are under the sink) -  All windows are closed and locked -  If used, the air mattresses are deflated and put away (please leave used linens for the air mattresses on the floor) -  If furniture was moved during your stay, please return to its original location Please be mindful to our neighbors in the building; quiet hours after 10pm. Please be considerate of our next guests who will be staying after you, if ",
9316213,Prime Central Park West Pied à Terre,6555710089,unconfirmed,Josh & Jessica,Manhattan,Upper West Side,40.784659999999995,-73.97276,United States,US,False,moderate,Entire home/apt,2008,$758 ,$152 ,2,128,6/17/2019,3.31,4,1,268,"Although we understand the wear and tear that little ones make, we expect that all messes will be cleaned up as they happen and you will be respectful of the neighbors.",
9316765,Spacious Lower Manhattan Apt!,10366425695,verified,Julian,Manhattan,Two Bridges,40.71127,-73.99838000000001,United States,US,False,moderate,Entire home/apt,2005,$474 ,$95 ,2,3,9/24/2017,0.11,5,1,394,"I own a dog, but she will not be present for your stay.",
9317317,Adorable One Bedroom Apartment w/ Balcony!,17082548412,unconfirmed,Stephanie,Brooklyn,Greenpoint,40.73203,-73.95263,United States,US,False,moderate,Entire home/apt,2008,$283 ,$57 ,1,56,10/27/2018,1.58,2,3,277,"This is our home, so please treat it kindly and respect our personal property.",
9317869,Large Private Room in Kips Bay/Murray Hill,85131448204,unconfirmed,Yuan,Manhattan,Kips Bay,40.74418,-73.97565,United States,US,False,strict,Private room,2009,$752 ,$150 ,3,2,9/29/2016,0.05,2,2,148,,
9318422,Plush 2 Bedroom Midtown West NYC Apartment,94182860002,verified,Kara,Manhattan,Midtown,40.76647,-73.9829,United States,US,False,moderate,Entire home/apt,2009,$943 ,$189 ,30,0,,,5,121,179,"No smoking, no pets, no parties please. Respect property and neighbors.",
9318974,Penthouse with PRIVATE ROOFTOP on Upper West Side,65312726904,unconfirmed,Stephen,Manhattan,Upper West Side,40.77961,-73.98441,United States,US,False,moderate,Private room,2006,$208 ,$42 ,3,9,9/25/2017,0.23,4,1,215,"Please Note: This unit was just renovated in 2015 and it comfortably accommodates four guests, but up to 6 guests are permitted if you so desire (two guests in each bedroom and 2 guests on the two available twin size air mattresses). Please request an air mattress(es) (if needed) when making a reservation. No smoking, no pets, no parties, and must be 25 years old to book.   For check-out, please ensure: -  All plates and cups are left in the sink or dishwasher -  All trash is left in the kitchen trash can or bagged and left next to the trash can (additional bags are under the sink) -  All windows are closed and locked -  If used, the air mattresses are deflated and put away (please leave used linens for the air mattresses on the floor) -  If furniture was moved during your stay, please return to its original location Please be mindful to our neighbors in the building, quiet hours after 10pm is not a must, but a nice gesture. Please be considerate of our next guests who will be staying ",
9319526,High-end bright 1 bedroom apt. in Midtown West,4128234372,verified,Kara,Manhattan,Midtown,40.76484,-73.98326,United States,US,True,flexible,Entire home/apt,2005,$445 ,$89 ,30,0,,,1,121,92,"No smoking and no pets, no parties.",
9320079,East Village- The location,37120448769,verified,Pete,Manhattan,East Village,40.73273,-73.98666999999999,United States,US,True,flexible,Private room,2015,"$1,061 ",$212 ,1,36,7/7/2019,1.4,5,1,219,No smoking.,
9320631,Spacious One Bedroom with Private Roof,41832503819,verified,Molly,Brooklyn,Bedford-Stuyvesant,40.68813,-73.95773,United States,US,False,strict,Entire home/apt,2008,$522 ,$104 ,3,6,7/31/2018,0.15,3,1,347,,
9321183,Nice And Clean Room In East Harlem,70600800078,unconfirmed,Sebastian,Manhattan,East Harlem,40.79741,-73.93884,United States,US,False,moderate,Private room,2013,$599 ,$120 ,29,40,4/30/2019,1.14,3,2,214,Please leave the studio in the condition as in arrival. Please turn off lights and heat/air when exiting. Please lock both top and bottom locks. Please feel free to call or text me with questions or concerns.,
9321736,GREAT Bright Manhtattan Apartment!,69967883448,verified,David,Manhattan,Harlem,40.8245,-73.94264,United States,US,False,flexible,Entire home/apt,2008,"$1,080 ",$216 ,150,10,5/7/2019,0.46,2,1,41,,
9322288,East Village Apt with Balcony,79374042791,unconfirmed,Avir,Manhattan,Gramercy,40.734770000000005,-73.98069,United States,US,False,flexible,Shared room,2021,$282 ,$56 ,1,0,,,2,1,-5,"Please no smoking or pets. You are welcome to use our cookware, dishes and utensils. We just ask that you are respectful of the things in the apartment. ",
9322840,Loft w/ Manhattan skyline view,67303713080,unconfirmed,Bárbara,Brooklyn,Williamsburg,40.70843,-73.96924,United States,US,True,flexible,Private room,2014,$274 ,$55 ,1,2,6/17/2016,0.05,1,1,115,,
9323392,Cozy centrally located LES apt,8995151307,unconfirmed,Tanya,Manhattan,Lower East Side,40.71869,-73.99141,United States,US,True,strict,Entire home/apt,2007,$239 ,$48 ,1,1,4/17/2016,0.03,1,1,298,"I expect my guests to be respectful of me, my space and my belongings. I am pretty laid back, but a few things to note: - No pets - No smoking or drugs - Please don't eat my food without my permission (but you can store stuff if you want!) - Feel free to text me if you need to get ahold of me for any reason. - If you leave something behind, I don't have a problem trying to get it back to you, but it will be on your dime. - No more than two guests, please! - Please keep loud noise to a minimum. - Please respect my privacy if I go into my room.",
9323945,Sunset Retreat - Top Floor Oasis,84269070871,verified,Haydee,Brooklyn,Sunset Park,40.6423,-74.01275,United States,US,False,flexible,Entire home/apt,2006,$246 ,$49 ,2,66,6/9/2019,1.68,2,2,174,"Please don't be loud or disrespectful, this is a fun neighborhood, but also a family neighborhood.  If you use any food/Beverage/Alcohol, please replace.",
9324497,Vibrant Crown Heights,15865446629,verified,Mariana,Brooklyn,Crown Heights,40.66676,-73.92957,United States,US,True,moderate,Private room,2005,$343 ,$69 ,3,3,10/7/2018,0.08,5,1,407,"Being clean and respectful of our apartment, the building and it's tenants is our number 1 ""rule"". Other than that, no pets or smoking allowed. We also ask you be mindful of our furniture, and use the coasters given. There will be a $25 fee if we find watermarks and extensive scratches. We will have before photos for guests to sign off on, insuring that we will not place blame on guests for marks previously on furniture.  ",
9325049,House On Henry Parlor Apartment,47838621134,unconfirmed,Annette,Brooklyn,Carroll Gardens,40.6789,-74.00117,United States,US,False,flexible,Entire home/apt,2010,$540 ,$108 ,4,5,5/8/2019,0.13,3,3,76,,
9325602,Full-size loft bed in East Village,34032141859,verified,Michael,Manhattan,East Village,40.72659,-73.97848,United States,US,True,moderate,Private room,2021,$104 ,$21 ,1,3,6/26/2016,0.08,4,1,253,Apartment is located in quiet neighborhood so noise is ok as long as it's not excessive.  We have a strict no-pet and no-smoking policy. This is our building policy and also a strongly enforced household policy.,
9326154,East Village Oasis,59714227425,verified,Mark,Manhattan,East Village,40.72296,-73.98321999999999,United States,US,False,flexible,Entire home/apt,2017,$500 ,$100 ,1,45,7/1/2019,1.17,3,1,249,No smoking.   We do allow pets.,
9326706,Comfy Bedroom in Crown Heights close to Subway,17865883991,unconfirmed,Adam,Brooklyn,Crown Heights,40.66734,-73.94232,United States,US,False,strict,Private room,2021,$200 ,$40 ,2,5,6/26/2018,0.38,4,1,43,"WHEN BOOKING, PLEASE PROVIDE THE FOLLOWING IN YOUR MESSAGE to me:  - 1. Total number of guests (adults, children, babies)? Are there any elderly or children under 18? If so, what are their ages?  - 2. Arrival Date AND Time of Check In? (Check In between 2 pm and 9 pm with some leniency)  - 3. Departure Date (Check out before 11 am/noon ideally)  - 4. Please tell me a little about yourselves and the purpose of your trip.  - 5. What Other Needs or Special Requests or Extra Options (please read below for additional options and possible related additional fees).  ------  PLEASE NOTE THE FOLLOWING BEFORE REQUESTING A BOOKING:  * I will reply as soon as possible to let you know if my apartment will be available for ALL your needs.  - 1. We are happy to host Friendly, Neat, Low-Maintainence Adults & Well-Behaved Children.  ---- All cookware and utensils in the kitchen are at your disposal. There will be water (brita) and basic condiments provided for you. We ask that you rinse whatever dishes",
9327259,Charming Park Slope Apartment,58347762517,verified,Christen,Brooklyn,South Slope,40.668009999999995,-73.98773,United States,US,False,strict,Private room,2011,"$1,020 ",$204 ,1,102,7/3/2019,2.56,3,1,264,,
9327811,Prime Carroll Gardens Apartment,88143850918,verified,Thomas,Brooklyn,Carroll Gardens,40.68268,-73.99687,United States,US,True,flexible,Entire home/apt,2003,$329 ,$66 ,2,90,6/30/2019,2.31,4,1,42,,
9328363,Luxury building- 2BR/2BA in Chelsea,97480143881,verified,SaeHo,Manhattan,Chelsea,40.74391,-73.99582,United States,US,False,moderate,Entire home/apt,2012,$560 ,$112 ,1,2,4/17/2016,0.05,1,2,50,No smoking.   We do allow pets.,
9328915,I just need to lay my head down,82884234647,unconfirmed,Nka,Manhattan,Harlem,40.81942,-73.94264,United States,US,False,strict,Private room,2005,$587 ,$117 ,1,49,5/26/2019,1.23,1,2,189,,
9329468,Cozy And Clean Harlem Room,43018549604,verified,Sebastian,Manhattan,East Harlem,40.797959999999996,-73.93921,United States,US,False,moderate,Private room,2008,$765 ,$153 ,32,57,2/2/2019,1.46,4,2,164,,
9330020,Cozy room in a brand new building !,20011377913,verified,Catharina,Queens,Rego Park,40.72526,-73.85973,United States,US,False,flexible,Private room,2018,$390 ,$78 ,2,32,7/1/2019,0.81,5,1,114,"Please no smoking, pets or candles in the apartment. Thank you.",
9330572,Charming house in Coney Island,32246990997,unconfirmed,Arthur,Brooklyn,Sea Gate,40.57804,-74.01024,United States,US,False,flexible,Entire home/apt,2005,$86 ,$17 ,1,1,3/28/2016,0.03,4,3,273,No smoking.   We do allow pets.,
9331125,Comfortable and Spacious Bedroom,90377466794,unconfirmed,Arthur,Brooklyn,Sea Gate,40.57857,-74.01012,United States,US,True,strict,Private room,2018,$335 ,$67 ,1,0,,,1,3,47,NO SMOKING AND NO PETS ALLOWED!!,
9331677,Comfortable and Spacious Bedroom B,48008926742,verified,Arthur,Brooklyn,Sea Gate,40.577740000000006,-74.01021999999999,United States,US,False,strict,Private room,2017,$883 ,$177 ,1,2,3/28/2016,0.05,3,3,372,,
9332229,Room right on Central Park!,18679884066,unconfirmed,Mia,Manhattan,East Harlem,40.79663,-73.94893,United States,US,True,moderate,Private room,2005,$912 ,$182 ,1,5,8/20/2016,0.13,5,1,200,"- Please be quiet in the hallway/stairs late at night - I live in a small apartment building (5 apartments), my neighbors are young professionals (no college students) and are very quiet and polite  so please reciprocate - No overnight guests that are not on the reservation/have not been agreed upon in advance. - No smoking in the apartment, out the window, etc.   -Please be mindful of shutting off lights, air conditioners, etc when not in use/when leaving the apartment. -If you cook please take care of your dishes (you can use the dishwasher).",
9332782,Private Theatre District Bedroom,67988325277,unconfirmed,David,Manhattan,Hell's Kitchen,40.75857,-73.98942,United States,US,True,flexible,Private room,2016,$149 ,$30 ,2,6,12/17/2016,0.16,4,1,300,Please observe quiet after 11pm. Please tidy up if you use any dishes. Please no smoking.,
9333334,Comfortable 420 Friendly Room,26823257869,verified,Virginia,Brooklyn,Williamsburg,40.70922,-73.95232,United States,US,False,moderate,Private room,2015,$486 ,$97 ,1,25,5/13/2019,0.63,4,1,181,"Please be respectful of our neighbors. No loud parties and music, but have fun!",
9333886,Nice Big Room With Backyard.,88151652449,verified,Joey,Brooklyn,Williamsburg,40.70766,-73.95215999999999,United States,US,True,flexible,Private room,2015,$768 ,$154 ,2,138,6/20/2019,3.63,2,1,373,,
9334438,Modern Artsy Room in BK Near Subway,1005052569,unconfirmed,Tyrone,Brooklyn,Crown Heights,40.66633,-73.93507,United States,US,True,moderate,Private room,2018,$181 ,$36 ,3,0,,,2,1,333,,
9334991,Beautiful Sunny Fire Escape Room,24043721451,verified,Sushanti,Brooklyn,Bushwick,40.69305,-73.90825,United States,US,True,flexible,Private room,2021,"$1,048 ",$210 ,2,21,6/11/2019,0.53,5,1,255,,
9335543,NY Queens Penthouse = 1MASTER aka Manhattan Room,74308698039,verified,Iris,Queens,Kew Gardens,40.709109999999995,-73.8296,United States,US,True,flexible,Private room,2006,$442 ,$88 ,9,2,9/10/2018,0.17,5,4,371,,
9336095,NY Queens Penthouse HOME with Patio,5669825364,unconfirmed,Iris,Queens,Kew Gardens,40.707640000000005,-73.83116,United States,US,False,strict,Entire home/apt,2019,$227 ,$45 ,9,2,1/3/2019,0.22,2,4,288,"Please Note: This unit was just renovated in February 2016 and it comfortably accommodates one to three guests, but up to 4 guests are permitted if you so desire (two guests in the bedroom, 1 guest on the available twin air mattress and 1 guest on the sofa). Please request an air mattress (if needed) when making a reservation. No smoking, no pets, no parties, and must be 25 years old to book.   For check-out, please ensure: -  All plates and cups are left in the sink or dishwasher -  All trash is left in the kitchen trash can or bagged and left next to the trash can (additional bags are under the sink) -  All windows are closed and locked -  If used, the air mattress is deflated and put away (please leave used linens for the air mattresses on the floor) -  If furniture was moved during your stay, please return to its original location Please be mindful to our neighbors in the building; quiet hours after 10pm. Please be considerate of our next guests who will be staying after you, if so",
9336648,Lrg 2 BR Duplex Top 2 Flrs Terrace West Village,48007988531,unconfirmed,Atul,Manhattan,Greenwich Village,40.73426,-73.99476,United States,US,True,flexible,Entire home/apt,2005,$733 ,$147 ,3,11,5/4/2019,0.28,3,1,400,"We are in a neighborhood where families and people live, so we expect respect to all our rules that imply not disturbing the neighbors around us. We don't allow smoking ( any kind of smoking including cigars, or anything else) in the unit or outside ( meaning at the door). If there is smell of cigarette or any other type of smell in the apartment  such as in bedding, furniture, etc. we will discount the complete security deposit, no exceptions.    Excessive cleaning from misuse of the place will have extra cleaning charges. We don't allow loud music or noise that will bother our neighbors.  We are happy to host people who will treat this unit as an apartment not as a hotel room.  **We are in the city so some noise from the streets, traffic, people, and other noise out of control might be heard but can't have any liability over the noise that might occur.",
9337200,On 5th Ave! Easy to shopping,14228042866,verified,Eva,Manhattan,Chelsea,40.738440000000004,-73.99262,United States,US,True,strict,Private room,2012,$743 ,$149 ,60,0,,,5,1,220,,
9337752,Your lovely and cozy space 7 train,14053810859,unconfirmed,Sophie,Queens,Elmhurst,40.74485,-73.87552,United States,US,False,strict,Private room,2006,"$1,003 ",$201 ,1,108,7/7/2019,2.71,5,8,390,"Please treat this like you would your own home, and be respectful of the space. This is our home too and not just a hotel to make extra money. If you smoke, please do so outside. Having guests over is fine, but be courteous of our neighbours. Please do clean the dishes and leave them inside the dish washer to dry. Don't hesitate to reach out to us if you have any issues!",
9338305,Luxury IBR apmt in Crown Heights,11335939107,verified,Olivia Loksing,Brooklyn,Crown Heights,40.66505,-73.95213000000001,United States,US,False,strict,Entire home/apt,2012,$200 ,$40 ,2,2,5/14/2016,0.05,5,1,417,"Please feel free to use anything in the kitchen as needed, but please clean up after yourself. Please don't use metal utensils on the pots/pans as it can scratch the non-stick surface.",
9338857,1BD Park views UWS,63640151264,unconfirmed,Tracy,Manhattan,Upper West Side,40.799820000000004,-73.96191999999999,United States,US,True,flexible,Entire home/apt,2019,$995 ,$199 ,2,16,6/1/2019,0.42,4,1,304,Please treat the home like it was your own.  No smoking or pets allowed.,
9339409,Stunning Central Park West Location,87566308977,unconfirmed,Jarett,Manhattan,Upper West Side,40.77713,-73.97758,United States,US,False,flexible,Entire home/apt,2018,$236 ,$47 ,1,43,6/21/2019,1.12,1,1,0,,
9339961,Cozy private 1.5BR Garden Apartment w/ backyard,29433182591,unconfirmed,Amber,Manhattan,Washington Heights,40.84915,-73.93316999999999,United States,US,True,flexible,Entire home/apt,2018,$134 ,$27 ,5,24,4/24/2019,1.39,5,1,37,,
9340514,Modern Studio in Middle Village,30527382282,unconfirmed,Florin,Queens,Maspeth,40.72153,-73.88753,United States,US,True,strict,Entire home/apt,2019,$295 ,$59 ,3,64,6/23/2019,1.6,5,1,86,,
9341066,Forte Green Townhouse Room Rental,51865767147,verified,Brian,Brooklyn,Clinton Hill,40.69619,-73.96944,United States,US,True,flexible,Private room,2008,$76 ,$15 ,1,17,6/1/2019,1.51,1,2,244,,
9341618,Private Room in Upper West Side,30809741607,verified,Ruokun,Manhattan,Upper West Side,40.788070000000005,-73.97406,United States,US,True,strict,Private room,2009,$259 ,$52 ,1,0,,,1,1,245,"House Rules 1. Check-in is 4 pm local time. If the unit is ready earlier, we’ll let you know. Check-out is normally 11 am local time, but we’d be happy to extend it as long as we don’t have a cleaning scheduled. Just let us know.  2. All bookings require a security deposit of at least $300, which will be refunded within 7 days of your check-out. 3. For security measures we require all guests to provide proof of identification through ID verification on our own website. In order to check in we'll need a photo of your ID.  4. Our cancellation policy is as shown on our ad and defined by the site you are booking through.  5. Don’t let $300 go up in smoke. There's no smoking allowed in any Flatbook and a $300 fine for breaking this rule.  6. Unfortunately we don’t allow pets in any of our apartments. 7. Unless you’re staying in one of our specialty apartments, we don’t allow parties or excessive noise. 8. If we find the place very messy, we have to charge an extra $40 for every extra hour o",
9342171,The Healing Place,50558548133,verified,Valerie,Brooklyn,Crown Heights,40.67292,-73.94033,United States,US,False,moderate,Entire home/apt,2017,$125 ,$25 ,3,70,6/3/2019,1.79,5,1,238,Smoke deck out back.,
9342723,"Big apartment, comfy - calm bedroom",89057574488,unconfirmed,Nicolas,Manhattan,Harlem,40.815740000000005,-73.94870999999999,United States,US,False,moderate,Private room,2020,$69 ,$14 ,1,98,6/20/2019,2.5,4,1,269,Smoking and drugs are not permitted on the property. Please remove outdoor shoes at the front door.,
9343275,Beautiful Studio Near Prospect Park,43402942813,unconfirmed,Christine,Brooklyn,Prospect-Lefferts Gardens,40.660990000000005,-73.96083,United States,US,False,flexible,Entire home/apt,2004,$640 ,$128 ,1,0,,,4,1,405,"We're laid back and don't have too many rules! There is a porch outside if you need to smoke. We like to keep our home neat and hope you help us keep it how you find it!  We do ask that you do not bring guests back. This is a way for us to control who is in our home, and it means a lot to us.  As for noise, just be reasonable. If it's getting late, you know the drill :)",
9343828,Adorable Upper East Side Studio,5506590073,verified,Kristin,Manhattan,Upper East Side,40.78115,-73.9466,United States,US,False,strict,Entire home/apt,2016,$601 ,$120 ,4,0,,,3,1,274,,
9344380,Luxury Harlem Apartment,18942527855,unconfirmed,Bryant,Manhattan,Harlem,40.8097,-73.94256,United States,US,True,moderate,Entire home/apt,2004,$978 ,$196 ,5,15,9/4/2017,0.38,2,1,215,No shoes on in the house. My home is 420 friendly yet no cigarettes. You will not have access to a key but you will be able to come and go freely.,
9344932,Cozy Room,20048370267,verified,R,Manhattan,Theater District,40.75827,-73.98825,United States,US,False,moderate,Private room,2007,"$1,175 ",$235 ,5,4,10/17/2016,0.1,1,1,59,- Weekly and monthly prices are much lower - Please verify all prices with Angel before booking. - The price is based on double occupancy. $50. per person per night. - Single rooms $64. per night per person,
9345484,Luxury Penthouse w/ Roofdecks,68481445172,verified,Albert,Manhattan,East Village,40.72399,-73.99109,United States,US,False,flexible,Entire home/apt,2016,$947 ,$189 ,4,19,5/17/2019,0.51,3,1,85,No Smoking in the Building.,
9346037,Beautiful private room in Bedstuy,67558619698,verified,Andrew,Brooklyn,Bedford-Stuyvesant,40.68464,-73.95002,United States,US,False,flexible,Private room,2016,$879 ,$176 ,4,1,5/15/2016,0.03,4,1,57,"Please, No pets No smoking in the building.  Thank-you.",
9346589,Charming 1 Bedroom in Chelsea!,41479072759,verified,Melissa,Manhattan,Chelsea,40.74507,-73.99452,United States,US,True,flexible,Entire home/apt,2003,$206 ,$41 ,7,6,9/9/2017,0.16,5,1,138,No smoking. No pets No visitors Cleaning of rooms & toilets will be down by guest after use and at check out. A surcharge of $50 will be imposed if guests smoke within the property. Sanitary pads are not allowed in the WC. Kitchen utensils are to be cleaned after use always. If you lose the keys $20 surcharge will be imposed for replacement. ,
9347141,Luxury room in 2 bedroom apartment,19200000336,unconfirmed,Zhenni,Brooklyn,Midwood,40.62462,-73.95508000000001,United States,US,True,strict,Private room,2009,$835 ,$167 ,2,5,10/23/2017,0.13,2,1,25,No Pets. Not smoking please :) ,
9347694,Downtown style in the Bronx,30702881926,unconfirmed,Mark,Bronx,Mott Haven,40.8098,-73.92149,United States,US,True,moderate,Private room,2022,$868 ,$174 ,10,0,,,2,1,406,"1. No additional guests without the expressed written permission of the owner.  This rental offer is for one person. 2.  Never any smoking indoors.   3.  No pets, not even visiting pets are allowed. 4.  Be considerate with television loudness and other noise after 10 pm. 5.  Keep kitchen and common areas clean after use. 6.  Enjoy your stay in our home as our roommate!!",
9348246,"Spacious, Sunny, Happy Studio",4116731105,unconfirmed,Anna,Manhattan,Washington Heights,40.85496,-73.93406,United States,US,True,flexible,Entire home/apt,2012,$962 ,$192 ,2,0,,,5,1,252,"We live and let live - hoping that you'd be respectful, will care for the property, and enjoy your time! 1. The building is not pet friendly. Hence, no pets please. 2. Smoking outside/porch area only. 3. You are free to use our kitchen, but we expect you to clean up after yourself. 4. Please clean up any mess you make in the room. 5. Please treat the common amenities with respect. 6. Please ensure the bathrooms are clean post use.",
9348798,"UES area ,Luxury modern quiet private Apt",45321546585,verified,Mey,Manhattan,East Harlem,40.78784,-73.94998000000001,United States,US,True,strict,Entire home/apt,2007,"$1,178 ",$236 ,5,88,6/24/2019,2.23,3,1,310,,
9349351,Comfy Bed Stuy 1br with Balcony,17930168073,unconfirmed,Christine,Brooklyn,Bedford-Stuyvesant,40.69764,-73.94929,United States,US,False,strict,Entire home/apt,2012,$387 ,$77 ,3,10,7/5/2018,0.26,2,1,302,Absolutely no smoking or pets.,
9349903,TRENDY Brooklyn room,59313615879,verified,Alina,Brooklyn,Bushwick,40.6826,-73.90411,United States,US,True,strict,Private room,2007,$877 ,$175 ,6,28,4/14/2019,0.7,5,2,192,"There's no cleaning fee, so we'd appreciate relative tidiness.",
9350455,Cute & Cozy Cobble Hill Apt,1201898340,unconfirmed,Carla,Brooklyn,Columbia St,40.68685,-74.00112,United States,US,True,moderate,Entire home/apt,2012,$811 ,$162 ,2,14,5/2/2017,0.36,3,1,128,No Smoking facility,
9351007,Spacious Studio Apartment,1708517753,unconfirmed,Beth,Manhattan,Upper West Side,40.7771,-73.97729,United States,US,False,moderate,Entire home/apt,2007,"$1,059 ",$212 ,3,36,6/23/2019,0.93,5,1,164,"- The price is based on double occupancy. $50. per person per night. - Check prices with host before booking - The price is based on double occupancy $300 per person per week. And $1000 monthly per person. - Single room $64 per night. Weekly, $350. Monthly $1204",
9351560,Cozy shared male room in center of Manhattan III\),92310660451,verified,Max,Manhattan,Lower East Side,40.71171,-73.98871,United States,US,True,strict,Shared room,2021,$558 ,$112 ,14,0,,,3,28,186,,
9352112,Luxury Full Central Park View Apart,23580369004,verified,Tanya,Manhattan,Upper West Side,40.800309999999996,-73.95846999999999,United States,US,True,moderate,Entire home/apt,2003,$398 ,$80 ,2,6,12/11/2016,0.16,5,1,323,,
9352664,Sunny Private Brooklyn Bedroom w/ Backyard Access,60856300301,unconfirmed,Elissa,Brooklyn,Crown Heights,40.672979999999995,-73.95561,United States,US,True,flexible,Private room,2021,"$1,078 ",$216 ,7,1,7/15/2016,0.03,4,3,19,,
9353217,Private bedroom for 2-4 night stay in Clinton Hill,57141645427,unconfirmed,Patrick,Brooklyn,Clinton Hill,40.69011,-73.96656,United States,US,False,moderate,Private room,2003,$800 ,$160 ,2,0,,,1,1,146,"It is VERY important to me that you respect my belongings. I have lots of art, antiques, knick-knacks, books, fragile items, etc. Feel free to borrow a book as long as you return it in the same condition that you found it! Otherwise, please do not pick up or play with my things, go through my drawers, etc. My things are very loved by me, and most cannot be replaced. There will be ZERO tolerance for disrespect or cruelty towards my cats.",
9353769,NYC Midtown West 1 bedroom luxury apartment!,58951552445,verified,Kara,Manhattan,Midtown,40.76571,-73.98312,United States,US,True,flexible,Entire home/apt,2007,$56 ,$11 ,30,0,,,1,121,294,"PARKING Overnight and weekends, you can park on the street right in front of the house (please DO NOT use the neighbor's driveway).  During weekday commuting hours, you can park on Linwood Street.  Street cleaning alternates from one side to the other on Tuesday mornings, so please park on the appropriate side if you're going to leave your car - the signage is good. KITCHEN The occasional coffee mug and pot is fine to leave behind in the sink on your dash to the airport, but we expect that you'll restore dishes and cookware to their originally clean state after use. WIFI The password is basket4210baked NO SMOKING INSIDE Feel free to light up outside, but please dispose of butts properly. QUIET PLEASE The apartment is one of three in the building - the other two are occupied by professional folks who are respectful of their neighbors and the tranquility of the neighborhood.  We expect they'll be treated in kind. HEATING/COOLING Please turn a/c off when not in the apartment. The heat run",
9354321,Location Chambre,52351470900,unconfirmed,Erwan,Brooklyn,Bedford-Stuyvesant,40.69363,-73.95084,United States,US,True,moderate,Private room,2004,$329 ,$66 ,1,0,,,5,1,406,"This is a self-service room.  The common areas are professionally cleaned but please be considerate and clean up after yourselves in common areas - especially after cooking and eating or using the bathroom.  Smoking is allowed outside. No street shoes allowed in the apartment so be sure to bring house slippers. We recycle and have provided the necessary information so that you can too. Reusable containers for storing food and shopping bags for shopping are provided.  Please consider the environment and do not bring plastic bags or plastic wrap into this house. When in doubt, ask me!",
9354874,Entire huge 2BR Apt in East Village - Aug. 14-27!!,20399872189,verified,John,Manhattan,East Village,40.72716,-73.98264,United States,US,True,moderate,Entire home/apt,2011,$386 ,$77 ,4,3,8/26/2016,0.08,5,1,60,"This is a self-service room.  The common areas are professionally cleaned but please be considerate and clean up after yourself in common areas - especially after cooking and eating or using the bathroom.  No street shoes in the house, por favor, bring slippers. Smoking is allowed outside. We recycle and have provided the necessary information so that you can too. Reusable containers for storing food and shopping bags for shopping are provided.  Please consider the environment and do not bring plastic bags or plastic wrap into this house. When in doubt, ask me!",
9355426,Plush Studio Apartment in Midtown West NYC,5179408504,verified,Kara,Manhattan,Hell's Kitchen,40.766259999999996,-73.98342,United States,US,False,flexible,Entire home/apt,2015,"$1,019 ",$204 ,30,0,,,5,121,186,,
9355978,Sleek 1 BR apt. near major attractions in NYC!,85763370378,verified,Kara,Manhattan,Midtown,40.76536,-73.98199,United States,US,True,moderate,Entire home/apt,2015,"$1,186 ",$237 ,30,0,,,3,121,78,Expect respect for the family and the space--treat it as you would your own home--or better :).,
9356530,Cozy Upper East Side 1 Bedroom,76126630623,unconfirmed,Stefano,Manhattan,Upper East Side,40.77924,-73.94924,United States,US,False,moderate,Entire home/apt,2020,$862 ,$172 ,1,4,7/1/2016,0.1,1,1,259,No pets of any kind.  No loud noise after 11 PM.  ,
9357083,Lux 1 BR NYC Midtown West Apartment,97189467494,unconfirmed,Kara,Manhattan,Hell's Kitchen,40.766420000000004,-73.98326,United States,US,False,moderate,Entire home/apt,2018,$393 ,$79 ,30,0,,,5,121,410,"Absolutely no smoking inside the house, please! There is ample space to do so outside, but please keep our neighbors happy and dispose of butts properly. Also, please keep energy efficiency in mind and turn climate controls off/down when out as well as lights.",
9357635,East Village 1B in 3B apt,65727595454,verified,Angela,Manhattan,East Village,40.729659999999996,-73.98476,United States,US,True,flexible,Private room,2022,$550 ,$110 ,1,2,6/1/2016,0.05,5,1,404,,
9358187,Sophisticated 1 bedroom apt. in Midtown West!,92739047356,verified,Kara,Manhattan,Midtown,40.76567,-73.98308,United States,US,False,flexible,Entire home/apt,2010,$222 ,$44 ,30,0,,,1,121,386,"In order to provide a calm atmosphere for guests, as well as a comfortable and safe environment, the following are the rules of my house. Please be aware of and follow all of them throughout your stay at my home. Most of what follows is common sense or common courtesy. The rules serve to protect you as a guest by helping ensure that the environment you find here is the one that I intended to create.  Please keep in mind:  You will be sharing common areas with me, and the cleanliness of the common areas is more dependent upon all guests cleaning up after themselves than it is upon my cleaning. Most guests do very well in keeping common areas clean!  House rules: Kindly remove shoes upon entering my apartment. I ask this because my hardwood floors are very old, and shoes increase the noise to my elderly downstairs neighbor (who is wonderful, so I do what I can to make life easy for her).  Please try not to drag luggage up the stairs, as it disturbs the other building occupants. Please le",
9358740,Delightful 1BR close to upscale shopping in NYC,76779975644,unconfirmed,Kara,Manhattan,Hell's Kitchen,40.766659999999995,-73.98306,United States,US,False,flexible,Entire home/apt,2013,$106 ,$21 ,30,1,3/31/2018,0.06,2,121,162,,
9359292,Lux 1BR NYC apt. steps from  Carnegie Hall!,41741516835,unconfirmed,Kara,Manhattan,Midtown,40.76511,-73.98345,United States,US,False,moderate,Entire home/apt,2015,"$1,051 ",$210 ,30,0,,,4,121,30,Respect our place please.,
9359844,Peaceful Private Room In Warm Brooklyn Apt,4612076029,unconfirmed,Ryan,Brooklyn,Prospect Heights,40.678340000000006,-73.96685,United States,US,False,flexible,Private room,2012,$142 ,$28 ,180,0,,,3,1,280,,
9360397,"Private room in sunny, modern Bushwick apartment!",77892561951,unconfirmed,Isra,Brooklyn,Bushwick,40.70045,-73.91673,United States,US,False,strict,Private room,2005,$165 ,$33 ,2,30,6/25/2018,0.86,1,1,170,"Quiet Respectful Friendly Clean No smoking of any substance on the property No pets  Leave things as they were found, clean after yourself when checking out",
9360949,Luxury finished MIDTOWN 1 Bed Apt.,41737205378,verified,Alex,Manhattan,Hell's Kitchen,40.75547,-73.99501,United States,US,False,moderate,Entire home/apt,2020,$973 ,$195 ,5,0,,,3,1,83,Keep it clean,
9361501,Clinton Hill Oversized One Bedroom,34285955250,unconfirmed,Eej,Brooklyn,Clinton Hill,40.69106,-73.96529,United States,US,False,flexible,Entire home/apt,2009,$755 ,$151 ,12,13,6/24/2019,0.34,3,3,244,,
9362053,"Spacious, bright on Upper East Side",90478209328,unconfirmed,Charles,Manhattan,Upper East Side,40.77433,-73.94854000000001,United States,US,False,flexible,Private room,2009,$726 ,$145 ,11,9,3/31/2018,0.24,5,1,372,Please treat my house as you would treat your own. Be courteous and aware that this is our full time home. Clean basic messes and respect our property,
9362606,Huge and Sunny Mid Century 1BR,7770261638,verified,Gilad,Brooklyn,Crown Heights,40.678329999999995,-73.9629,United States,US,False,moderate,Entire home/apt,2014,$856 ,$171 ,3,2,4/15/2017,0.05,4,1,288,,
9363158,"Bright, Sunny Room in Clinton Hill",60214485528,unconfirmed,Anne,Brooklyn,Bedford-Stuyvesant,40.69168,-73.95795,United States,US,True,moderate,Private room,2017,$315 ,$63 ,4,4,10/28/2016,0.11,4,1,207,We offer 5 star accommodations and expect guest to treat it in that manner.,
9363710,NYC MIDTOWN WEST LUXURY 1BR APT! CITY VIEWS!,19080038268,verified,Kara,Manhattan,Midtown,40.76545,-73.98156,United States,US,False,flexible,Entire home/apt,2017,$285 ,$57 ,30,1,2/28/2019,0.23,4,121,358,"This is a quiet and professional building. Best for quiet, mature, responsible people. There is a no-pet, no-smoking policy.",
9364263,1 Bedroom Apt in the heart of NYC by Central Park,11856858488,unconfirmed,Kara,Manhattan,Hell's Kitchen,40.76678,-73.98336,United States,US,True,moderate,Entire home/apt,2020,$957 ,$191 ,30,0,,,5,121,114,"Please keep it clean, thats all we really ask from our guest.",
9364815,Luxury bldg Near Flatiron- Chelsea,78542979002,verified,SaeHo,Manhattan,Chelsea,40.74491,-73.99535999999999,United States,US,False,flexible,Private room,2008,$816 ,$163 ,1,1,4/8/2016,0.03,1,2,342,,
9365367,Ground Floor Apartment in Brooklyn!,49791884078,verified,Erica & Tayo,Brooklyn,Bedford-Stuyvesant,40.6805,-73.94612,United States,US,False,moderate,Entire home/apt,2017,$699 ,$140 ,3,88,1/31/2019,2.22,2,1,93,"No street shoes in the house, please, but especially not in the bedrooms. Kitchen privileges vary and can be negotiated with length of stay but for shorter stays the kitchen can be used for food storage, occasional light meal prep, eating, and tea and snacks. Check-in and check-out times are flexible all days except Sunday where check-out is by 11 a.m.   Smokers are welcome to smoke outside.",
9365920,-Modern Living in the Heart of NYC - 1 BR apt.,673238344,unconfirmed,Kara,Manhattan,Hell's Kitchen,40.7663,-73.98359,United States,US,False,flexible,Entire home/apt,2013,$599 ,$120 ,30,0,,,1,121,371,"This is a self-service room.  The common areas are professionally cleaned but please be considerate and clean up after yourselves in common areas - especially after cooking and eating or using the bathroom.  No street shoes inside, please, so be sure to bring house slippers. Smoking is allowed outside. We recycle and have provided the necessary information so that you can too. Reusable containers for storing food and shopping bags for shopping are provided.  Please consider the environment and do not bring plastic bags or plastic wrap into this house. When in doubt, ask me!",
9366472,Private bedroom 5 mins to ColumbiaU,48568540350,verified,Emily,Manhattan,Morningside Heights,40.8131,-73.96074,United States,US,False,moderate,Private room,2003,"$1,141 ",$228 ,2,5,8/29/2016,0.13,5,1,196,"no smoking allowed, leave it how you found it.",
9367024,Upper West Side Split Layout 1 BR,90982789199,unconfirmed,Corporate Housing,Manhattan,Upper West Side,40.78342,-73.97312,United States,US,False,strict,Entire home/apt,2010,$123 ,$25 ,30,9,1/5/2019,0.25,3,91,244,#NAME?,
9367576,Holiday in 2br2ba Williamsburg Apt!,90113989540,verified,Peter,Brooklyn,Williamsburg,40.71697,-73.96204,United States,US,False,flexible,Entire home/apt,2018,$136 ,$27 ,1,16,6/27/2019,0.41,1,3,417,,
9368129,Large 1 Bdrm Apartment in Midwood,52269142350,verified,Jonathan,Brooklyn,Sheepshead Bay,40.60655,-73.952,United States,US,True,flexible,Entire home/apt,2012,$385 ,$77 ,5,9,1/4/2019,0.24,1,1,30,9 star treatment is given and expected.,
9368681,Charming Times Square garden floor apt (sleeps 5),89353426233,verified,Michel And Antoine,Manhattan,Hell's Kitchen,40.761559999999996,-73.99127,United States,US,True,flexible,Entire home/apt,2011,"$1,097 ",$219 ,3,99,6/19/2019,2.56,1,2,329,"Please read the house manual along with the directions... You have plenty of liberty to do as you wish within the space. I will most likely exchange keys in person when arriving. If I'm not around, I'll be confirming the steps to exchange the keys. *As a visitor, if requested by the front desk... you might have to check-in at the lobby counter.",
9369233,Midtown Sleep 6 Central Convenience,38478819999,verified,Adam,Manhattan,Midtown,40.75237,-73.98769,United States,US,True,flexible,Entire home/apt,2019,$688 ,$138 ,1,246,6/21/2019,6.38,4,1,168,"It is VERY important to me that you respect my belongings. I have lots of art, antiques, knick-knacks, books, fragile items, etc. Feel free to borrow a book as long as you return it in the same condition that you found it! Otherwise, please do not pick up or play with my things, go through my drawers, etc. My things are very loved by me, and most cannot be replaced. There will be ZERO tolerance for disrespect or cruelty towards my daughter or my cats.",
9369786,"Sunny, clean, classic NYC apartment",34395401803,unconfirmed,Remy,Manhattan,Chinatown,40.7137,-73.99638,United States,US,False,moderate,Private room,2015,$957 ,$191 ,1,0,,,1,1,84,"No smoking  Smoking and the use of marijuana, tobacco or nicotine in any form is not permitted anywhere on the property (inside or out).  Including, but not limited to; Cigarettes, Pipes, E-cigarettes, Cigars, Hookahs, Bidis, Kreteks, Chewing tobacco, Snuff, Snus, Pellets and other candy-like forms of tobacco.  No parties  There should be no more than 4 people sleeping in the apartment unless other arrangements have been made at the time of booking. Please note that the back yard is not intended for use by Airbnb guests. Please remember that we live in the house too.  You will hear us from time to time as we move around and we will hear you as well and that is to be expected (the sound proofing in the house is not great), but please try to keep things quite after 11pm. We have a tan dog named Marco and a black cat named Pana.  They are both very friendly with people, but they don't share well with other animals, so please no pets in the house.",
9370338,Sunny Sanctuary,43505860024,verified,L.R.,Manhattan,Hell's Kitchen,40.75915,-73.99932,United States,US,True,flexible,Entire home/apt,2011,"$1,086 ",$217 ,2,24,6/2/2019,0.61,5,1,61,Guests are allowed 1 other to accompany must checkin if staying the night an additional 20$/ per night charge will be assessed Check out time is 10am  Late checkout is at 12 noon,
9370890,Sunny Artesian apartment,65566602217,verified,Maria,Brooklyn,Bushwick,40.69993,-73.92504,United States,US,False,strict,Private room,2008,$269 ,$54 ,2,6,5/8/2017,0.15,4,1,268,"No Smoking,  Respect for other guests and neighbors.  Well behaved children only.  Limit noise after 10pm.  Please do dishes/run dishwasher prior to departure.   Parking is available on Linwood and Gardner streets 24 hours.    No parking is permitted on Centre Place.",
9371443,Amazing Views 3BR 2BA Bright and Spacious,51929893416,verified,Elizabeth Anne,Manhattan,Midtown,40.7442,-73.98748,United States,US,True,moderate,Entire home/apt,2007,$832 ,$166 ,2,54,6/19/2019,1.49,2,1,408,"We try to keep the atmosphere conducive to studying and resting and a couple of house-rules are in place to this end.  1. Towels and linens (sheets, blankets, and pillows) are NOT provided. The bed is twin size. 2. No smoking on the premises.  3. No loud music or TV etc.  4. Only for one person (no couples, no visitors). We seldom have visitors, let alone overnight guests. We know this will be a major turn-off to many people, but we believe we can find a like-minded roommate who can have fun outside the house.  5. If you are not sure about your check-out date, you can reserve the minimum days and extend your stay at a discounted rate.  6. Check-in time has to be coordinated at least 48 hours ahead. On arrival, a short registration process with a picture ID is needed in exchange for keys and wifi access.  7. Inside the apartment, we take off our outside shoes. So if you bring your own flip-flops, slippers or some kind of indoor shoes, that will be useful.",
9371995,Spacious 1 Bedroom with City Views,97748010905,unconfirmed,Carolyn,Queens,Astoria,40.76856,-73.92591,United States,US,True,flexible,Entire home/apt,2017,$258 ,$52 ,1,0,,,2,1,-1,,
9372547,HIGH END 2 bed 2ba W&D in Unit!5113,72271239985,unconfirmed,Jeremy & Laura,Manhattan,Upper West Side,40.79565,-73.96584,United States,US,True,moderate,Entire home/apt,2008,$149 ,$30 ,30,1,12/5/2016,0.03,3,96,55,,
9373099,DSGN by Starck!GYM BasketBall Court!5182,11600348236,verified,Jeremy & Laura,Manhattan,Financial District,40.705,-74.00681999999999,United States,US,True,strict,Entire home/apt,2004,$835 ,$167 ,30,2,10/8/2018,0.07,5,96,372,,
9373652,Bed-Stuy Brownstone Studio,10912414719,unconfirmed,John,Brooklyn,Bedford-Stuyvesant,40.68592,-73.9398,United States,US,False,strict,Entire home/apt,2007,"$1,013 ",$203 ,3,3,11/27/2016,0.08,3,1,220,"No aloud music , no outside guests stay over night without owner's permission. No late night party or assembly in this residential unit. No activities forbidden by law of any kinds. No over night stay guest without permission and payment.",
9374204,Best Place in the Center of NYC!,48509037095,unconfirmed,Tim,Manhattan,Chelsea,40.739740000000005,-74.00069,United States,US,True,flexible,Entire home/apt,2004,$405 ,$81 ,1,55,1/1/2019,1.41,4,1,278,Respect the neighbors and stay quiet.  No smoking. No party. This is very important for us !!!!,
9374756,Room in sunny art-filled Harlem apt,84854243561,unconfirmed,Shawn,Manhattan,Harlem,40.82119,-73.95555999999999,United States,US,True,moderate,Private room,2006,$425 ,$85 ,1,16,10/16/2016,0.4,4,2,339,,
9375309,Sunny 1 bedroom in Williamsburg,22695979376,unconfirmed,Kendra,Brooklyn,Williamsburg,40.7139,-73.95615,United States,US,True,flexible,Private room,2009,$673 ,$135 ,1,1,3/30/2016,0.03,4,1,165,,
9375861,"Cool Brooklyn, Close to Manhattan",84183180423,verified,Maya,Brooklyn,Bedford-Stuyvesant,40.68823,-73.93366999999999,United States,US,False,strict,Entire home/apt,2021,$439 ,$88 ,2,181,6/23/2019,4.73,1,1,17,,
9376413,"nice backyard, cool roommates",44273988299,verified,Kenny,Brooklyn,Crown Heights,40.67458,-73.94214000000001,United States,US,True,strict,Private room,2016,$654 ,$131 ,10,0,,,3,1,360,"Family friendly, no smoking please. Please bring trash outside, clean dishes before departure. Please be courteous to our neighbors no parties or pets are allowed.",
9376966,Modern 1BR apt- prime Times Square location!!,37811124167,unconfirmed,Kara,Manhattan,Midtown,40.76506,-73.98236,United States,US,True,flexible,Entire home/apt,2018,"$1,011 ",$202 ,30,0,,,5,121,224,,
9377518,Sunny Charming Clinton Hill Apartment,95277407345,verified,Ben,Brooklyn,Bedford-Stuyvesant,40.68158,-73.95798,United States,US,False,strict,Entire home/apt,2012,$339 ,$68 ,31,6,5/31/2019,0.15,1,1,307,No smoking. No pets No visitors Cleaning of rooms & toilets will be down by guest after use and at check out.  A surcharge of $50 will be imposed if guests smoke within the property.  Sanitary pads are not allowed in the WC.   Kitchen utensils are to be washed after use always.  If you lose the keys $20 surcharge will be imposed for replacement. Turn off all lights and electronics  in your room if not in use or not home.,
9378070,Tudor Studio (Wifi/Premium Cable) w Private Entry,5453627582,verified,Louise,Brooklyn,Flatbush,40.643190000000004,-73.96729,United States,US,True,flexible,Entire home/apt,2022,"$1,148 ",$230 ,1,5,8/7/2017,0.14,1,3,0,"Our house is an eco-friendly, vegan, minimalistic one and we ask that guests adhere to the following guidelines: 1. No animal products such as eggs, dairy, meat, or by products are to be prepared in the kitchen.  These products may be wrapped and stored in the refrigerator in such a way that does not contaminate other foods. 2. Compost (red ceramic container next to the sink) all food waste and recycle (all paper, plastic and glass either in black bin in your room or white bin in the kitchen) before throwing something out.  We have a bin for donations if there is something you no longer need but does not easily recycle.  And please ask if you have any questions. 3. Shoes are not required to be removed but we do ask that any wet/muddy shoes and coats be removed at the door and hung up. 4. For long-term guests we will wash sheets once a week, please let us know if we should strip the bed or if you will leave these in the hamper. 5. Our check in time is any time after 5 PM, departure must",
9378622,Large Quiet Bedroom in South Harlem,58715238650,verified,Kim,Manhattan,Harlem,40.80726,-73.95178,United States,US,False,flexible,Private room,2007,$278 ,$56 ,5,106,6/19/2019,2.7,2,1,361,#NAME?,
9379175,Amazing 2 BR NYC apt. with up-to-date amenities!,77720369944,verified,Kara,Manhattan,Midtown,40.76657,-73.98201,United States,US,True,moderate,Entire home/apt,2019,$424 ,$85 ,30,1,10/30/2018,0.12,2,121,86,,
9379727,Luxury 2BR-Apt. next to Central Park,29618523334,unconfirmed,Kara,Manhattan,Midtown,40.765370000000004,-73.98298,United States,US,False,strict,Entire home/apt,2006,$901 ,$180 ,30,0,,,4,121,419,No smoking allowed in the house.  No pets.  No loud music or partying allowed at night.  Please respect the property as you would your own house.,
9380279,5th ave & Broadway nr Times Square,84080534183,unconfirmed,Feli,Manhattan,Midtown,40.74749,-73.98873,United States,US,False,strict,Entire home/apt,2009,$844 ,$169 ,1,172,6/14/2019,4.33,1,1,1,,
9380832,"Prime Williamsburg, Brooklyn",3746853314,unconfirmed,Dave,Brooklyn,Williamsburg,40.71334,-73.96056,United States,US,True,moderate,Private room,2017,$730 ,$146 ,1,0,,,3,1,82,"No smoking inside the house.  Please respect the space, as this is our home.",
9381384,Brooklyn Summer Haven- Private Room!,48046131733,verified,Ruby,Brooklyn,Bedford-Stuyvesant,40.67988,-73.92687,United States,US,True,strict,Private room,2006,$184 ,$37 ,1,0,,,5,1,259,,
9381936,Cute and Cozy 1br one block from Central Park,40575838375,unconfirmed,Jemme,Manhattan,Upper East Side,40.7672,-73.9695,United States,US,False,moderate,Entire home/apt,2009,"$1,117 ",$223 ,3,0,,,4,1,370,"Guests are to clean after themselves after bathroom, kitchen, dinning, bed rooms and living room use. No smoking is allowed in the apartment. No pets are allowed Keys are to be returned where designated post reservation stay. Any damages to the property or its contents must be reported immediately",
9382489,"Sunny, Large West Village 1 BR Near Everything",28429000802,verified,,Manhattan,Chelsea,40.73949,-73.99801,United States,US,True,strict,Entire home/apt,2018,$723 ,$145 ,4,81,7/2/2019,2.11,2,1,139,"As the apartment is currently occupied by students, I ask that guest don't host parties here!",
9383041,SoBro Guest House,59406031421,verified,Fran & Jason,Bronx,Mott Haven,40.80903,-73.92143,United States,US,False,flexible,Entire home/apt,2008,$557 ,$111 ,3,142,6/25/2019,3.59,4,1,47,"COMMON SENSE  -----------------  Common sense is the greatest rule :-) We all have it, so lets try to utilize it. FOOD AND DRINK  ---------------------- Kitchen is user friendly. Please clean up after yourself. Please eat and drink in the kitchen. No food is permitted in the guest rooms because of the potential for unwanted pests. Only bring water into the room. Feel free to use all the kitchen tools you may find useful but please when you are done, wash it. The host of the house is happy to show you how to use it. TOWELS, SHEETS AND PILLOWS  ---------------------  Upon your arrival you are given a couple of towels. Laundry service is not offered, there is a laundromat located close by within walking distance. Sheets/Towels are cleaned and changed every week. BATHROOMS  -------------------- Please limit your shower to 15 mins (This rule is in effect because previous guest have taken 45 - 60 min showers (to soothe their stress) Not only are you depriving your fellow guest of hot water, ",
9383593,Studio Apt. near Empire State Bldg 4B,95252068620,unconfirmed,Nina,Manhattan,Midtown,40.749390000000005,-73.98292,United States,US,True,moderate,Entire home/apt,2012,$390 ,$78 ,30,9,4/21/2019,0.24,2,14,246,"Please have a great time but ask me before you have guests, discuss parking, no animals, no loud music, no smoking or drugs, no prostitution or smuggling and please be very respectful of owners, tenant's  and neighbors. Boston is a very exciting city, we ask that you enjoy it but when you enter the premises, we also ask that you leave the party at the party. Please leave the unit as you received it and enjoy a relaxing stay!",
9384145,Charming UES Studio,24459298570,unconfirmed,Alicia,Manhattan,Upper East Side,40.77117,-73.95851,United States,US,True,strict,Entire home/apt,2009,"$1,078 ",$216 ,7,13,8/20/2017,0.34,3,1,5,- Quiet time after 15,
9384698,"Spacious, Family-Friendly, UWS Duplex w/ Huge Yard",34005652237,verified,Amos Rothschild,Manhattan,Upper West Side,40.7889,-73.9729,United States,US,True,strict,Entire home/apt,2014,$774 ,$155 ,5,3,12/31/2018,0.08,4,1,240,I expect my guests to act as though they were in their own home. Make yourself comfortable. Enjoy the city. Put the toilet seat down. :) ,
9385250,Studio + private outdoor Patio UWS,6637133901,verified,Pooran,Manhattan,Upper West Side,40.78216,-73.9835,United States,US,True,moderate,Entire home/apt,2005,$255 ,$51 ,1,8,3/10/2019,0.2,3,1,203,,
9385802,Convenient Apt w/ private bathroom!,62200194375,verified,Weiyi,Manhattan,Upper West Side,40.79546,-73.96452,United States,US,False,flexible,Private room,2004,"$1,137 ",$227 ,3,2,8/6/2016,0.05,2,1,37,,
9386355,Huge Bedroom in Upper Manhattan - Near A&1 Subway!,52421618502,verified,Jeff,Manhattan,Inwood,40.86399,-73.92321,United States,US,False,moderate,Private room,2004,"$1,162 ",$232 ,3,150,6/30/2019,3.85,3,1,9,"In order to provide a healthy, comfortable and safe environment, the following are the rules of my house. It is your responsibility to not only read these rules once, but to be aware of and follow all of them throughout your stay at my home. Most of what follows is common sense or common courtesy. The rules serve to protect you as a guest by helping ensure that the environment you find here is the one that I intended to create. Please keep in mind:  You will be sharing common areas with other guests or residents, and thus the cleanliness of the common areas is far more dependent upon all guests cleaning up after themselves, than it is upon my once a week cleaning. Most guests do very well in keeping common areas clean! House rules: Please do not drag luggage up the front stairs. Please leave things as they are in your room: do not remove pictures from walls, don't move furniture around, and do not remove mattress protector from the mattress. Also, it should not be necessary to say, but",
9386907,DSGN By Starck/ Washer & Dryer Basket Ball!5149,11893382857,verified,Jeremy & Laura,Manhattan,Financial District,40.7035,-74.00713,United States,US,True,flexible,Entire home/apt,2019,$243 ,$49 ,30,2,12/31/2016,0.06,4,96,215,No Smoking in the Building.  ,
9387459,"Cozy, Private Room in Astoria!",71564004693,unconfirmed,Katie,Queens,Astoria,40.76703,-73.9166,United States,US,False,flexible,Private room,2007,"$1,093 ",$219 ,1,0,,,4,1,93,"We live on a quiet street with many friendly homeowners, please be courteous of neighbors.  Our welcome binder includes helpful information.",
9388012,LuXe*Chef'sKitchen*forestGarden*patio.Marble.ART,80210938885,unconfirmed,Sara,Brooklyn,Bushwick,40.69055,-73.92071,United States,US,True,moderate,Entire home/apt,2022,$150 ,$30 ,1,48,1/3/2019,1.22,4,2,355,,
9388564,Cozy studio steps to the beach,34655904464,unconfirmed,Eric,Queens,Belle Harbor,40.579409999999996,-73.84844,United States,US,False,moderate,Private room,2016,$241 ,$48 ,1,35,6/30/2019,0.92,3,1,303,,
9389116,RENOVATED APT NEXT TO EXPRESS TRAIN,76492179831,unconfirmed,Caty,Manhattan,Harlem,40.826,-73.94314,United States,US,True,moderate,Private room,2020,$964 ,$193 ,2,5,8/31/2016,0.13,2,1,326,"House Rules 1. All bookings made at least a week before check in are fully refundable if cancelled within 24 hours of booking. After this, you will receive a 50% refund if you cancel at least 7 days before the start of your trip. 2. Check-in time is any time after 4 pm local time. If the unit is ready earlier, we’ll let you know. Check-out is normally 11 am local time, but we’d be happy to extend it as long as we don’t have a cleaning scheduled. Just let us know.  3. All bookings require a security deposit of at least $300. 4. For security measures we require all guests to provide proof of identification through ID verification on our own website. In order to check in, we'll need a photo of your ID.  5. Don’t let $300 go up in smoke. There's no smoking allowed in any Flatbook and a $300 fine for breaking this rule.  6. Unfortunately we don’t allow pets in most of our apartments. 7. Unless you’re staying in one of our specialty apartments, we don’t allow parties or excessive noise. 8. I",
9389668,Modern loft,1168947622,verified,Dee,Manhattan,West Village,40.73552,-74.00615,United States,US,True,moderate,Entire home/apt,2011,$116 ,$23 ,1,3,7/23/2016,0.08,5,2,180,"Unlike most other Airbnb listings, what we do here is long-term rentals by the year, or by the semester.  We try to keep the atmosphere conducive to studying and resting and a couple of house-rules are in place to this end.  1. Towels and linens (sheets, blankets, and pillows) are NOT provided. The bed is full size. 2. No smoking on the premises.  3. No loud music or TV etc.  4. Only for one person (no couples, no visitors). We seldom have visitors, let alone overnight guests. We know this will be a major turn-off to many people, but we believe we can find a like-minded roommate who can have fun outside the house.  5. If you are not sure about your check-out date, you can reserve the minimum days and extend your stay at a discounted rate.  6. Check-in time has to be coordinated at least 48 hours ahead. On arrival, a short registration process with a picture ID is needed in exchange for keys and wifi access.  7. Inside the apartment, we take off our outside shoes. So if you bring your o",
9390221,Family Friendly 2.5 Bedroom,2993715599,verified,Helena,Brooklyn,Carroll Gardens,40.68124,-73.99601,United States,US,True,moderate,Entire home/apt,2003,"$1,054 ",$211 ,7,0,,,2,1,123,"Shoes off apartment (slippers available to guests) No smoking of any substance on the property Respectful Friendly Quiet Leave things as they were found, clean after yourself  No dishes left in the sink  Please use blue cups, bowls, utensils and plates and  Store dry foods in 3rd tall pantry cabinet for your personal food storage and store food in the fridge on the 1st top row Guests may not have additional guests without clearing them with me first",
9390773,Spacious 1 BR in East Village!,10896975801,verified,Mike,Manhattan,Gramercy,40.73375,-73.98704000000001,United States,US,False,strict,Entire home/apt,2004,$615 ,$123 ,3,12,7/21/2016,0.3,2,1,-2,No smoking allowed in the house.  No pets.  No loud music or partying allowed at night.  Please respect the property as you would your own house.,
9391325,Iris: STG GoYankees!,60448206562,unconfirmed,Gayle,Bronx,Longwood,40.81928,-73.90933000000001,United States,US,False,strict,Private room,2013,$529 ,$106 ,2,47,5/10/2019,1.22,4,4,340,,
9391878,Perfect Location in New York City,13742891393,unconfirmed,Vanessa,Manhattan,Lower East Side,40.712509999999995,-73.9889,United States,US,True,moderate,Private room,2022,$301 ,$60 ,3,8,8/8/2016,0.21,2,1,109,"There are real beds for eight. Linens, sheets, towels,  basic kitchen and basic toiletries are provided. Please leave the house in the condition that you found it. This unit is a townhouse with two neighbors attached side by side to the building. Please be respectful and keep noise to a minimum after 11pm and before 7am.  ""NO SMOKING"" ""NO PARTIES Thank you!",
9392430,Warm & Cozy Sunflower Room:STG,31009275508,unconfirmed,Gayle,Bronx,Longwood,40.81725,-73.90929,United States,US,False,flexible,Private room,2016,$960 ,$192 ,2,31,3/18/2019,0.81,2,4,271,"No Smoking in the house,  Respect and take care of apartment.  Any dishes you use should be clean/dishwasher loaded and run..  ",
9392982,Jasmine: Lovely Secret Tea Garden!,7210580980,unconfirmed,Gayle,Bronx,Longwood,40.819109999999995,-73.90939,United States,US,True,strict,Private room,2012,"$1,002 ",$200 ,2,77,6/12/2019,1.96,5,4,416,Please remove your shoes at the door and use coasters for drinks on any furniture.,
9393535,Cozy 1 bd apt In the heart of Crown Heights,19476089653,unconfirmed,Lonnie,Brooklyn,Crown Heights,40.67593,-73.94291,United States,US,True,strict,Entire home/apt,2020,$108 ,$22 ,1,38,7/1/2019,2.49,2,1,154,"House Rules 1. Check-in is 4 pm local time. If the unit is ready earlier, we’ll let you know. Check-out is normally 11 am local time, but we’d be happy to extend it as long as we don’t have a cleaning scheduled. Just let us know.  2. All bookings require a security deposit of at least $300, which will be refunded within 7 days of your check-out. 3. For security measures we require all guests to provide proof of identification through ID verification on our own website. In order to check in we'll need a photo of your ID.  4. Our cancellation policy is as shown on our ad and defined by the site you are booking through.  5. Don’t let $300 go up in smoke. There's no smoking allowed in any Flatbook and a $300 fine for breaking this rule.  6. Unfortunately we don’t allow pets in any of our apartments. 7. Unless you’re staying in one of our specialty apartments, we don’t allow parties or excessive noise. 8. If we find the place very messy, we have to charge an extra $40 for every extra hour o",
9394087,Master Bedroom w/ King Bed,28816992227,verified,Stephen,Brooklyn,Fort Hamilton,40.61645,-74.03108,United States,US,False,flexible,Private room,2022,$729 ,$146 ,23,0,,,1,1,245,"No Smoking in building,  Respect for other guests and neighbors.  Quiet after 10 pm. Parking is available on Linwood and Gardner streets 24 hours.  No parking is permitted on Centre Place.",
9394639,5th ave/Broadway near Empire State,66987707221,unconfirmed,Noel,Manhattan,Midtown,40.74771,-73.98727,United States,US,False,moderate,Entire home/apt,2014,$250 ,$50 ,1,186,6/24/2019,4.68,3,1,96,"We're laid back and don't have too many rules! There is a porch outside if you need to smoke. We like to keep our home neat and hope you help us keep it how you find it!  We do ask that you do not bring guests back. This is a way for us to control who is in our home, and it means a lot to us.  As for noise, just be reasonable. If it's getting late, you know the drill :)",
9395191,Central Park studio at great price!,41098899161,unconfirmed,Carmen,Manhattan,Hell's Kitchen,40.76735,-73.98578,United States,US,True,strict,Entire home/apt,2003,$974 ,$195 ,2,6,1/1/2017,0.16,3,1,244,"House Rules 1. All bookings made at least a week before check in are fully refundable if cancelled within 24 hours of booking. After this, you will receive a 50% refund if you cancel at least 7 days before the start of your trip. 2. Check-in time is any time after 4 pm local time. If the unit is ready earlier, we’ll let you know. Check-out is normally 11 am local time, but we’d be happy to extend it as long as we don’t have a cleaning scheduled. Just let us know.  3. All bookings require a security deposit of at least $300. 4. For security measures we require all guests to provide proof of identification through ID verification on our own website. In order to check in, we'll need a photo of your ID.  5. Don’t let $300 go up in smoke. There's no smoking allowed in any Flatbook and a $300 fine for breaking this rule.  6. Unfortunately we don’t allow pets in most of our apartments. 7. Unless you’re staying in one of our specialty apartments, we don’t allow parties or excessive noise. 8. I",
9395744,Spacious Parkside Abode,83835668888,verified,Caroline,Brooklyn,Flatbush,40.65206,-73.96149,United States,US,False,moderate,Private room,2011,$238 ,$48 ,4,5,11/9/2018,0.14,5,1,28,"There are real beds for eight, one pull out couch, and one single mattress available. Linens, sheets, towels, kitchen staples, breakfast foods, and basic toiletries provided. Games, toys and books are here for your use, make themselves at home. Please leave the house in the condition that you found it. This unit is on the second and third floors of a two-family I own, and I have tenants below. Please be respectful of them, and my neighbors, and keep noise to a minimum after 11pm and before 7am. Thank you!",
9396296,"Private, cozy room, 20 min to Manhattan",46888107960,unconfirmed,Dorota,Queens,Ridgewood,40.70009,-73.90505,United States,US,False,moderate,Private room,2007,"$1,197 ",$239 ,1,48,7/7/2019,1.24,4,1,68,,
9396848,Room in sunny art-filled apartment,64529425310,unconfirmed,Shawn,Manhattan,Harlem,40.82127,-73.95669000000001,United States,US,True,strict,Private room,2022,$779 ,$156 ,1,1,8/22/2016,0.03,4,2,351,"House Rules 1. Check-in is 4 pm local time. If the unit is ready earlier, we’ll let you know. Check-out is normally 11 am local time, but we’d be happy to extend it as long as we don’t have a cleaning scheduled. Just let us know.  2. All bookings require a security deposit of at least $300, which will be refunded within 7 days of your check-out. 3. For security measures we require all guests to provide proof of identification through ID verification on our own website. In order to check in we'll need a photo of your ID.  4. Our cancellation policy is as shown on our ad and defined by the site you are booking through.  5. Don’t let $300 go up in smoke. There's no smoking allowed in any Flatbook and a $300 fine for breaking this rule.  6. Unfortunately we don’t allow pets in any of our apartments. 7. Unless you’re staying in one of our specialty apartments, we don’t allow parties or excessive noise. 8. If we find the place very messy, we have to charge an extra $40 for every extra hour o",
9397401,Luxury Wall St. Apartment Building,67245232392,unconfirmed,Mackenzie,Manhattan,Financial District,40.70433,-74.00782,United States,US,True,strict,Entire home/apt,2019,"$1,032 ",$206 ,2,2,7/8/2016,0.05,5,1,238,No parties. No overnight guests. Please use your time in the city to get out and explore and use the apartment as an experience to stay in a neighborhood where you'll never find a hotel! You are so close to everything!,
9397953,"Sexy, Cozy, Work, Play Loft for 4",48840702657,verified,Kelly,Brooklyn,Williamsburg,40.71265,-73.96574,United States,US,True,moderate,Entire home/apt,2011,$240 ,$48 ,2,33,6/25/2019,0.86,2,2,126,No smoking except smoke deck.,
9398505,Luxury April Sublet in Manhattan NY,2409441226,unconfirmed,Thomas,Manhattan,Harlem,40.80422,-73.95495,United States,US,False,strict,Private room,2005,$249 ,$50 ,1,1,4/6/2016,0.03,4,1,163,"No pets, and no smoking indoors.",
9399058,Spacious 2 bedroom Garden apartment,20736969732,verified,Ruma,Brooklyn,Clinton Hill,40.68099,-73.96343,United States,US,True,moderate,Entire home/apt,2003,$621 ,$124 ,2,49,7/3/2019,1.28,5,1,214,"A list of house details, rules and local information will be provided upon arrival.",
9399610,Comfy KING bed in modern NYC apt,48012876536,verified,Mrs. Alabi,Brooklyn,Crown Heights,40.67409,-73.92607,United States,US,True,flexible,Private room,2011,$246 ,$49 ,2,129,6/26/2019,3.32,4,2,197,"Shoes off apartment (slippers available to guests) No smoking of any substance on the property Respectful Friendly Quiet Leave things as they were found, clean after yourself  No dishes left in the sink  Please use green cups, bowls, utensils and plates and  Store dry foods in 2nd tall pantry cabinet for your personal food storage and store food in the fridge on the 2nd row Guests may not have additional guests without clearing them with me first",
9400162,Private room in a high floor apt,98225641412,verified,Kamini,Manhattan,East Harlem,40.80237,-73.9437,United States,US,False,strict,Private room,2019,$750 ,$150 ,1,0,,,3,1,-1,,
9400714,Beautiful Room in Crown Heights,48277193524,unconfirmed,William,Brooklyn,Crown Heights,40.67564,-73.95449,United States,US,False,flexible,Private room,2021,$61 ,$12 ,4,4,12/17/2017,0.18,3,1,333,"Shoes off apartment (slippers available to guests) No smoking of any substance on the property Respectful Friendly Quiet Leave things as they were found, clean after yourself  No dishes left in the sink  Please use white cups, bowls, utensils and plates and  Store dry foods in pantry cabinet below the microwave for your personal food storage and store food in the fridge on the left half of the 3rd row Guests may not have additional guests without clearing them with me first",
9401267,"Cute Apt, heart of east Village!",71285656910,unconfirmed,Paul,Manhattan,East Village,40.72772,-73.97978,United States,US,True,flexible,Private room,2008,$482 ,$96 ,1,1,5/26/2016,0.03,4,1,12,"No street shoes in the house, please, but especially not in the bedrooms. We recycle - make sure you do too while you're here. It's single stream so very easy -ask if you're not sure how it works. Check-in and check-out times are flexible all days except Sunday where check-out is by 11 a.m.",
9401819,Modern 2BR in the UES (94th and 2nd) 30 DAYS  MIN,71735653512,verified,Elem,Manhattan,Upper West Side,40.79226,-73.97299,United States,US,False,flexible,Entire home/apt,2014,$938 ,$188 ,30,0,,,2,15,104,- Guests can smoke outside the building in my backyard if they smoke. - Please arrive at or after 6:30pm as I work during the day and before 11:30pm.,
9402371,Stylish East Village Studio + Outdoor Space!,58079352997,verified,Daniel,Manhattan,East Village,40.72592,-73.99025999999999,United States,US,False,moderate,Entire home/apt,2004,$416 ,$83 ,2,16,5/6/2018,0.43,3,1,72,Shoes-off home Respectful Friendly Quiet No smoking of any substance on the property No pets Leave things as they were found Clean up after yourself Reminder: Rest of apartment (kitchen or living room) not available to guests  Guests may not have additional guests without clearing them with Celia or Jonathan.,
9402924,Life Is Beautiful near Central Park,63389605023,verified,Denia,Manhattan,East Harlem,40.79636,-73.94341999999999,United States,US,True,flexible,Private room,2005,$844 ,$169 ,5,62,7/2/2019,1.82,2,1,58,#NAME?,
9403476,Sunny Prime Heart of East Village Room,55787255102,unconfirmed,Katherine,Manhattan,East Village,40.72827,-73.9863,United States,US,False,moderate,Private room,2015,$862 ,$172 ,3,36,7/1/2019,0.91,5,1,270,"Pets are cool (just clean up after them!), smoking outside is allowed, and alcohol/coming home drunk is totally ok. If you drink our alcohol then please help replace it or chip in! Otherwise, we're pretty simple college guys who enjoy being social.",
9404028,"Chelsea ,Duplex ,Calm ,Fantastic",72383334528,verified,Yael,Manhattan,Chelsea,40.739709999999995,-73.99829,United States,US,False,moderate,Private room,2009,"$1,022 ",$204 ,3,69,6/19/2019,1.8,4,1,113,"Starting mid-November, I am looking for a longer-term guest (2+ months); someone who is responsible and employed outside of the home. A sublease agreement will need to be signed for any stay longer than one month.",
9404581,Adr Grand Charming Luxurious Premier!,24358260205,verified,Ren,Queens,Astoria,40.764520000000005,-73.92804,United States,US,False,flexible,Shared room,2014,$710 ,$142 ,2,15,2/16/2017,0.39,2,2,63,"Just be clean, be tidy, be yourself and enjoy your stay.",
9405133,Sunny & quiet family apartment in BK,43287887841,unconfirmed,Jeen,Brooklyn,Bedford-Stuyvesant,40.69574,-73.9515,United States,US,False,strict,Entire home/apt,2011,$900 ,$180 ,4,11,6/11/2019,0.29,2,1,293,,
9405685,Gorgeous 2 Bedroom APT!,7846435539,verified,Peter,Queens,Ridgewood,40.707190000000004,-73.91414,United States,US,True,flexible,Entire home/apt,2011,"$1,093 ",$219 ,6,29,7/5/2019,0.83,5,1,190,#NAME?,
9406237,`A BEAUTY IN BK,7170167902,unconfirmed,Sol And Coach,Brooklyn,Cypress Hills,40.68202,-73.88943,United States,US,False,strict,Entire home/apt,2019,$755 ,$151 ,1,130,6/26/2019,3.48,4,2,346,Will send it as soon as reservation is confirmed.,
9406790,3 bedrooms with amazing view of the Big Apple,28882562808,verified,James,Brooklyn,Clinton Hill,40.69315,-73.96412,United States,US,True,strict,Entire home/apt,2021,$325 ,$65 ,3,1,4/4/2016,0.03,1,1,147,,
9407342,Williamsburg Vintage Chic w/Garden,22425515797,unconfirmed,Irit,Brooklyn,Williamsburg,40.71707,-73.95859,United States,US,False,flexible,Entire home/apt,2003,$210 ,$42 ,5,0,,,2,1,212,"Unlike most other Airbnb listings, what we do here is long-term rentals by the year, or by the semester and we can welcome compatible short-term guests. We try to keep the atmosphere conducive to studying and resting and a couple of house-rules are in place to this end.  1. Non-smoker preferred.  2. No loud music or TV etc.  3. Only for one person (no couples, no visitors). We seldom have visitors, let alone overnight guests. We know this will be a major turn-off to many people, but we believe we can find a like-minded roommate who can have fun outside the house.  4. If you re not sure about your check-out date, you can reserve the minimum days and extend your stay at a discounted rate.  5. Check-in time is flexible, but it has to be coordinated at least 24 hours ahead. On arrival, a short registration process with a picture ID is needed in exchange for keys and wifi access.  6. Inside the apartment, we take off our outside shoes. So if you bring your own flip-flops, slippers or some k",
9407894,cheap and safe place in Manhattan,64920295744,verified,Yiin,Manhattan,Upper West Side,40.79902,-73.96043,United States,US,False,flexible,Private room,2012,$622 ,$124 ,2,3,6/16/2016,0.08,3,2,121,Please note that there is no smoking or any type of drugs in the apartment and please be respectful of other apartment mates. You are welcome to use the kitchen appliances as long as you clean up after yourself!,
9408447,The Manhattan Club - NYC Marathon Weekend,47687539381,verified,Jim,Manhattan,Midtown,40.76593,-73.9812,United States,US,False,moderate,Entire home/apt,2019,$347 ,$69 ,3,0,,,2,1,353,Shoes off apartment (slippers available to guests)  No smoking of any substance on the property  No parties Respectful  Friendly  Quiet  Leave things as they were found upon check-out,
9408999,Interfaith Retreat Guest Rooms (Govinda),26271394448,unconfirmed,Alex And Zeena,Manhattan,Chelsea,40.74971,-73.99533000000001,United States,US,False,moderate,Private room,2011,$950 ,$190 ,1,210,6/23/2019,5.34,1,12,184,,
9409551,Park Avenue 2 Bedroom,22099816625,verified,CRNY Monthly Rentals,Manhattan,Midtown,40.74545,-73.98113000000001,United States,US,True,strict,Entire home/apt,2006,$320 ,$64 ,29,1,11/30/2018,0.14,5,31,185,Shoes-off home [tray provided] Respectful Friendly Quiet No smoking of any substance(s) on the property No pets Leave things as they were found Clean up after yourself Reminder: Rest of unit (main kitchen & living room not available to guests) Guests may not have additional guests without clearing them with Celia [or Jonathan].,
9410104,Private Room in Gorgeous Loft!  (no cleaning fee),66152028739,verified,Elizabeth,Queens,Ridgewood,40.707240000000006,-73.91228000000001,United States,US,False,moderate,Private room,2019,$463 ,$93 ,2,177,7/5/2019,4.48,1,2,16,"No smoking within the apartment, though may do so on the back pouch. No pet allowed for other's safety reason. Keys must be left behind at the end of stay to avoid monetary penalty. Clean after self after use of  common areas for others comfort and convenience.",
9410656,Cozy apartment on upper west side,65685703663,verified,Aleksandra,Manhattan,Upper West Side,40.78942,-73.96768,United States,US,False,strict,Entire home/apt,2010,$377 ,$75 ,5,0,,,2,1,307,Shoes-off home Respectful Friendly Quiet No smoking on the property Of course no drugs No pets Leave things as they were found Clean up after yourself,
9411208,Spacious  Duplex in Brooklyn,84253381429,unconfirmed,Simone,Brooklyn,Bedford-Stuyvesant,40.67989,-73.91816999999999,United States,US,False,flexible,Entire home/apt,2014,"$1,152 ",$230 ,2,76,6/24/2019,1.93,4,1,354,,
9411760,Big Room@ UES clean comfy Apt,18519916706,verified,Harry,Manhattan,Upper East Side,40.7674,-73.95559,United States,US,False,flexible,Private room,2016,$80 ,$16 ,1,10,6/9/2016,0.25,1,1,393,No smoking on premises. no unnecessary noise.,
9412313,Quaint room in East Village walk-up,88088793213,unconfirmed,Katherine,Manhattan,East Village,40.73185,-73.98431,United States,US,True,moderate,Private room,2018,"$1,163 ",$233 ,1,0,,,1,1,177,,
