id,NAME,host id,host_identity_verified,host name,neighbourhood group,neighbourhood,lat,long,country,country code,instant_bookable,cancellation_policy,room type,Construction year,price,service fee,minimum nights,number of reviews,last review,reviews per month,review rate number,calculated host listings count,availability 365,house_rules,license
54187826,"Luxury Private Room 
15 mins From Manhattan",70285535859,unconfirmed,Brock,Queens,Ditmars Steinway,40.771879999999996,-73.91157,United States,US,True,flexible,Private room,2011,"$1,110 ",$222 ,6,6,4/26/2019,0.65,5,1,365,No Smoking No Pets,
54188378,"Studio in East Village  Manhattan, NYC",88719622570,verified,Phil,Manhattan,Lower East Side,40.72119,-73.98339,United States,US,True,moderate,Entire home/apt,2005,$198 ,$40 ,2,32,6/26/2019,2.67,2,1,3,,
54188931,Peaceful Parkside Place,26623794377,unconfirmed,Jackson,Brooklyn,Prospect-Lefferts Gardens,40.65529,-73.95971,United States,US,True,flexible,Entire home/apt,2018,$590 ,$118 ,1,16,6/17/2019,1.32,3,1,0,"Be yourself, but please no wild parties, thanks :)",
54189483,Charming Apartment near Central Park with Balcony,58014615249,unconfirmed,Ariane,Manhattan,Upper West Side,40.7786,-73.97578,United States,US,True,strict,Entire home/apt,2019,$134 ,$27 ,7,1,8/20/2018,0.09,2,1,292,,
54190035,Pent House Studio Minutes From Manhattan,45278230310,verified,Sean,Brooklyn,Flatbush,40.65401,-73.96212,United States,US,False,moderate,Entire home/apt,2021,$979 ,$196 ,1,22,3/24/2019,1.8,3,1,93,please be quiet and respectful of the other renters,
54190588,HIDDEN GEM near JFK w. PRIVATE ENTRANCE x PARKING.,13131952518,unconfirmed,Deborah,Queens,Rosedale,40.65695,-73.73617,United States,US,True,moderate,Entire home/apt,2014,$560 ,$112 ,1,106,6/29/2019,8.69,4,2,300,,
54191140,"Central Harlem, New York City",19857607546,verified,Lamar,Manhattan,Harlem,40.81857,-73.9402,United States,US,False,strict,Entire home/apt,2022,$773 ,$155 ,2,18,6/1/2019,1.45,5,1,0,,
54191692,Large Bedroom w/ PRIVATE BATHROOM,67364736332,verified,Jake,Brooklyn,Williamsburg,40.71111,-73.94736,United States,US,True,strict,Private room,2009,$71 ,$14 ,3,11,6/1/2019,0.88,5,1,9,"No smoking or additional guests, please.",
54192244,subletting for one week while traveling,98018353677,unconfirmed,Natia,Brooklyn,Bushwick,40.69952,-73.92623,United States,US,False,moderate,Private room,2022,$878 ,$176 ,7,0,,,3,1,0,THE HOUSE HAS 4 FLOORS AND IS SHARED WITH THE OWNER AND ONE OR TWO OTHER OCCUPANTS.   QUIET IS ASSURED (ESPECIALLY LATE EVENINGS) SMOKING IS NOT PERMITTED INSIDE THE HOUSE. THERE ARE NO LOCKS ON ROOM DOORS AS THESE ARE BEDROOMS IN A PRIVATE HOME.  PRIVACY IS ASSURED AND RESPECT OTHERS' BELONGINGS ,
54192797,SuperHost 1 block to  Times Square NYC City Center,27161432586,verified,Julian,Manhattan,Hell's Kitchen,40.75825,-73.98982,United States,US,True,flexible,Private room,2020,"$1,061 ",$212 ,1,54,6/19/2019,4.34,3,1,341,It's a quiet building on a quiet street with many working professionals. Please be respectful of our neighbors and no additional guests or parties. No Smoking. No Pets.,
54193349,LIVING ROOM COUCH amazing Williamsburg location,86028333213,verified,Jonny,Brooklyn,Williamsburg,40.7155,-73.95724,United States,US,True,strict,Shared room,2017,$361 ,$72 ,1,31,6/30/2019,2.81,4,1,82,"Just be respectful, that's really all I ask.  I love my home and hope you do too. No smoking inside, please smoke on the stoop.  No pets please.",
54193901,Luxury Bright Soho Loft,63245184026,unconfirmed,Courtney,Manhattan,SoHo,40.72182,-74.00255,United States,US,False,flexible,Entire home/apt,2013,$545 ,$109 ,2,1,6/4/2019,0.86,5,1,360,Party hard just don't break things.,
54194454,Amazing 1b1b in Luxury Building near Empire State,49205120266,verified,Zhaoyun,Manhattan,Midtown,40.74843,-73.98259,United States,US,False,moderate,Entire home/apt,2022,$572 ,$114 ,2,2,8/11/2018,0.17,5,1,0,This is a quiet building with absolutely no smoking inside the property or on the steps.  ,
54195006,Cozy room in townhouse on tree-lined street,4451953047,unconfirmed,Jason,Brooklyn,Brooklyn Heights,40.69177,-73.99388,United States,US,False,strict,Private room,2009,$193 ,$39 ,1,44,7/6/2019,5.28,4,1,73,Please no smoking in the apartment.  There is a door to a balcony/fire escape for smoking.,
54195558,East Harlem Entire 1BR apt,18044753175,unconfirmed,Miho,Manhattan,East Harlem,40.78978,-73.94138000000001,United States,US,False,moderate,Entire home/apt,2005,"$1,009 ",$202 ,5,0,,,5,1,0,Have fun and please be respectful of the place. No parties Please do not smoke inside,
54196111,420 E 61 st Street SOLOW building 1BR furnished,22151375855,verified,Raymond,Manhattan,Upper East Side,40.75954,-73.96021999999999,United States,US,True,flexible,Entire home/apt,2003,$321 ,$64 ,30,0,,,2,10,89,,
54196663,Cozy and Clean Park Slope 2 bed Apt. Hidden Gem!,42569657928,unconfirmed,Dana,Brooklyn,Sunset Park,40.66073,-73.98983,United States,US,False,flexible,Entire home/apt,2014,$971 ,$194 ,3,23,7/1/2019,1.95,5,1,365,"No guests can be allowed access to the building/grounds that have not been mentioned at the time the reservation was made.   This is to keep everyone, including my neighbors, safe. No smoking. No pets. Campsite rules - leave it as you found it please! (trash cans are right out the back door on the other side of the patio fence). Being low key/quiet after 10pm when on the patio is much appreciated by our neighbors.",
54197215,Bright Artist's Loft on the Lower East Side,76763369533,verified,Liza,Manhattan,Lower East Side,40.71452,-73.98201,United States,US,True,flexible,Entire home/apt,2020,$470 ,$94 ,4,2,1/2/2019,0.29,2,1,0,"No pets or smoking allowed any where on the premises.  Check-in is at 4:00 pm or later and check out is at 11 am.  After hours self check-in is available but MUST be PER-ARRANGED with host in advance. Bag storage is extra as are early check-in and late check out when possible. Guest are expected to be respectful of others in the building, neighbors, and the property.",
54197767,Harlem Historian/Musician near Columbia Room 2,27056499572,unconfirmed,Karen,Manhattan,Harlem,40.819320000000005,-73.95765,United States,US,True,moderate,Private room,2008,$810 ,$162 ,3,4,1/1/2019,0.36,3,1,21,"Quiet hours 10pm -7AM. No additional people besides the reservation listing allowed in the apartment. Alcohol in moderation is allowed. No smoking, no drugs. Please, leave the apartment the way in which you found it! Females only.",
54198320,Private bedroom w/ pvt entrance near Times Sq. 52E,42248325072,unconfirmed,John,Manhattan,Hell's Kitchen,40.75577,-73.99687,United States,US,True,strict,Private room,2012,$238 ,$48 ,30,3,6/2/2019,0.26,4,47,288,Feel free to use any dishware in the house but please load and run the dishwasher when you leave.,
54198872,Park Slope Brooklyn Penthouse Apartment,45079828746,verified,Michael,Brooklyn,South Slope,40.66154,-73.98283,United States,US,True,flexible,Entire home/apt,2011,"$1,117 ",$223 ,2,35,6/29/2019,3.11,4,1,190,#NAME?,
54199424,NY HILTON CLUB 2 BR SUITE Luxury Holidays 2019,72206253436,verified,Mary,Manhattan,Midtown,40.761509999999994,-73.97894000000001,United States,US,True,flexible,Entire home/apt,2010,$795 ,$159 ,2,3,1/3/2019,0.24,4,1,0,- I've got a parking space that I can rent to you separately for $20 a night,
54199977,Cozy private room in sunny Brooklyn apartment,95450322570,unconfirmed,Jennifer,Brooklyn,Flatbush,40.65195,-73.95645,United States,US,False,flexible,Private room,2020,$744 ,$149 ,1,7,4/24/2019,0.59,3,1,0,"Smoking is not permitted inside the condo.  We do not have any pets and we also ask that you don't bring yours. Please remove shoes and place in the basket upon entering the door. Although we understand the wear and tear that little ones make, we expect that all messes will be cleaned up as they happen and you will be respectful of the neighbors. Persons booking must be 18 years or older in order to rent.",
54200529,Cozy Modern Room in Greenpoint - GREAT LOCATION!,11535097069,verified,Tk,Brooklyn,Greenpoint,40.72225,-73.94328,United States,US,False,moderate,Private room,2008,$824 ,$165 ,1,6,9/27/2018,0.49,2,1,0,Please respect the residents of the building by keeping noise down.,
54201081,Cozy and extremely well located Bushwick room,53569214217,verified,Michael,Brooklyn,Bushwick,40.701029999999996,-73.91901,United States,US,False,moderate,Private room,2011,"$1,055 ",$211 ,2,5,7/29/2018,0.41,4,2,0,This is a quiet building and we would only like guests that want quiet and privacy.  Absolutely no smoking on the premises.,
54201634,Spacious New York bedroom!,60148106718,,Kathryn,Manhattan,Washington Heights,40.84918,-73.93775,United States,US,False,flexible,Private room,2008,$414 ,$83 ,1,31,5/5/2019,2.53,4,2,4,,
54202186,Cozy apartment in the heart of South Harlem,75667590836,,Jen,Manhattan,Harlem,40.807179999999995,-73.94906999999999,United States,US,True,strict,Entire home/apt,2011,$718 ,$144 ,2,3,1/7/2019,0.38,4,1,1,"There are two other units in this building, quiet, clean and respectful of neighbors is all we request. Regrets, no pets and no smoking.",
54202738,Cozy Entire Floor Private 2 Bedroom & Bath,45182202606,,Nuno,Brooklyn,Bedford-Stuyvesant,40.68497,-73.9543,United States,US,True,flexible,Private room,2004,$277 ,$55 ,3,38,6/23/2019,3.25,4,1,101,"House Rules The house rules are an important part of staying in this condo.  You will be sharing a living space with other guests and a high level of consideration, respect, communication and tolerance is expected from you.  They are meant to make your stay more pleasant, to prevent conflicts and to protect the property of any damage.  If you feel there is something that needs to be addressed and that is not covered in these rules, please make sure you communicate that to the host. 1.  Toilet · The toilettes can only be used with toilet paper provided.  Any other material disposed of will cause the plumbing system to back up and create drainage problems.  No tissues, cotton balls, tampons, Q-tips cotton swabs or any kind of sanitary products are allowed down the toilets.  · Any plumbing work due to clogged toilets will be charged to the guests. 2. Noise and Quiet Hours · Quiet hours are from 10pm until 7am.  During quiet hours radios and stereos may be played at a level not to be heard",
54203290,Perfect apartment for your NYC stay,46448100402,,Brett-Michael,Brooklyn,Bedford-Stuyvesant,40.68812,-73.92353,United States,US,False,strict,Private room,2006,"$1,121 ",$224 ,3,2,8/3/2018,0.17,5,1,0,"Respect the apartment and neighbors.   Just three house rules:  I ask folks to keep noise down after 11 pm, take out the trash on trash day; and don't leave out any open food containers or dirty dishes.",
54203843,Brooklyn home with a View,68992145165,,Jasmine,Brooklyn,Williamsburg,40.7164,-73.95438,United States,US,True,strict,Entire home/apt,2014,$913 ,$183 ,7,0,,,5,1,0,Treat it as your own and have a blast!,
54204395,Brooklyn Hostel bedroom 2. Bed 1,90707874907,,Melissa,Brooklyn,Bedford-Stuyvesant,40.69405,-73.95591999999999,United States,US,False,moderate,Shared room,2021,$716 ,$143 ,1,12,6/8/2019,1.0,4,34,360,No Pets. No Smoking.,
54204947,Large private bedroom w/private bath in shared apt,5854349958,,Niccolo,Brooklyn,DUMBO,40.70328,-73.9899,United States,US,True,moderate,Private room,2011,$131 ,$26 ,1,1,6/30/2018,0.08,2,1,0,,
54205500,Cosy and Spacious New York Apartment,52913505138,,Maria Ivy,Queens,Long Island City,40.75192,-73.94074,United States,US,True,moderate,Entire home/apt,2017,$800 ,$160 ,2,6,1/3/2019,0.7,3,1,0,,
54206052,Privet room and bathroom in luxurious apartment.,91076792315,,Emma,Manhattan,Harlem,40.811859999999996,-73.93921999999999,United States,US,False,moderate,Private room,2005,$622 ,$124 ,3,6,6/23/2019,0.52,3,1,0,#NAME?,
54206604,Quaint One-Bedroom close to the UN !,69268015636,,Jenya,Manhattan,Midtown,40.75468,-73.96563,United States,US,True,flexible,Entire home/apt,2010,$859 ,$172 ,4,11,6/23/2019,0.93,4,1,1,,
54207157,Cute and Convenient Park Slope Room,97750107621,,Jana,Brooklyn,South Slope,40.6652,-73.98191,United States,US,False,flexible,Private room,2008,$965 ,$193 ,5,4,10/2/2018,0.35,4,2,0,,
54207709,Ma-Don Hideaway,73975905498,,Lillie & Donald,Brooklyn,Bedford-Stuyvesant,40.690690000000004,-73.92651,United States,US,True,moderate,Entire home/apt,2017,"$1,092 ",$218 ,2,13,1/2/2019,1.26,2,1,1,,
54208261,Gorgeous room in luxury apartment (2),50042663518,,Jelani,Brooklyn,Clinton Hill,40.68697,-73.96063000000001,United States,US,False,moderate,Private room,2005,$536 ,$107 ,3,10,6/5/2019,0.87,3,2,150,please be quiet and respectful of the other renters,
54208813,The Yorkville Gem,16811944489,,Janine,Manhattan,Upper East Side,40.780229999999996,-73.95069000000001,United States,US,False,flexible,Shared room,2003,$320 ,$64 ,7,15,7/1/2019,3.46,2,1,4,"Enjoy your stay in our home, simply be respectful of our neighbors, no smoking and no pet allowed.",
54209366,1940's Historic Brooklyn Townhome,73143337197,,Mark,Brooklyn,East Flatbush,40.63863,-73.93826,United States,US,False,moderate,Entire home/apt,2012,$597 ,$119 ,5,2,6/19/2019,0.81,4,1,174,No Smoking No Pets,
54209918,"Sunny, CENTRAL Williamsburg Room with Rooftop",6659859418,,Samantha,Brooklyn,Williamsburg,40.714459999999995,-73.95992,United States,US,False,flexible,Private room,2015,$297 ,$59 ,1,4,8/13/2018,0.33,2,1,0,Please leave the home as it was when you entered :),
54210470,Cozy room w/ private balcony and incredible views!,38599149303,verified,Lucia,Manhattan,East Village,40.72777,-73.98568,United States,US,False,flexible,Private room,2017,$732 ,$146 ,6,5,5/20/2019,0.43,3,1,11,,
54211023,Incredible Private Room in prime Bushwick,20226268234,verified,Rebecca,Brooklyn,Bushwick,40.69585,-73.93094,United States,US,False,moderate,Private room,2012,$243 ,$49 ,7,0,,,4,2,0,,
54211575,NYC HOME BASE: Train @ 900ft; midtown 30min!,73519824277,verified,Jeff,Queens,Hollis,40.711040000000004,-73.78175,United States,US,False,flexible,Entire home/apt,2010,$121 ,$24 ,2,17,6/22/2019,1.5,3,7,10,"Quiet. Residential. No smoking, no pets",
54212127,Amazing Brooklyn,75402857437,unconfirmed,Myrna,Brooklyn,Sheepshead Bay,40.60369,-73.94511,United States,US,True,flexible,Private room,2012,$905 ,$181 ,7,8,5/17/2019,0.71,3,2,81,Smoking is not permitted inside the house.,
54212680,Spacious Room and PRIVATE bath in Harlem Townhouse,63438393553,unconfirmed,Byron,Manhattan,Harlem,40.8072,-73.94313000000001,United States,US,False,flexible,Private room,2022,$805 ,$161 ,2,13,5/8/2019,1.42,2,1,185,No smoking or pets.,
54213232,"1BR in Newly Renovated Apartment - Rm B, Bushwick!",47203631977,verified,Ada,Brooklyn,Williamsburg,40.705220000000004,-73.93075,United States,US,True,strict,Private room,2012,$390 ,$78 ,1,10,5/23/2019,0.84,4,7,310,"Please be quiet, kind and respectful. This building has both renters and many home occupants, it's a great place to make it your home for a stay! Please be mindful of other people on the building, and keep all questions to me, your host!",
54213784,Welcoming Brooklyn Artist's Room in Williamsburg,97359386959,verified,Floriana,Brooklyn,Williamsburg,40.70831,-73.96191999999999,United States,US,False,flexible,Private room,2011,"$1,015 ",$203 ,1,11,3/11/2019,0.89,4,1,0,"This is a residential neighborhood, quiet is important.  No smoking. No pets.",
54214336,"1BR in Newly Renovated Apartment - Rm C, Bushwick!",10489835451,unconfirmed,Ada,Brooklyn,Williamsburg,40.7052,-73.93016999999999,United States,US,True,flexible,Private room,2012,$288 ,$58 ,1,6,6/9/2019,0.53,4,7,343,"Please be clean and respectful of the apartment, building and neighbors. No smoking indoors. Pets are allowed on a case by case basis.",
54214889,Zen Brooklyn,92886185025,verified,Gina,Brooklyn,Fort Greene,40.68731,-73.9751,United States,US,False,strict,Private room,2019,$956 ,$191 ,1,8,9/1/2018,0.66,2,2,0,,
54215441,Enjoy this cozy private room near Times Sq. 53E4,89797005128,unconfirmed,John,Manhattan,Hell's Kitchen,40.75561,-73.99543,United States,US,False,flexible,Private room,2014,$570 ,$114 ,30,3,5/30/2019,0.92,3,47,345,,
54215993,Stay in this sunny private room near Times Sq 41D3,1761984297,unconfirmed,John,Manhattan,Hell's Kitchen,40.75564,-73.99564000000001,United States,US,True,strict,Private room,2015,$311 ,$62 ,7,9,5/25/2019,1.15,5,47,326,This is not a party building. It is quiet and peaceful. Anyone who is looking to party/smoke should look elsewhere.,
54216546,Bushwick Duplex 3 min walk to subway,37097222133,unconfirmed,Alexandria,Brooklyn,Bushwick,40.6897,-73.921,United States,US,False,moderate,Private room,2006,$708 ,$142 ,1,4,7/13/2018,0.32,2,1,0,"No Smoking, No additional guests,",
54217098,Ladies Bedroom Bed 2,65122456416,verified,Melissa,Brooklyn,Bedford-Stuyvesant,40.69303,-73.95636,United States,US,False,moderate,Shared room,2016,"$1,159 ",$232 ,1,17,6/23/2019,1.39,3,34,365,No Smoking,
54217650,A get away home,15283814680,verified,Gardell,Brooklyn,Prospect-Lefferts Gardens,40.65912,-73.94735,United States,US,True,flexible,Entire home/apt,2009,$652 ,$130 ,1,9,6/15/2019,0.77,3,1,89,,
54218203,Magic Waters - Brooklyn Refuge,3764396935,verified,Paul,Brooklyn,Bedford-Stuyvesant,40.68202,-73.92295,United States,US,False,flexible,Entire home/apt,2017,$363 ,$73 ,2,25,6/22/2019,2.17,2,1,321,#NAME?,
54218755,Brooklyn Hostel Bedroom 2. Bed 3,92495495943,unconfirmed,Melissa,Brooklyn,Bedford-Stuyvesant,40.6944,-73.95674,United States,US,True,moderate,Shared room,2019,$475 ,$95 ,3,14,6/28/2019,1.14,3,34,365,,
54219307,Charming 1 Bedroom in Ideal Location,49477973428,verified,Laural,Manhattan,Gramercy,40.73557,-73.98038000000001,United States,US,True,flexible,Entire home/apt,2007,$433 ,$87 ,3,1,7/15/2018,0.08,3,1,0,"Please no parties,  and no loud noise past 11p, out of respect for the neighbors.  Please no smoking in the building.  If you cook or otherwise eat in the apartment, please reasonably clean up after yourself.",
54219859,Ladies bedroom Bed 4,87033435531,verified,Melissa,Brooklyn,Bedford-Stuyvesant,40.69299,-73.95675,United States,US,True,moderate,Shared room,2014,$960 ,$192 ,1,21,7/4/2019,1.77,3,34,365,No Smoking No Pets,
54220412,Cute studio in the Upper West Side.,38044495928,verified,Ai,Manhattan,Upper West Side,40.79392,-73.97288,United States,US,False,strict,Entire home/apt,2005,$777 ,$155 ,2,12,5/27/2019,1.13,2,1,5,No pets allowed (sadly!) and no smoking allowed.,
54220964,Cozy Long Island City Studio close to Manhattan,47697490805,verified,Izi,Queens,Long Island City,40.75286,-73.93539,United States,US,True,moderate,Entire home/apt,2010,$541 ,$108 ,3,32,6/29/2019,2.73,3,1,77,"Enjoy your stay in our home, simply be respectful of our neighbors, no smoking and no pet allowed.",
54221516,Spacious one bedroom with gym and roof top,8493972288,verified,J,Manhattan,Upper West Side,40.7956,-73.96701999999999,United States,US,False,strict,Entire home/apt,2021,$805 ,$161 ,15,1,11/30/2018,0.14,2,1,365,"Just be cool, we love our home and love our neighborhood - we're thrilled to have the opportunity to share it with you.",
54222069,Sunny Room in Brooklyn 2,29000676116,unconfirmed,Karen,Brooklyn,East Flatbush,40.64617,-73.92397,United States,US,False,moderate,Private room,2009,$91 ,$18 ,3,7,6/4/2019,0.57,4,3,319,"I am opening my home to responsible renter(s) who are  looking for hotel alternative. I have consideration for your privacy and comfort and expect the same from you. Interaction can be as little or as much as you desire.  Smoking is allowed on Patio.  Basically, there are few house rules. Dog limited to owners bedroom and downstairs common space and patio.  Oh, did i mention there is a hot tub on the  patio, clocking in at 101 degrees.  Feel free to ask Boston question as I have about 40 years experience here.   ",
54222621,Sonder | View 34 | Vibrant 1BR + Rooftop,15164667914,unconfirmed,Sonder,Manhattan,Murray Hill,40.744440000000004,-73.97355,United States,US,False,strict,Entire home/apt,2003,$781 ,$156 ,29,0,,,2,96,332,,
54223173,Flatiron Oasis Off 5th Ave,94134112475,verified,Quincy,Manhattan,Flatiron District,40.740429999999996,-73.99277,United States,US,True,strict,Entire home/apt,2010,$348 ,$70 ,3,5,5/20/2019,0.43,4,1,362,No Smoking,
54223726,Prime Location! The Mid/Upper East side Grey Room,40997397921,unconfirmed,Giovanna,Manhattan,Upper East Side,40.76258,-73.96252,United States,US,True,flexible,Private room,2013,$446 ,$89 ,1,82,6/16/2019,7.01,2,1,51,No Smoking No Pets,
54224278,Private Room in apartment (1),89577643781,verified,Jelani,Brooklyn,Clinton Hill,40.6867,-73.9612,United States,US,True,moderate,Private room,2009,$74 ,$15 ,4,6,6/20/2019,0.87,2,2,156,,
54224830,Private Room in Ridgewood with Rooftop access!,28603315036,unconfirmed,Catherine,Queens,Ridgewood,40.70254,-73.90679,United States,US,False,strict,Private room,2006,"$1,004 ",$201 ,2,2,7/27/2018,0.17,2,1,0,"Thank you for your reservation. By placing your reservation online you indicated that you accepted the terms and conditions which have been printed below.  Please review your reservation summary as below - then print, sign and return the agreement to:  (EMAIL HIDDEN) or fax it to (PHONE NUMBER HIDDEN) or  mail it to: Spare Suite, Inc., 119 Braintree Street, Suite 510, Boston, MA 02134, USA Upon receipt, we will send you the welcome document with check in instructions and how to get your keys. ------------------------------------------------------------------------ ------------------------------------------------------------------------ Terms of the Agreement: BOOKING AND REFUND POLICY Once booked your reservation is guaranteed for the check in and check out times and dates specified. All reservations must be paid in advance, in full for the entire period of stay.  All reservations are final, and NON REFUNDABLE UNDER ANY CIRCUMSTANCES.  If you feel you may need to cancel once booked, yo",
54225382,Sunny Williamsburg 1 BR near Peter Luger's,56090893536,verified,Rikki,Brooklyn,Williamsburg,40.7108,-73.9618,United States,US,False,flexible,Entire home/apt,2021,$367 ,$73 ,1,3,11/4/2018,0.33,2,1,0,,
54225935,Leli’s Modern Pad - Queen Bedroom,29284745136,verified,Leli,Brooklyn,East New York,40.67502,-73.87276999999999,United States,US,True,strict,Private room,2022,$939 ,$188 ,2,8,6/16/2019,1.76,3,4,41,,
54226487,"Cozy, clean apartment in Harlem near the subway",6856456985,verified,Sarah,Manhattan,East Harlem,40.78866,-73.9507,United States,US,True,strict,Entire home/apt,2006,$628 ,$126 ,1,0,,,2,1,0,No Smoking No Pets,
54227039,Leli’s Modern Pad - Double Room,14928944907,verified,Leli,Brooklyn,East New York,40.67519,-73.87371999999999,United States,US,True,strict,Private room,2007,$391 ,$78 ,2,6,6/12/2019,0.68,2,4,1,100% smoke free. Quiet hours in this building are from 10pm-6am.  Garbage is collected by the city of Boston on Tuesday and Friday mornings and must be placed outside in designated area for pick up.,
54227592,Hustler's Paradise 003 Private Room Lower Level,83529648632,unconfirmed,Amardeep,Staten Island,Concord,40.59691,-74.087,United States,US,True,flexible,Private room,2021,$94 ,$19 ,4,26,6/25/2019,2.14,2,7,359,To treat the place with utmost respect.,
54228144,Captain's Cabin 001/Apmnt like,25218388493,unconfirmed,Simranjeet,Staten Island,Concord,40.605309999999996,-74.08893,United States,US,False,moderate,Private room,2010,$503 ,$101 ,4,16,7/1/2019,1.3,4,7,334,,
54228696,Country charm in the midst of hipster Brooklyn,33034126624,verified,Harold,Brooklyn,Windsor Terrace,40.64792,-73.97646999999999,United States,US,True,moderate,Entire home/apt,2013,$122 ,$24 ,5,0,,,2,1,87,"- No smoking / pets / shoes (inside) - Please use coasters on any wooden or lacquer surfaces  - No groups of guests - Please pick up after yourself. Dishes in the dishwasher, etc. - Only registered guests may stay overnight. Also, I try to be as green as possible: - Heat and AC should be used sparingly, when needed - Recycling is co-mingled (makes it much easier) - Compost (of non-animal products) - Please turn lights off when you are not using them",
54229249,Captains Cabin 002/Apmnt like,55817884696,verified,Simranjeet,Staten Island,Concord,40.606970000000004,-74.08765,United States,US,False,moderate,Private room,2016,$905 ,$181 ,4,11,7/6/2019,0.99,3,7,337,just respect people in the other 5 apartments.,
54229801,1 BED IN LIVING ROOM NEAR Q SUBWAY AVE U,31308903581,verified,Abby,Brooklyn,Sheepshead Bay,40.5972,-73.95777,United States,US,True,flexible,Shared room,2007,$722 ,$144 ,5,12,7/1/2019,1.07,2,10,301,No smoking!  Please be respectful of our neighbors and keep noise to a minimum.  Voices and music outside carry far.,
54230353,Loft in Downtown Brooklyn - entire apartment,14451145918,verified,Robert,Brooklyn,Downtown Brooklyn,40.69206,-73.98445,United States,US,True,flexible,Entire home/apt,2016,"$1,186 ",$237 ,4,5,1/1/2019,0.44,2,1,0,"The art is for your enjoyment.  Please do not touch or move anything. Please make up beds with fresh linens and wash towels and linens before you leave.  Leave house broom clean.  Dishes should be washed and put away. Sorry, no pets and no smoking.  There are age restrictions for guests.",
54230905,Comfortable Brooklyn Apartment with Personality,45335116415,verified,Dana,Brooklyn,Bedford-Stuyvesant,40.695570000000004,-73.94033,United States,US,True,flexible,Entire home/apt,2010,$146 ,$29 ,3,5,12/31/2018,0.42,4,1,3,,
54231458,Large beautiful home in the center of Manhattan!,74097515942,unconfirmed,Joey,Manhattan,Hell's Kitchen,40.763220000000004,-73.99253,United States,US,True,moderate,Entire home/apt,2008,$481 ,$96 ,3,6,12/10/2018,0.51,5,2,76,No Smoking  No Parties No Excess Noise - We have neighbors in the building.,
54232010,Sunny & colorful room in Bushwick w/ yard access,4572814076,unconfirmed,Elene,Brooklyn,Bushwick,40.705529999999996,-73.91938,United States,US,True,flexible,Private room,2022,$548 ,$110 ,2,29,6/20/2019,2.46,2,2,143,"Guests are required to take their shoes off in the house (we have slippers for all), and to be respectful of the home.",
54232562,Conveniently located sunny room near Times Sq 63F4,56113840283,unconfirmed,John,Manhattan,Hell's Kitchen,40.753859999999996,-73.99562,United States,US,False,moderate,Private room,2017,$781 ,$156 ,7,6,5/18/2019,0.73,2,47,357,"We do not permit smoking, pets or parties. Thank you!",
54233115,"trip NYC - your Couch - clean, cheap, close to all",9198015634,unconfirmed,Kevin4,Queens,Elmhurst,40.73753,-73.87054,United States,US,False,strict,Shared room,2018,$74 ,$15 ,1,19,6/20/2019,1.71,4,2,271,This is a quiet building with great neighbors so please treat it with respect when late at night.  This is our 2nd home so please treat it like your own and leave it like you found it.  No Smoking (other than on the deck) and no pets please. Thanks!,
54233667,"*NEW* Bright, Spacious & Quiet Bedroom by Times SQ",14813383828,verified,Leivan,Manhattan,Hell's Kitchen,40.76129,-73.98859,United States,US,False,moderate,Private room,2004,$346 ,$69 ,2,55,6/23/2019,4.61,2,1,49,,
54234219,Big 1BR in PRIME Bushwick! 2 blocks to L Train!,4444165520,unconfirmed,Nish,Brooklyn,Bushwick,40.70148,-73.91834,United States,US,True,moderate,Entire home/apt,2007,"$1,004 ",$201 ,3,9,6/1/2019,0.74,4,1,0,Please respect the residents by keeping noise down and absolutely no smoking.  There is no bag storage at the building.  Please do not ask the concierges.  Thank you.,
54234772,"Estudio 1 Brooklyn, NY.",95596585317,unconfirmed,Brigit,Brooklyn,Cypress Hills,40.688159999999996,-73.87193,United States,US,False,strict,Entire home/apt,2005,"$1,106 ",$221 ,2,34,6/24/2019,2.8,3,2,120,"No smokers, please.  ",
54235324,Northern Manhattan Getaway,42877353803,verified,Melinda,Manhattan,Inwood,40.86755,-73.9287,United States,US,True,strict,Private room,2004,$663 ,$133 ,2,21,6/23/2019,1.82,3,1,141,Please be respectful of our belongings and leave things as your found them.,
54235876,Beautiful Designer DUMBO Loft,9468346037,verified,Michael,Brooklyn,Vinegar Hill,40.7023,-73.98394,United States,US,False,strict,Entire home/apt,2005,$994 ,$199 ,14,0,,,4,1,0,,
54236428,5min to Manhattan apartment in new luxury building,42688169763,unconfirmed,Summer,Queens,Long Island City,40.7456,-73.94366,United States,US,True,moderate,Entire home/apt,2022,$872 ,$174 ,1,7,5/27/2019,0.61,4,2,0,No Smoking No Pets,
54236981,Cute NYC studio in the heart of East Village,81757863846,verified,Nat,Manhattan,East Village,40.72521,-73.98316,United States,US,True,flexible,Entire home/apt,2011,"$1,004 ",$201 ,5,2,1/2/2019,0.22,3,1,0,No smoking in condo or hallways of building.  No parties.  Well-behaved pets OK.  Quiet and respectful of our neighbors.,
54237533,Dekalb Stop Flat,9473696160,verified,Tyler,Queens,Ridgewood,40.70772,-73.9118,United States,US,False,flexible,Private room,2007,$260 ,$52 ,2,0,,,4,1,88,No Smoking No Pets,
54238085,Crash Pad,69003442386,unconfirmed,Rev. Simone,Queens,Jamaica,40.6837,-73.79343,United States,US,True,strict,Private room,2017,$572 ,$114 ,2,1,5/19/2019,0.58,4,1,180,"Please be respectful of our neighbors and keep voices, music, etc at a reasonable volume.  Please be tidy and take good care of our home. No shoes on the area rug, be neat with food and drink.",
54238638,Brooklyn Spot,60673840435,verified,Virginie,Brooklyn,Crown Heights,40.67664,-73.95172,United States,US,False,moderate,Entire home/apt,2009,$112 ,$22 ,1,0,,,4,1,0,We want you to treat our home as your own.  We have a few house rules- -Extra visitors and overnight guests are not allowed. - No pets -No smoking -Cooking facilities are not available -Minimum 2 night stay,
54239190,3 Bedroom Apartment • 20 Minutes from Time Square,79742336741,unconfirmed,Mehedhi,Queens,Woodside,40.74225,-73.90553,United States,US,False,moderate,Entire home/apt,2019,"$1,141 ",$228 ,3,55,6/19/2019,4.5,3,1,133,,
54239742,Stunning 1BR in Midtown East by Sonder,34420829682,unconfirmed,Sonder,Manhattan,Murray Hill,40.744170000000004,-73.97206,United States,US,True,flexible,Entire home/apt,2005,$69 ,$14 ,29,0,,,4,96,316,You can use our home as you would like us to use yours. We invite you to use our kitchen as you please. We would love to come home to our apartment in the manner we will leave it for you: clean and ready to use.,
54240295,Sonder | Hanover Square | Elegant 1BR + Rooftop,955257449,unconfirmed,Sonder,Manhattan,Financial District,40.70362,-74.00804000000001,United States,US,True,strict,Entire home/apt,2018,$157 ,$31 ,29,0,,,5,96,333,#NAME?,
54240847,Sonder | Hanover Square | Classic 1BR + Rooftop,72926806641,unconfirmed,Sonder,Manhattan,Financial District,40.705690000000004,-74.00929000000001,United States,US,False,moderate,Entire home/apt,2021,$958 ,$192 ,29,0,,,4,96,284,We live in a quiet neighborhood with respectful neighbors and we ask that you show them the same respect.  No unreasonable noise after 11pm - no smoking - no parties.,
54241399,Sonder | Hanover Square | Sunny 1BR + Rooftop,87058551966,verified,Sonder,Manhattan,Financial District,40.703759999999996,-74.00833,United States,US,True,flexible,Entire home/apt,2011,$982 ,$196 ,29,2,12/4/2018,0.24,5,96,323,No smoking or parties. Please be courteous of my cordial neighbors.,
54241951,Sonder | Hanover Square | Airy 1BR + Rooftop,51448289280,unconfirmed,Sonder,Manhattan,Financial District,40.705059999999996,-74.0079,United States,US,False,moderate,Entire home/apt,2022,$552 ,$110 ,29,1,10/1/2018,0.11,3,96,220,No Smoking No Pets,
54242504,Sonder | 21 Chelsea | Grand 1BR + Rooftop,6067691670,unconfirmed,Sonder,Manhattan,Chelsea,40.74154,-73.99526999999999,United States,US,True,moderate,Entire home/apt,2013,$436 ,$87 ,29,0,,,3,96,311,,
54243056,Colorful 1BR in Midtown East by Sonder,37053800828,unconfirmed,Sonder,Manhattan,Murray Hill,40.7445,-73.97222,United States,US,False,strict,Entire home/apt,2020,$744 ,$149 ,29,0,,,2,96,324,"House Rules 1. Check-in is 4 pm local time. If the unit is ready earlier, we’ll let you know. Check-out is normally 11 am local time, but we’d be happy to extend it as long as we don’t have a cleaning scheduled. Just let us know.  2. All bookings require a security deposit of at least $300, which will be refunded within 7 days of your check-out. 3. For security measures we require all guests to provide proof of identification through ID verification on our own website. In order to check in we'll need a photo of your ID.  4. Our cancellation policy is as shown on our ad and defined by the site you are booking through.  5. Don’t let $300 go up in smoke. There's no smoking allowed in any Flatbook and a $300 fine for breaking this rule.  6. Unfortunately we don’t allow pets in any of our apartments. 7. Unless you’re staying in one of our specialty apartments, we don’t allow parties or excessive noise. 8. If we find the place very messy, we have to charge an extra $40 for every extra hour o",
54243608,Cozy Apartment 15 Minutes from Grand Central,2213276877,unconfirmed,Amanda,Queens,Sunnyside,40.746109999999994,-73.91548,United States,US,True,moderate,Entire home/apt,2007,$159 ,$32 ,2,14,9/29/2018,1.12,3,1,0,#NAME?,
54244161,Room to rest near LaGuardia. Steps to subway!,33233616159,verified,Kazuya,Queens,Jackson Heights,40.7488,-73.88045,United States,US,False,moderate,Private room,2004,"$1,133 ",$227 ,30,1,4/1/2019,0.3,2,103,186,"Be kind, courteous, just as how you would want to be treated. No overnight guests or loud noises at night as it is a building full of young professionals.",
54244713,Presidential Comfort,80846629430,unconfirmed,Cathy,Queens,Far Rockaway,40.60395,-73.74904000000001,United States,US,False,strict,Private room,2009,$182 ,$36 ,1,27,7/7/2019,2.21,3,1,177,"For instant book, only 4 or less guests. Otherwise send me a message, and we can chat about it. Smoking allowed on balcony or roof deck.",
54245265,CLOSE TO EVERYWHERE IN NYC 1,79915057008,unconfirmed,Ana,Queens,Astoria,40.75523,-73.91297,United States,US,False,flexible,Private room,2019,$275 ,$55 ,2,30,6/26/2019,2.54,5,3,132,,
54245818,Nice Room Near Roosevelt Jackson Heights Station,30342014158,verified,Kazuya,Queens,Woodside,40.74033,-73.89341999999999,United States,US,False,flexible,Private room,2013,$58 ,$12 ,30,1,1/25/2019,0.18,3,103,269,"No pets, no smoking, no more than 6 guests. We welcome families traveling for pleasure.  No corporate customers. 2 nights minimum.",
54246370,cozy one bed room only girls,9655619896,unconfirmed,Dian,Manhattan,Stuyvesant Town,40.733909999999995,-73.97856999999999,United States,US,False,strict,Private room,2010,$797 ,$159 ,4,1,7/6/2018,0.08,4,1,0,"No smoking in apartment, in building or within 50 feet of entrance.  No pets.  Quiet and respectful of our neighbors.",
54246922,New york Multi-unit building,11356013134,unconfirmed,Clarise,Brooklyn,Flatbush,40.64258,-73.95952,United States,US,False,flexible,Private room,2011,"$1,003 ",$201 ,30,0,,,3,2,365,"Ideally a person that is respectful of my home , non smokers and no parties",
54247474,Spacious & charming apartment in the heart of NYC,78099130984,verified,Elizabeth,Manhattan,Midtown,40.75486,-73.97251999999999,United States,US,True,strict,Private room,2015,$513 ,$103 ,3,8,9/16/2018,0.65,4,1,0,,
54248027,Designer Waterfront Brooklyn Home with a View,96113846515,unconfirmed,Naheel,Brooklyn,Williamsburg,40.715740000000004,-73.9665,United States,US,False,flexible,Entire home/apt,2018,$64 ,$13 ,3,11,4/9/2019,0.94,3,1,0,"No smoking. Please do not use the fireplace. The porch is a lot fo fun, but make sure to keep Volume down after 11pm as neighbors can hear everything.",
54248579,Huge Moroccan Loft in Little Italy,84349169842,unconfirmed,Jonathan,Manhattan,Little Italy,40.71737,-73.99861,United States,US,True,strict,Entire home/apt,2003,$696 ,$139 ,2,2,8/14/2018,0.18,3,1,0,No Smoking.,
54249131,"Lovely apt heart of manhattan, location location",62224296053,unconfirmed,César Julio,Manhattan,Hell's Kitchen,40.76117,-73.99169,United States,US,True,strict,Private room,2012,$209 ,$42 ,22,1,8/1/2018,0.09,4,1,187,,
54249684,Luxury Greenwich Village Studio,30315425770,verified,Jonathan,Manhattan,Greenwich Village,40.73036,-73.99358000000001,United States,US,False,flexible,Entire home/apt,2011,$986 ,$197 ,4,1,7/11/2018,0.08,4,1,16,NO Smoking. Pets allow -- Breed Restrictions Apply.,
54250236,"Light-Filled 2 BR in Brooklyn, A Perfect Hideaway",70689907974,verified,Nïco,Brooklyn,Clinton Hill,40.6955,-73.96446,United States,US,True,flexible,Entire home/apt,2020,$890 ,$178 ,1,35,6/30/2019,2.87,5,1,0,No Smoking,
54250788,Cozy studio at UWS near Columbia university,21710754383,verified,Yooin,Manhattan,Morningside Heights,40.809979999999996,-73.95756,United States,US,True,strict,Entire home/apt,2019,$348 ,$70 ,1,25,6/25/2019,2.07,4,1,0,,
54251341,the family room,7404881281,verified,Hiram,Brooklyn,Bushwick,40.69164,-73.91513,United States,US,False,flexible,Shared room,2005,$991 ,$198 ,1,9,7/1/2019,1.03,3,2,365,,
54251893,1 Bedroom 3R in Authentic Brooklyn Brownstone,66791913591,unconfirmed,Vincent,Brooklyn,Bedford-Stuyvesant,40.69101,-73.93773,United States,US,False,moderate,Private room,2013,$423 ,$85 ,1,29,7/1/2019,2.46,5,6,288,"No smoking, pets or permitted",
54252445,Large 1 bedroom apartment near Prospect Park,82383064695,verified,Stacey,Brooklyn,South Slope,40.665009999999995,-73.98111999999999,United States,US,True,strict,Entire home/apt,2022,$372 ,$74 ,2,8,5/13/2019,0.66,2,1,0,,
54252997,New York Home at Times Square,89064319259,verified,Mayur,Manhattan,Theater District,40.75934,-73.98755,United States,US,False,strict,Private room,2020,$409 ,$82 ,4,14,6/29/2019,1.98,4,1,33,,
54253550,Brooklyn Comfy Room--20 minutes to Manhattan,66358904127,verified,Marisha,Brooklyn,Bushwick,40.6914,-73.90675,United States,US,False,flexible,Private room,2013,$839 ,$168 ,4,4,10/16/2018,0.36,4,2,364,,
54254102,FORDHAM DELIGHT,78242949310,unconfirmed,Oscar,Bronx,University Heights,40.86255,-73.90669,United States,US,True,moderate,Private room,2021,$687 ,$137 ,3,52,6/24/2019,4.79,2,2,0,,
54254654,A spacious room for females in Clinton Hill aptmnt,59414698749,verified,Priyanka,Brooklyn,Bedford-Stuyvesant,40.68932,-73.95886999999999,United States,US,True,strict,Private room,2018,$58 ,$12 ,2,2,1/13/2019,0.19,3,1,0,,
54255207,Perfect location for NYC getaway,75860040331,verified,Angela,Brooklyn,Williamsburg,40.71648,-73.94452,United States,US,True,strict,Entire home/apt,2022,$772 ,$154 ,1,52,6/23/2019,4.36,5,1,44,No Smoking.  No Pets.,
54255759,Lovely Bushwick oasis,6241637456,unconfirmed,Alicia,Brooklyn,Bushwick,40.69972,-73.92362,United States,US,True,flexible,Private room,2004,$88 ,$18 ,3,0,,,4,1,0,"1. Please keep a quiet environment 2. I want friendly guests. Please be friendly to each other or other tenants and help me to manage situations easily.  3. No smoking in the room; smoking should be outside of the building 4. No pets 5. Fire pre-cauction by using kitchen; If cooking food, leaving kitchen with interruption should be less than one minute. There was a tenant in 6 weeks, cooking food and leaving kitchen for more than 30 minutes and forgot to turn off switch 3 times. One year it will have 25 times forgoting to turn off fire switch. Two tenants will be 50 times in one year. It will cause fire. This behavior is not acceptable. To cook food without a person in the kitchen is not acceptable. 6. Becareful of clots in the pipe for bathroom and kitchen. Don't remove the bathroom filter when taking shower. Flush the toilet by holding the switch for 4-5 seconds for full flush. You may flush the toilet first; when there is no clots, you can use. Please don't dump food in the kitchen ",
54256311,"Comfort, clean and close to everything.",4578236978,verified,Al,Queens,Flushing,40.75819,-73.81976999999999,United States,US,True,moderate,Private room,2010,$702 ,$140 ,1,6,8/11/2018,0.5,2,1,0,No Smoking.  No Pets.,
54256864,Bedroom & Private Bathroom in Brooklyn!,27746326259,verified,Tami,Brooklyn,East Flatbush,40.648340000000005,-73.95161,United States,US,True,moderate,Private room,2018,$409 ,$82 ,1,37,6/25/2019,3.68,3,1,84,NO Smoking.  Pets permitted with fee.,
54257416,Room available in Bushwick duplex,67858360329,verified,Lee,Brooklyn,Bushwick,40.69298,-73.90685,United States,US,False,flexible,Private room,2013,$253 ,$51 ,5,1,8/18/2018,0.09,3,1,17,No smoking and no pets.,
54257968,Brooklyn Loft - close to Pratt!!! Great location!,95485708165,unconfirmed,Brittany,Brooklyn,Clinton Hill,40.68962,-73.96061999999999,United States,US,True,moderate,Entire home/apt,2019,"$1,066 ",$213 ,6,16,6/20/2019,1.58,5,1,168,NO Smoking. Pets allowed with non-refundable pet fee.,
54258520,Harlem Peace Quarters,70399226273,unconfirmed,Angel,Manhattan,Harlem,40.81488,-73.94415,United States,US,False,moderate,Private room,2008,$340 ,$68 ,1,12,7/28/2018,0.97,3,1,0,No Smoking,
54259073,A Great Room in Heart of NYC,63851871278,verified,Umut&Deniz,Manhattan,Lower East Side,40.72051,-73.98777,United States,US,True,moderate,Private room,2022,$680 ,$136 ,3,1,5/20/2019,0.6,3,5,270,No Smoking,
54259625,Private Room-Chinatown/Soho/LittleItaly.HeartofNYC,16550884946,verified,Ben,Manhattan,Chinatown,40.71515,-73.99826999999999,United States,US,True,flexible,Private room,2020,$466 ,$93 ,3,30,6/1/2019,2.51,4,2,147,,
54260177,Twin suites of Prospect Lefferts Garden- Brooklyn,69318640845,unconfirmed,Gary,Brooklyn,Prospect-Lefferts Gardens,40.66113,-73.95231,United States,US,True,strict,Entire home/apt,2011,$768 ,$154 ,2,6,6/30/2019,2.28,5,2,267,,
54260730,LG Private Room for (3). Metro less than 5 mins.,13928529193,unconfirmed,Mike,Manhattan,East Harlem,40.798,-73.93944,United States,US,False,strict,Private room,2022,$307 ,$61 ,7,0,,,4,3,358,,
54261282,Sunny One Bedroom Heart of Lower East Side,35508087347,verified,Barak,Manhattan,Lower East Side,40.72135,-73.98391,United States,US,True,flexible,Entire home/apt,2009,$618 ,$124 ,4,3,1/1/2019,0.25,4,1,0,,
54261834,Sunny & Spacious 2 bdrm apt,48843463751,verified,Regina,Brooklyn,Williamsburg,40.71906,-73.94039000000001,United States,US,True,strict,Entire home/apt,2005,$914 ,$183 ,4,2,7/2/2018,0.16,3,1,0,"Thank you for your reservation. By placing your reservation online you indicated that you accepted the terms and conditions which have been printed below.  Please review your reservation summary as below - then print, sign and return the agreement to:  (EMAIL HIDDEN) or fax it to (PHONE NUMBER HIDDEN) or  mail it to: Spare Suite, Inc., 119 Braintree Street, Suite 510, Boston, MA 02134, USA Upon receipt, we will send you the welcome document with check in instructions and how to get your keys. ------------------------------------------------------------------------ ------------------------------------------------------------------------ Terms of the Agreement: BOOKING AND REFUND POLICY Once booked your reservation is guaranteed for the check in and check out times and dates specified. All reservations must be paid in advance, in full for the entire period of stay.  All reservations are final, and NON REFUNDABLE UNDER ANY CIRCUMSTANCES.  If you feel you may need to cancel once booked, yo",
54262387,Beautiful Room In Spacious House w/ Full Kitchen,65142868383,verified,Lionel,Brooklyn,Kensington,40.62896,-73.97494,United States,US,False,strict,Private room,2022,$668 ,$134 ,1,34,7/1/2019,2.74,2,2,1,"Sorry, no smoking and no pets.",
54262939,Sunny Room in Newly Renovated Crown Heights Apt!,4424731636,verified,Rebecca,Brooklyn,Crown Heights,40.67478,-73.94418,United States,US,True,moderate,Private room,2007,$216 ,$43 ,2,25,11/30/2018,2.05,3,1,0,"No smoking, pets, overnight guests or loud noise.",
54263491,COZY BROOKLYN BEDROOM,53156432561,verified,Mercedes,Brooklyn,Crown Heights,40.67863,-73.95859,United States,US,True,strict,Private room,2003,"$1,139 ",$228 ,1,2,9/30/2018,0.17,3,1,0,• Check-in time is 3PM.,
54264043,Beautiful Queens Home close to JFK and LGA,49840277318,verified,Hamad,Queens,Queens Village,40.70789,-73.74073,United States,US,False,strict,Entire home/apt,2010,$151 ,$30 ,3,134,7/7/2019,10.86,2,1,63,,
54264596,Room with a view,19102059497,unconfirmed,Martin,Brooklyn,Williamsburg,40.709590000000006,-73.95693,United States,US,False,flexible,Private room,2019,"$1,004 ",$201 ,1,0,,,4,1,83,"Please be respectful of everything in our apartment. This is our primary residence, so please treat our home like it were your own! Thank you!",
54265148,Sun Drenched One Bedroom in the East Village,98012371126,unconfirmed,Christina,Manhattan,East Village,40.722559999999994,-73.9848,United States,US,True,moderate,Entire home/apt,2004,$917 ,$183 ,3,6,11/25/2018,0.48,2,1,4,,
54265700,Sunny Room in a Cozy & Spacious Apartment,13287815864,verified,Victoria,Brooklyn,Sunset Park,40.66236,-73.99037,United States,US,False,strict,Private room,2015,"$1,028 ",$206 ,2,41,6/30/2019,3.35,5,1,340,,
54266253,Private Room and most of apt in Upper West Side,62124971431,unconfirmed,Santiago,Manhattan,Morningside Heights,40.80624,-73.9634,United States,US,False,strict,Private room,2017,$752 ,$150 ,1,7,7/31/2018,0.57,3,1,0,"-No smoking -No local guests -If you use the kitchen, please clean up after yourself. -I will leave maps/guides for your reference, but please do not remove anything from my home. -If you have any questions, please call or text me (phone number hidden). -Most importantly, enjoy yourself!",
54266805,"Beautiful, Modern & Bright Apt in the East Village",70422250791,verified,Daniel,Manhattan,East Village,40.72634,-73.97625,United States,US,True,strict,Private room,2011,$104 ,$21 ,2,31,6/26/2019,2.88,2,1,81,"House Rules 1. Check-in is 4 pm local time. If the unit is ready earlier, we’ll let you know. Check-out is normally 11 am local time, but we’d be happy to extend it as long as we don’t have a cleaning scheduled. Just let us know.  2. All bookings require a security deposit of at least $300, which will be refunded within 7 days of your check-out. 3. For security measures we require all guests to provide proof of identification through ID verification on our own website. In order to check in we'll need a photo of your ID.  4. Our cancellation policy is as shown on our ad and defined by the site you are booking through.  5. Don’t let $300 go up in smoke. There's no smoking allowed in any Flatbook and a $300 fine for breaking this rule.  6. Unfortunately we don’t allow pets in any of our apartments. 7. Unless you’re staying in one of our specialty apartments, we don’t allow parties or excessive noise. 8. If we find the place very messy, we have to charge an extra $40 for every extra hour o",
54267357,"Clean, quiet studio apartment - Gramercy/Kips Bay!",30914068784,unconfirmed,Despina,Manhattan,Kips Bay,40.74174,-73.98161999999999,United States,US,False,flexible,Entire home/apt,2016,"$1,155 ",$231 ,25,7,10/31/2018,0.58,4,1,0,"Please Note: This unit was just renovated last year and it comfortably accommodates 4 guests, but up to 5 guests are permitted if you so desire (two guests in each bedroom and 1 guest on the available twin size air mattress). Please request an air mattress (if needed) when making a reservation. No smoking, no pets, no parties, and must be 25 years old to book.   For check-out, please ensure: -  All plates and cups are left in the sink or dishwasher -  All trash is left in the kitchen trash can or bagged and left next to the trash can (additional bags are under the sink) -  All windows are closed and locked -  If used, the air mattresses are deflated and put away (please leave used linens for the air mattresses on the floor) -  If furniture was moved during your stay, please return to its original location Please be mindful to our neighbors in the building; quiet hours after 10pm. Please be considerate of our next guests who will be staying after you, if something is broken or needs fix",
54267910,**Private Entrance Apartment W/ Bedroom & Bath**,70358514898,unconfirmed,Jacqueline,Queens,Glendale,40.702709999999996,-73.87716999999999,United States,US,False,strict,Entire home/apt,2017,$525 ,$105 ,3,49,7/2/2019,4.06,4,1,293,No smoking. No parties. Respectful of property :),
54268462,Brigham Place,79110336312,unconfirmed,Eeman,Brooklyn,Sheepshead Bay,40.59689,-73.93353,United States,US,False,flexible,Entire home/apt,2019,$545 ,$109 ,1,35,6/18/2019,2.91,4,2,97,No Smoking  No Pets,
54269014,COZY ROCKAWAY BEACH BUNGALOW 1 BEDROOM,35912265345,unconfirmed,Jeremy,Queens,Rockaway Beach,40.587559999999996,-73.81371,United States,US,True,moderate,Entire home/apt,2019,$845 ,$169 ,1,41,7/2/2019,3.34,5,2,140,"House Rules 1. Check-in is 4 pm local time. If the unit is ready earlier, we’ll let you know. Check-out is normally 11 am local time, but we’d be happy to extend it as long as we don’t have a cleaning scheduled. Just let us know.  2. All bookings require a security deposit of at least $300, which will be refunded within 7 days of your check-out. 3. For security measures we require all guests to provide proof of identification through ID verification on our own website. In order to check in we'll need a photo of your ID.  4. Our cancellation policy is as shown on our ad and defined by the site you are booking through.  5. Don’t let $300 go up in smoke. There's no smoking allowed in any Flatbook and a $300 fine for breaking this rule.  6. Unfortunately we don’t allow pets in any of our apartments. 7. Unless you’re staying in one of our specialty apartments, we don’t allow parties or excessive noise. 8. If we find the place very messy, we have to charge an extra $40 for every extra hour o",
54269566,Private Room_Brooklyn Townhouse,11507147965,unconfirmed,Brian,Brooklyn,Navy Yard,40.69793,-73.96989,United States,US,False,strict,Private room,2005,$430 ,$86 ,1,11,6/6/2019,1.1,2,2,90,No Smoking  No Pets,
54270119,M2 A cozy well lit room sleeps 2 on  2 single beds,26625319552,unconfirmed,Carol Gloria,Bronx,Clason Point,40.81309,-73.85367,United States,US,True,flexible,Private room,2012,$779 ,$156 ,1,3,4/28/2019,0.47,2,7,360,No Smoking  No Pets,
54270671,Private Room in Rockaway House-Nearby JFK & Subway,24585115192,unconfirmed,Paul,Queens,Rockaway Beach,40.58743,-73.81411,United States,US,True,flexible,Private room,2019,$641 ,$128 ,1,10,6/11/2019,0.87,5,1,356,No Smoking  No Pets,
54271223,Brooklyn: Spacious apartment in calm neighborhood,31644367853,unconfirmed,Talia,Brooklyn,Gowanus,40.68234,-73.98223,United States,US,False,moderate,Entire home/apt,2011,$904 ,$181 ,4,2,4/30/2019,0.17,4,1,55,"Please Note: This unit was just renovated last year and it comfortably accommodates 6 guests, but up to 7 guests are permitted if you so desire (two guests in each bedroom and 1 or 2 guests on the available queen size air mattress). Please request an air mattress (if needed) when making a reservation. No smoking, no pets, no parties, and must be 25 years old to book.   For check-out, please ensure: -  All plates and cups are left in the sink or dishwasher -  All trash is left in the kitchen trash can or bagged and left next to the trash can (additional bags are under the sink) -  All windows are closed and locked -  If used, the air mattresses are deflated and put away (please leave used linens for the air mattresses on the floor) -  If furniture was moved during your stay, please return to its original location Please be mindful to our neighbors in the building; quiet hours after 10pm. Please be considerate of our next guests who will be staying after you, if something is broken or ne",
54271776,Cozy 1 Bedroom Apartment In Great LES Location,68802615213,verified,Andrea,Manhattan,Lower East Side,40.72003,-73.98928000000001,United States,US,False,moderate,Entire home/apt,2008,$106 ,$21 ,4,23,7/1/2019,1.99,2,2,233,"House Rules 1. All bookings made at least a week before check in are fully refundable if cancelled within 24 hours of booking. After this, you will receive a 50% refund if you cancel at least 7 days before the start of your trip. 2. Check-in time is any time after 4 pm local time. If the unit is ready earlier, we’ll let you know. Check-out is normally 11 am local time, but we’d be happy to extend it as long as we don’t have a cleaning scheduled. Just let us know.  3. All bookings require a security deposit of at least $300. 4. For security measures we require all guests to provide proof of identification through ID verification on our own website. In order to check in, we'll need a photo of your ID.  5. Don’t let $300 go up in smoke. There's no smoking allowed in any Flatbook and a $300 fine for breaking this rule.  6. Unfortunately we don’t allow pets in most of our apartments. 7. Unless you’re staying in one of our specialty apartments, we don’t allow parties or excessive noise. 8. I",
54272328,U2 comfortable double bed sleeps 2 guests,73217280333,verified,Carol Gloria,Bronx,Clason Point,40.81225,-73.85502,United States,US,True,moderate,Private room,2004,$457 ,$91 ,1,4,7/1/2019,1.48,4,7,365,No Smoking  No Pets,
54272880,Tranquil East Village apartment,21679119351,verified,Lotte,Manhattan,East Village,40.72607,-73.97851,United States,US,False,flexible,Entire home/apt,2009,$399 ,$80 ,3,3,6/27/2019,0.28,2,1,25,,
54273433,Spacious Bushwick Bedroom!,44930891116,unconfirmed,Alex,Brooklyn,Bushwick,40.69505,-73.92968,United States,US,True,flexible,Private room,2020,$753 ,$151 ,10,4,5/11/2019,0.35,5,1,13,,
54273985,Luxurious Harlem 1 Bdrm Steps from Subway,83522847990,unconfirmed,Andrea,Manhattan,Harlem,40.81581,-73.94142,United States,US,False,flexible,Entire home/apt,2005,$945 ,$189 ,3,22,6/3/2019,1.9,5,1,261,"The building has a very strict no smoking policy, please do not smoke in the apartment.  Our neighbors are very conservative, please be respectful, and discreet. No grilling is allowed on the roof.",
54274537,*AMAZING* Large Studio in Prime Union Square area!,91805003780,verified,Michelle,Manhattan,Greenwich Village,40.735240000000005,-73.99259,United States,US,True,strict,Entire home/apt,2015,$648 ,$130 ,3,2,6/30/2019,1.3,3,1,1,,
54275089,Beautiful 1 bedroom in South Midtown Manhattan,1547574333,unconfirmed,William,Manhattan,Midtown,40.7523,-73.99024,United States,US,True,moderate,Entire home/apt,2015,$342 ,$68 ,5,7,1/3/2019,0.63,2,1,0,,
54275642,Family suites in UpperEastSide Townhouse,62449019043,unconfirmed,Sydney,Manhattan,Upper East Side,40.77669,-73.95283,United States,US,True,flexible,Private room,2020,$150 ,$30 ,1,4,6/23/2019,0.35,2,3,365,,
54276194,Brooklyn Oasis,33828552151,unconfirmed,Alwyn,Brooklyn,Flatbush,40.633379999999995,-73.95074,United States,US,False,strict,Entire home/apt,2012,$762 ,$152 ,4,18,6/30/2019,1.6,3,1,46,,
54276746,"Magical  Brownstone in Fort Greene, Artist Room",76883417071,verified,Maria,Brooklyn,Fort Greene,40.68992,-73.97528,United States,US,True,flexible,Private room,2022,$104 ,$21 ,4,4,5/16/2019,0.45,5,3,291,,
54277299,Private room in Williamsburg Brooklyn,24616187503,unconfirmed,David,Brooklyn,Williamsburg,40.711420000000004,-73.96141,United States,US,False,flexible,Private room,2021,$600 ,$120 ,5,1,8/14/2018,0.09,2,1,0,,
54277851,Cozy apartment 9mts to Barclays Center/ProspecPark,71845942696,unconfirmed,Lou,Brooklyn,Sunset Park,40.66291,-73.995,United States,US,False,flexible,Entire home/apt,2009,$262 ,$52 ,1,34,6/11/2019,2.83,2,5,147,I expect you to keep the apartment picked up and left how it was when you arrived.,
54278403,Cozy Apt in Centrally Located Brooklyn Heights,25072030679,unconfirmed,Walter,Brooklyn,Brooklyn Heights,40.69174,-73.99283,United States,US,False,flexible,Entire home/apt,2010,"$1,040 ",$208 ,2,4,8/27/2018,0.36,5,2,11,1. No house parties 2. Do not damage any of the furniture or appliances.  3. Do not take anything that has been provided for your comfort and enjoyment.  4. Enjoy yourself! And please reach out if you have any questions or concerns.,
54278956,Hip Master Bedroom with A Private Bathroom in NYC,76560149545,verified,Brian,Manhattan,Roosevelt Island,40.764,-73.94740999999999,United States,US,False,strict,Private room,2010,$841 ,$168 ,3,2,8/7/2018,0.17,2,1,0,"Please remember that this is a residential building. The building rules, apartment occupancy restrictions and the year-round tenants must be respected.  Parties, pets and smoking are not allowed under any circumstances and incur significant fees.",
54279508,BEST LOCATION Times Square Central Prk Hudson Yrds,54934738725,verified,Laura-Lee,Manhattan,Hell's Kitchen,40.75524,-73.99361999999999,United States,US,True,moderate,Entire home/apt,2011,$723 ,$145 ,1,34,6/28/2019,2.9,4,1,1,,
54280060,Roosevelt Island - Hidden Gem of New York,87159783714,verified,Justin,Manhattan,Roosevelt Island,40.76506,-73.94662,United States,US,True,flexible,Private room,2006,"$1,129 ",$226 ,1,2,7/21/2018,0.16,3,1,0,No smoking. Please be respectful of our neighbors.,
54280612,AMAZING AAA Specious  Studio South Expo  Skylight!,33858443491,unconfirmed,Ofir,Manhattan,Upper West Side,40.78246,-73.98314,United States,US,True,moderate,Entire home/apt,2009,$71 ,$14 ,30,0,,,5,8,89,"11 nights minimum stay No pets at any time No smoking Please be mindful of the furniture and personal belongings, it was all furnished with designer pieces and hard to replace things.",
54281165,Former Mattress Factory Loft,8317319204,unconfirmed,Holly,Brooklyn,Williamsburg,40.70277,-73.93568,United States,US,False,moderate,Entire home/apt,2004,$491 ,$98 ,1,1,7/8/2018,0.08,3,1,76,No smoking or pets allowed,
54281717,Beautiful studio with loft bed north expo!,51967656775,unconfirmed,Ofir,Manhattan,Upper West Side,40.7828,-73.98348,United States,US,True,moderate,Entire home/apt,2019,$718 ,$144 ,30,0,,,4,8,157,,
54282269,"✨Cozy clean room, 5 min walk to subway(Line R/M)",8308409601,verified,Bei,Queens,Rego Park,40.726079999999996,-73.86233,United States,US,False,moderate,Private room,2012,$729 ,$146 ,2,28,5/28/2019,2.36,4,3,38,,
54282822,"Cosy room in Queens, 5 min walk to subway(R/M)",41198412959,verified,Bei,Queens,Rego Park,40.72738,-73.86273,United States,US,False,flexible,Private room,2022,$87 ,$17 ,2,21,5/28/2019,1.76,4,3,0,,
54283374,New Luxury Building,9926970918,verified,Anna,Manhattan,Hell's Kitchen,40.76213,-73.99938,United States,US,False,strict,Entire home/apt,2017,$495 ,$99 ,5,1,9/25/2018,0.1,3,1,11,,
54283926,"Private Bedroom, Easy travel in brooklyn",68711471013,verified,Waen,Brooklyn,Fort Greene,40.693090000000005,-73.97238,United States,US,True,strict,Private room,2007,"$1,117 ",$223 ,2,47,7/1/2019,4.15,4,1,0,No smoking or pets,
54284479,Gorgeous private room in a luxury condo by Time Sq,6520736494,verified,Evgeny,Manhattan,Hell's Kitchen,40.75945,-73.99344,United States,US,True,flexible,Private room,2003,$855 ,$171 ,4,0,,,3,1,0,,
54285031,Peace and love,11588255525,unconfirmed,Yasser,Queens,Maspeth,40.72959,-73.89381,United States,US,False,flexible,Private room,2013,$600 ,$120 ,30,0,,,5,1,179,#NAME?,
54285583,"Stylish, art-filled apartment near Hudson River",74244018025,unconfirmed,Eileen,Manhattan,Washington Heights,40.8436,-73.9412,United States,US,False,strict,Entire home/apt,2004,$307 ,$61 ,11,1,7/30/2018,0.09,2,1,342,"House rules: Guests agree to the following terms and conditions 1.Guest(s) agree to NO PARTIES anywhere on the property. Legal action will be taken for parties that cause damages to the unit, property, reputation, or relationship with building staff or other residents.  2.Smoking of any kind is not permitted in the unit or on the premises.  3.Guests agree to abide by maximum occupancy of unit, and observe quiet hours between 9pm and 9am 4.Guests are responsible for action of ALL GUESTS occupying their unit at all times.  5.Guests agree to return all keys, remotes, and parking passes. Replacement fees may apply for unreturned items 6.Guests understand that onsite building staff (maintenance and concierge) are not affiliated with Jordan or AIRBNB. Please contact me directly for any needed items. 7.Guests understand that no pets are to be in the unit.  8.Guests agree to pay replacement cost for any unreturned items, and $125 per hour fee for unauthorized early checkin or late checkout.  18",
54286135,Large Studio in the heart of West Village,33789726232,verified,Kai,Manhattan,West Village,40.73429,-74.00487,United States,US,True,moderate,Entire home/apt,2004,$788 ,$158 ,3,6,3/25/2019,0.52,4,1,0,No smoking and no parties.,
54286688,179st Hub Master Bedroom w/ balcony,56396112933,verified,Jeff,Queens,Jamaica,40.70985,-73.78429,United States,US,True,moderate,Private room,2008,$233 ,$47 ,2,4,6/12/2019,0.34,2,7,0,"No smoking, no pets. Please keep the noise at a respectful level at all times - *particularly after 10pm (as other units in the building are owner-occupied). Please treat it as though it were your own home.",
54287240,Studio in UES (7mins from Central Park/The MET),12901672589,verified,Gursharan,Manhattan,Upper East Side,40.77537,-73.95555999999999,United States,US,False,flexible,Entire home/apt,2006,$202 ,$40 ,5,1,7/3/2018,0.08,4,1,0,No smoking. Not pets/animals. No parties or events. No entertaining beyond confirmed booked guests.,
54287792,Charming Sunny Studio Lower East Side.,67205849569,unconfirmed,Cecilia,Manhattan,Lower East Side,40.72235,-73.98765999999999,United States,US,True,moderate,Entire home/apt,2004,$311 ,$62 ,3,1,7/27/2018,0.09,2,1,0,,
54288345,Sleek and Modern Studio Apartment,64542411086,unconfirmed,Brandon,Brooklyn,Williamsburg,40.716570000000004,-73.96512,United States,US,False,moderate,Entire home/apt,2020,$602 ,$120 ,15,0,,,4,1,0,"Absolutely no smoking, no pets, parties or excessive noise in the apartment.  This is a quiet residential building, perfect for travelers wanting a quiet refuge at the end of a fun filled day in Greater Boston.",
54288897,Modern duplex 30 minutes to Times Square,5464506963,unconfirmed,Marvin,Manhattan,Washington Heights,40.85515,-73.93297,United States,US,True,strict,Entire home/apt,2012,$334 ,$67 ,4,20,6/22/2019,1.94,4,1,228,"House rules: Guests agree to the following terms and conditions 1.Guest(s) agree to NO PARTIES anywhere on the property. Legal action will be taken for parties that cause damages to the unit, property, reputation, or relationship with building staff or other residents.  2.Smoking of any kind is not permitted in the unit or on the premises.  3.Guests agree to abide by maximum occupancy of unit, and observe quiet hours between 9pm and 9am 4.Guests are responsible for action of ALL GUESTS occupying their unit at all times.  5.Guests agree to return all keys, remotes, and parking passes. Replacement fees may apply for unreturned items 6.Guests understand that onsite building staff (maintenance and concierge) are not affiliated with Jordan or AIRBNB. Please contact me directly for any needed items. 7.Guests understand that no pets are to be in the unit.  8.Guests agree to pay replacement cost for any unreturned items, and $125 per hour fee for unauthorized early checkin or late checkout.  18",
54289449,*NYC Flat Cold Cozy Private Room w/ Blazin' WiFi*,35998226568,verified,William,Bronx,Allerton,40.85978,-73.8619,United States,US,True,strict,Private room,2013,"$1,151 ",$230 ,1,29,6/25/2019,2.47,5,5,48,"Please remember that this is a residential building. The building rules, apartment occupancy restrictions and the year-round tenants must be respected.",
54290002,Sonder | 21 Chelsea | Serene 1BR + Rooftop,65057482626,verified,Sonder,Manhattan,Chelsea,40.74259,-73.99589,United States,US,True,strict,Entire home/apt,2014,$882 ,$176 ,29,0,,,3,96,230,"No smoking, no parties, no pets.",
54290554,PRIME BEDSTUY LOCATION WITH A VIEW! BOOK WITH US!,19982645228,verified,Taylor,Brooklyn,Bedford-Stuyvesant,40.678540000000005,-73.94883,United States,US,False,moderate,Shared room,2022,$109 ,$22 ,1,2,7/15/2018,0.17,3,1,342,"Please remember that this is a residential building. The building rules, apartment occupancy restrictions and the year-round tenants must be respected.  Parties, pets and smoking are not allowed under any circumstances and incur significant fees.",
54291106,"Beautiful NYC Private Room/Bath, Late Check-In OK",16182938138,unconfirmed,William,Bronx,Allerton,40.860170000000004,-73.86198,United States,US,True,flexible,Private room,2007,$335 ,$67 ,1,36,7/2/2019,3.5,2,5,57,No Smoking,
54291658,East Village/Union Square Flat,91905460927,verified,Bob,Manhattan,East Village,40.731770000000004,-73.98691,United States,US,False,flexible,Entire home/apt,2016,$914 ,$183 ,5,32,6/26/2019,2.92,4,1,12,"House rules: Guests agree to the following terms and conditions 1.Guest(s) agree to NO PARTIES anywhere on the property. Legal action will be taken for parties that cause damages to the unit, property, reputation, or relationship with building staff or other residents.  2.Smoking of any kind is not permitted in the unit or on the premises.  3.Guests agree to abide by maximum occupancy of unit, and observe quiet hours between 9pm and 9am 4.Guests are responsible for action of ALL GUESTS occupying their unit at all times.  5.Guests agree to return all keys, remotes, and parking passes. Replacement fees may apply for unreturned items 6.Guests understand that onsite building staff (maintenance and concierge) are not affiliated with Jordan or AIRBNB. Please contact me directly for any needed items. 7.Guests understand that no pets are to be in the unit.  8.Guests agree to pay replacement cost for any unreturned items, and $125 per hour fee for unauthorized early checkin or late checkout.  18",
54292211,"Beach Street Loft -  Surf Rockaway Beach, NYC, JFK",2085099117,verified,Andre,Queens,Arverne,40.59427,-73.79729,United States,US,True,strict,Entire home/apt,2004,$728 ,$146 ,1,36,6/23/2019,2.96,2,1,70,No Smoking,
54292763,Immaculate and Spacious,95258571537,verified,Debbie,Manhattan,Midtown,40.74624,-73.98255,United States,US,False,strict,Entire home/apt,2012,$804 ,$161 ,2,31,6/23/2019,2.66,5,1,142,,
54293315,Big Bright Studio in the Heart of Brooklyn,18997250447,unconfirmed,Julia,Brooklyn,Midwood,40.61716,-73.96271,United States,US,True,strict,Entire home/apt,2009,$336 ,$67 ,5,24,6/8/2019,2.02,3,1,0,ABSOLUTELY NO SMOKING.,
54293868,NEW - Big Brooklyn apt in Bushwick,24650761157,verified,Charles,Brooklyn,Bushwick,40.699490000000004,-73.92383000000001,United States,US,False,moderate,Entire home/apt,2012,"$1,119 ",$224 ,2,6,6/26/2019,0.54,4,1,0,"House Rules 1. Check-in is 4 pm local time. If the unit is ready earlier, we’ll let you know. Check-out is normally 11 am local time, but we’d be happy to extend it as long as we don’t have a cleaning scheduled. Just let us know.  2. All bookings require a security deposit of at least $300, which will be refunded within 7 days of your check-out. 3. For security measures we require all guests to provide proof of identification through ID verification on our own website. In order to check in we'll need a photo of your ID.  4. Our cancellation policy is as shown on our ad and defined by the site you are booking through.  5. Don’t let $300 go up in smoke. There's no smoking allowed in any Flatbook and a $300 fine for breaking this rule.  6. Unfortunately we don’t allow pets in any of our apartments. 7. Unless you’re staying in one of our specialty apartments, we don’t allow parties or excessive noise. 8. If we find the place very messy, we have to charge an extra $40 for every extra hour o",
54294420,Midtown NYC: High End Resort Sleeps 2,6471749220,unconfirmed,Millie,Manhattan,Midtown,40.7521,-73.97334000000001,United States,US,False,flexible,Private room,2004,"$1,062 ",$212 ,2,2,1/1/2019,0.25,3,1,0,,
54294972,Cozy private Room in 2 bedrooms appt,49643493652,unconfirmed,Rudi,Brooklyn,Williamsburg,40.71415,-73.96225,United States,US,True,flexible,Private room,2012,$653 ,$131 ,1,0,,,3,1,0,No party No alcohol,
54295525,Quiet and Cozy Brooklyn Home in Perfect Location,81542635912,verified,Jared,Brooklyn,Greenpoint,40.72446,-73.9516,United States,US,True,flexible,Entire home/apt,2007,"$1,003 ",$201 ,3,13,6/17/2019,1.13,5,1,0,"Please remember that this is a residential building. The building rules, apartment occupancy restrictions and the year-round tenants must be respected.",
54296077,"Park Slope, Brooklyn",13142998689,verified,Anuar,Brooklyn,South Slope,40.66625,-73.9826,United States,US,True,moderate,Private room,2009,$936 ,$187 ,2,15,6/5/2019,2.33,2,1,57,No smoking or partying.,
54296629,"Fifth Element: 7bd, private home.FREE CANCELLATION",17929471180,verified,Edwin,Bronx,Pelham Gardens,40.862390000000005,-73.84362,United States,US,True,strict,Entire home/apt,2018,"$1,118 ",$224 ,1,67,7/6/2019,6.07,4,1,337,,
54297181,"Charming Williamsburg Apartment,  next to trainJZM",69333277628,unconfirmed,Leanne,Brooklyn,Williamsburg,40.711059999999996,-73.95945,United States,US,True,moderate,Private room,2016,$966 ,$193 ,4,1,7/31/2018,0.09,3,1,220,,
54297734,2 Stops from Manhattan in Trendy LIC,79613635288,verified,Christina,Queens,Long Island City,40.75311,-73.93628000000001,United States,US,True,moderate,Entire home/apt,2005,"$1,117 ",$223 ,2,30,6/16/2019,2.54,4,1,172,We provide this in the apartment. Residential neighborhood.  Quiet is important.  No smoking. No pets,
54298286,Warm and Cozy Bedroom ~ 15 minutes to JFK,37376668865,unconfirmed,Jeffrey & Casandra,Queens,Bayswater,40.61036,-73.7687,United States,US,True,flexible,Private room,2020,"$1,184 ",$237 ,1,8,7/7/2019,8.0,3,1,172,"Maximum of 2 people over 21 years of age may stay in this studio. There is a one week minimum stay and there is little if any parking available. Sorry, no children and no pets. This place is best for people visiting Boston for conferences, research, or being near family. It is not a resort and there are strict condominium rules about quiet and privacy.",
54298838,#ERROR!,41841353089,verified,William,Bronx,Allerton,40.86014,-73.86301,United States,US,False,strict,Private room,2020,$864 ,$173 ,1,30,7/2/2019,2.56,4,5,48,The apartment is non-smoking and pets are not allowed.,
54299391,A sweet cozy one bedroom in Crown Heights Brooklyn,68937328811,verified,Dena,Brooklyn,Prospect-Lefferts Gardens,40.66352,-73.94157,United States,US,False,moderate,Entire home/apt,2017,$907 ,$181 ,5,8,6/3/2019,0.69,2,1,57,,
54299943,"❤️ Beautiful, Bright Room - Late Self Check-In  ❤️",14682176495,unconfirmed,William,Bronx,Allerton,40.86013,-73.86339,United States,US,False,strict,Private room,2019,$573 ,$115 ,1,30,7/2/2019,2.56,2,5,57,,
54300495,One bedroom apt with private yard in Williamsburg,17007112583,verified,Peggy,Brooklyn,Williamsburg,40.70807,-73.95565,United States,US,False,moderate,Entire home/apt,2021,$720 ,$144 ,3,6,10/1/2018,0.54,4,1,0,,
54301048,Lower East Side Loft (Event Space),6860739242,verified,Will,Manhattan,Lower East Side,40.71946,-73.98935,United States,US,False,strict,Entire home/apt,2018,$114 ,$23 ,1,2,8/29/2018,0.18,5,1,0,"We need to know your arrival time ALMOST 2 days before your arrival, as we need to plan arrivals and cleaning, so it's to guarantee you that you will find the flat clean and ready at your arrival. - Check out is 10:00am and if you will be late, we can charge a late check out fee (min $25) and any damage that your delay can cause to the incoming guest or to the cleaning service. - Smoking is not allowed as are loud noises after 10pm or before 9am. - Guests are not allowed to have extra guests. - A regular check out cleaning is included in the price but it doesn't mean that we will wash your dishes or pick up the garbage all around the house, so please use the trash bin and clean after using the kitchen, if not we will take pictures and charge you the extra cleaning. - There is no daily cleaning service during your stay or any change of linen/towels if you're staying more than 3 nights we can agree a change of towels (only), just ask us in advance. We're here to do the best for our guest",
54301600,PrivateBed&BathLGAMetsTimeSqUSTAFlushingQueens,63190546845,unconfirmed,Nonie,Queens,Corona,40.75046,-73.85443000000001,United States,US,False,strict,Private room,2019,$660 ,$132 ,2,19,6/24/2019,1.6,3,1,24,,
54302152,Modern NYC Apartment,40733988852,verified,George,Manhattan,Harlem,40.80455,-73.95429,United States,US,True,flexible,Entire home/apt,2012,$948 ,$190 ,2,16,11/24/2018,1.32,2,1,0,"Please remember that this is a residential building. The building rules, apartment occupancy restrictions and the year-round tenants must be respected.  Parties and smoking are not allowed under any circumstances and incur significant fees. Parties and smoking are not allowed under any circumstances and incur significant fees. Pets may be considered with pre-approval and an additional pet fee.",
54302704,Luxury East Village Penthouse With Private Deck,38810343976,unconfirmed,Leigh,Manhattan,East Village,40.72436,-73.98235,United States,US,False,flexible,Entire home/apt,2006,$697 ,$139 ,2,9,6/28/2019,0.8,3,1,0,#NAME?,
54303257,Bedstuy Cove,50737340726,verified,Luqman,Brooklyn,Bedford-Stuyvesant,40.68125,-73.92326,United States,US,False,flexible,Private room,2021,$560 ,$112 ,1,7,8/23/2018,0.59,5,1,129,Please no smoking in any of the inside premises or on the roof deck; no loud music; no moving or rearranging furniture; and no guests beyond those indicated at booking (without clearing with owner first).,
54303809,"Quiet, Private and Sunny in Greenwich Village",30236688873,verified,Rose,Manhattan,Greenwich Village,40.73093,-74.00125,United States,US,True,moderate,Entire home/apt,2016,$492 ,$98 ,2,42,6/21/2019,3.62,2,1,129,"Please remember that this is a residential building. The building rules, apartment occupancy restrictions and the year-round tenants must be respected.",
54304361,Comfortable room 30/35 minutes to Manhattan,98246040879,verified,Luis,Brooklyn,Bedford-Stuyvesant,40.679629999999996,-73.90816,United States,US,False,flexible,Private room,2008,$491 ,$98 ,1,16,4/28/2019,2.34,4,3,0,"The apartment feels larger then listed, Nice high ceiling in the living room and an Island kitchen to enjoy breakfast.  The bedroom has a loft that fit a queen mattress, hardwood floors through out.  Bathroom has a bath tub",
54304914,"Gorgeous, Entire Apartment in Bushwick, Brooklyn",77435769810,verified,Rachael,Brooklyn,Bushwick,40.69257,-73.92331999999999,United States,US,False,strict,Entire home/apt,2010,$129 ,$26 ,1,7,5/12/2019,0.62,2,1,88,,
54305466,Queen Bedroom with Private roof top,48874958858,unconfirmed,Tamiris,Brooklyn,Williamsburg,40.71787,-73.94171,United States,US,True,moderate,Private room,2014,$139 ,$28 ,2,4,6/1/2019,1.5,5,2,66,"No smoking in the apartment, in the building or outside of the building.  We ask that you be quiet and respectful of our neighbors.",
54306018,Manhathan NY,28139338224,verified,Romulo,Manhattan,Inwood,40.86735,-73.91762,United States,US,True,strict,Private room,2009,$857 ,$171 ,3,3,8/23/2018,0.26,2,1,0,No smoking is a MUST. Fireplace is decorative only. No candles may be lit - I do have battery operated available.,
54306571,2 Bedroom in 1897 Landmarked house,67131365773,unconfirmed,Missy & Julien,Brooklyn,Crown Heights,40.67512,-73.94703,United States,US,True,moderate,Entire home/apt,2022,$120 ,$24 ,5,28,6/29/2019,2.54,4,2,62,No smoking or parties allowed,
54307123,Private Bedroom in Manhattan,98288645753,unconfirmed,Emma,Manhattan,Inwood,40.86411,-73.92241,United States,US,False,flexible,Private room,2019,$907 ,$181 ,3,1,7/31/2018,0.09,3,1,0,"House Rules 1. Check-in is 4 pm local time. If the unit is ready earlier, we’ll let you know. Check-out is normally 11 am local time, but we’d be happy to extend it as long as we don’t have a cleaning scheduled. Just let us know.  2. All bookings require a security deposit of at least $300, which will be refunded within 7 days of your check-out. 3. For security measures we require all guests to provide proof of identification through ID verification on our own website. In order to check in we'll need a photo of your ID.  4. Our cancellation policy is as shown on our ad and defined by the site you are booking through.  5. Don’t let $300 go up in smoke. There's no smoking allowed in any Flatbook and a $300 fine for breaking this rule.  6. Unfortunately we don’t allow pets in any of our apartments. 7. Unless you’re staying in one of our specialty apartments, we don’t allow parties or excessive noise. 8. If we find the place very messy, we have to charge an extra $40 for every extra hour o",
54307675,Humble home,81653581561,unconfirmed,Ailin,Bronx,Morris Heights,40.84835,-73.9141,United States,US,True,flexible,Entire home/apt,2013,$564 ,$113 ,1,1,7/25/2018,0.09,4,1,0,"Shoes off at entry. Please NO SMOKERS or smoking on premises.  No loud music or loud voices on deck out of concern for neighbors.  Dispose of trash in receptacles rear of building.  Max 2 guests to share guest bedroom, SOFA IS NOT AN EXTRA BED.  Please NO VISITORS in unit beyond approved Air BND guests.  No use of fire place.  No cleaning fee, please clean dishes and dispose of smelly trash.  Thank you!!! :-)",
54308227,Sky Boasts Exquisite Studio,17712944838,verified,Dening,Manhattan,Hell's Kitchen,40.761379999999996,-73.99945,United States,US,False,strict,Entire home/apt,2019,$509 ,$102 ,2,3,7/9/2018,0.25,2,1,0,,
54308780,Cozy Private Upper Eastside Bedroom,14696080203,verified,David,Manhattan,Upper East Side,40.77673,-73.95525,United States,US,False,strict,Private room,2009,"$1,100 ",$220 ,2,4,10/1/2018,0.34,2,2,0,Please no smoking in any of the inside premises or on the roof deck; no loud music; no moving or rearranging furniture; and no guests beyond those indicated at booking (without clearing with owner first).,
54309332,Prime Bushwick - 10 min to city - Superhost,35117230473,unconfirmed,Chris & Grace,Brooklyn,Bushwick,40.69675,-73.93374,United States,US,True,flexible,Private room,2016,$588 ,$118 ,2,42,6/23/2019,3.43,5,2,348,,
54309884,Private room in walking distance from Central Park,67366896819,unconfirmed,Vady,Manhattan,East Harlem,40.79872,-73.93954000000001,United States,US,False,flexible,Private room,2015,"$1,195 ",$239 ,1,66,6/19/2019,5.38,5,1,126,"Please no pets! Again, I ask that you not consume my wine or whiskey collection.",
54310437,★ Beautiful Apartment in Best Location ★,21610855192,verified,Zoë,Manhattan,East Village,40.723659999999995,-73.9903,United States,US,False,strict,Entire home/apt,2011,$360 ,$72 ,2,11,7/5/2019,0.99,2,1,0,"- No smoking, no pets - No parties and please be quiet after 11pm - Fireplace is functional, but for safety reasons please do not use it - If you use the elevator, please close the inner door after you, otherwise other people won't be able to use it - Take your shoes off when you enter the apartment, you can place them into the closet next to the entrance door",
54310989,Private Room,93584922490,unconfirmed,Syeda,Queens,Sunnyside,40.741659999999996,-73.92658,United States,US,True,flexible,Private room,2016,$609 ,$122 ,1,50,6/23/2019,4.25,3,9,339,"Please do not try and fit more than 4 occupants in the apartment overnight. There is a queen bed in the bedroom and a full-sized pullout couch in the living room that can accommodate 1-2 people.  BUILDING RULES (As enforced by the property owners): - On Wednesday and Sunday night please leave your garbage in sealed garbage or grocery bags outside of the apartment door. It will be picked up early the next morning. - Please do not leave any garbage or personal items in the hallway or foyer, or you will be charged $100 by the building management.  - There are 3 bay windows in the living room, however only the far right one opens. The other two have been nailed shut by the property owners because of the safety risk that they pose when they're opened. Please do not try and open them, as it will damage the window frames. - The fire escape is strictly off-limits. - Please keep the noise level to a minimum and be be respectful of your neighbours.  - Drug possession and usage are prohibited in ",
54311541,Cozy Em’s Place 2 (3 people),95016366012,verified,Siri,Queens,Jackson Heights,40.74942,-73.88248,United States,US,False,flexible,Private room,2012,"$1,031 ",$206 ,2,6,6/8/2019,0.5,2,2,89,• Check-in time is 3PM.,
54312094,Minimal style bedroom close to Manhattan,74692388784,unconfirmed,Theodoros,Queens,Ditmars Steinway,40.770309999999995,-73.90793000000001,United States,US,True,flexible,Private room,2011,"$1,016 ",$203 ,2,10,6/29/2019,0.89,5,2,53,"Please remember that this is a residential building. The building rules, apartment occupancy restrictions and the year-round tenants must be respected.  Parties, pets and smoking are not allowed under any circumstances and incur significant fees.",
54312646,Park Slope getaway with giant outdoor space,93642592131,unconfirmed,Hiten,Brooklyn,Park Slope,40.66986,-73.98668,United States,US,True,flexible,Entire home/apt,2009,$708 ,$142 ,2,23,7/2/2019,1.86,4,1,4,,
54313198,Big studio in beautiful Cobble Hill by waterfront,26700720058,unconfirmed,Ezequiel,Brooklyn,Columbia St,40.68988,-73.99906999999999,,,True,moderate,Entire home/apt,2016,$890 ,$178 ,4,1,5/4/2019,0.45,2,1,13,With respect to the property and other tenants,
54313750,East Village Cozy & Bright Home,316182284,verified,Lucie,Manhattan,East Village,40.72639,-73.97848,,,True,flexible,Private room,2010,$95 ,$19 ,8,2,5/25/2019,0.19,3,1,0,"Professional, no smoking, no pets.  Please use seat inside door to remove shoes.",
54314303,Super cozy & spacious room - house with backyard !,76688021297,unconfirmed,Barbara,Brooklyn,Greenpoint,40.72694,-73.94868000000001,,,False,moderate,Private room,2011,$871 ,$174 ,3,5,10/15/2018,0.41,5,1,55,Please clean up after yourselves when leaving.  Minimal noise is appreciated given the close neighbors. Thanks!,
54314855,Sunny Windsor Terrace 3BR with deck,77263842599,verified,Craig,Brooklyn,Windsor Terrace,40.65163,-73.97910999999999,,,True,moderate,Entire home/apt,2007,$339 ,$68 ,5,0,,,2,2,0,No pets No parties. No smoking,
54315407,Affordable room in the heart of New York.,76612378935,verified,Jaime,Manhattan,Midtown,40.74573,-73.98323,,,False,strict,Private room,2018,$458 ,$92 ,3,6,9/24/2018,0.55,2,1,70,No Smoking.  Violators will be charged a $500 fine for each violation and may be charged for additional smoke removal following departure. Pets allowed with non-refundable pet fee.  Breed restrictions apply. This is a residential property.  Parties and/or loud music is not allowed after 9:00 p.m.,
54315960,Room with a View,89730634739,unconfirmed,Sushmita,Manhattan,Kips Bay,40.74348,-73.97962,,,True,strict,Entire home/apt,2009,"$1,082 ",$216 ,14,1,7/10/2018,0.08,2,1,0,,
54316512,Spacious Studio Apartment in Luxury Building,71769013194,verified,Elizabeth,Queens,Long Island City,40.75087,-73.94202,,,False,moderate,Entire home/apt,2006,$650 ,$130 ,2,24,7/1/2019,2.11,2,1,232,,
54317064,Wyndham Midtown 45 @ NYC,28239297316,unconfirmed,Jennifer,Manhattan,Midtown,40.75357,-73.97313,,,False,moderate,Private room,2003,$686 ,$137 ,3,1,11/5/2018,0.12,3,1,0,#NAME?,
54317617,Modern Williamsburg Apartment with Manhattan Views,1893804283,unconfirmed,Ari,Brooklyn,Williamsburg,40.71414,-73.96334,,,False,flexible,Entire home/apt,2009,"$1,038 ",$208 ,2,3,8/5/2018,0.25,2,1,0,,
54318169,LIC Brand New Home with a View & Pool,57247012102,unconfirmed,Fei,Queens,Long Island City,40.747479999999996,-73.93985,,,True,strict,Private room,2009,$886 ,$177 ,1,0,,,4,1,0,No smoking anywhere on the property- including the front steps.  No parties- please be considerate of the many neighbors around you.  Please take the trash out at the end of your stay.  The fireplace is not cleared for burning wood but you may use the candles provided. Please blow out candles when you leave.,
54318721,Private Room near Columbia  University *,31013721879,verified,Joe,Manhattan,Upper West Side,40.8006,-73.96406999999999,,,False,flexible,Private room,2015,$641 ,$128 ,1,80,6/22/2019,6.59,3,3,19,NO Smoking,
54319273,PERFECTLY LOCATED PRIVATE APARTMENT - AFFORDABLE,63996508302,verified,Kevin Unal,Manhattan,Harlem,40.80448,-73.95567,,,True,moderate,Entire home/apt,2010,"$1,018 ",$204 ,1,58,6/18/2019,4.89,4,1,96,- Respect as if it were your own home is all we ask :),
54319826,Close to everywhere in NY!! Cerca de todo en NY!!,57198302025,unconfirmed,Ana,Queens,Astoria,40.757090000000005,-73.9145,United States,US,True,moderate,Private room,2007,$493 ,$99 ,2,21,6/24/2019,1.86,4,3,151,No smoking inside and no pets. Please be respectful of the hosts and the space.,
54320378,"Sunny Bedroom, New renovated Brooklyn House",41996035381,verified,Selin,Brooklyn,Prospect-Lefferts Gardens,40.65829,-73.95170999999999,United States,US,True,strict,Private room,2019,"$1,200 ",$240 ,20,3,7/22/2018,0.25,4,1,0,"Treat the home as you would your own.  If staying through a trash day, please leave trash by curb.",
54320930,"Cozy, Clean Private Room in Clinton Hill BK",61270649075,verified,Maggie,Brooklyn,Clinton Hill,40.693220000000004,-73.96655,United States,US,False,moderate,Private room,2007,$386 ,$77 ,3,2,7/22/2018,0.16,3,1,0,This building is home to quiet professionals; please be respectful of neighbors and be mindful of noise.,
54321483,Extra Large appartment in the heart of Manhattan,86941143639,unconfirmed,Barbara,Manhattan,Harlem,40.81657,-73.93849,United States,US,True,flexible,Entire home/apt,2003,$79 ,$16 ,1,19,6/3/2019,1.62,4,3,0,,
54322035,Cozy bedroom on the cusp of Williamsburg/Bushwick,78296806636,verified,Christian,Brooklyn,Williamsburg,40.71018,-73.94057,United States,US,False,moderate,Private room,2017,$165 ,$33 ,3,2,7/29/2018,0.17,3,1,36,,
54322587,"Parkslope, Brooklyns Best Neighborhood!",8921613589,verified,Sean,Brooklyn,Park Slope,40.671929999999996,-73.98151999999999,United States,US,False,strict,Private room,2011,$283 ,$57 ,2,24,6/30/2019,2.09,3,1,294,No Smoking,
54323140,Very close to Manhattan! Muy cerca de Manhattan,11227225216,verified,Ana,Queens,Astoria,40.75697,-73.91314,United States,US,True,moderate,Private room,2019,$256 ,$51 ,2,34,6/27/2019,2.97,5,3,167,Please run dishwasher before checking out and respect noise levels for neighbors! :),
54323692,"Quiet, Clean Bedroom in Prime Harlem Location.",31441646480,unconfirmed,Myles,Manhattan,Harlem,40.79976,-73.95119,United States,US,True,moderate,Private room,2006,$524 ,$105 ,3,28,6/24/2019,2.36,2,1,4,NO Smoking,
54324244,"Midtown apt, steps to Penn station (family, kids)",5670025050,verified,Rose,Manhattan,Chelsea,40.75274,-73.99647,United States,US,False,flexible,Entire home/apt,2010,$311 ,$62 ,3,4,2/10/2019,0.33,3,1,0,"Access to kitchen appliances and cutlery, etc. Food and alcohol not included, we are close to a liquor store, Trader Joes and Whole Foods. No parties, no smoking, no pets, no more than 2 guests. Please treat the place as you would your own.",
54324796,2  PRIVATE  ROOMS IN A  SPACIOUS APPARTEMENT,43152425421,verified,Barbara,Manhattan,Harlem,40.81694,-73.93909000000001,United States,US,False,moderate,Private room,2012,$212 ,$42 ,2,3,9/6/2018,0.26,3,3,364,Please treat our home as if it were your own.,
54325349,COZY ROOM IN MANHATTAN MINUTES 2 TIMES SQR,71503797614,verified,Figo,Manhattan,Harlem,40.81678,-73.94246,United States,US,False,flexible,Private room,2007,"$1,112 ",$222 ,1,7,4/2/2019,0.62,3,2,180,"You are my guest - please behave as such!  This is where I live. - No neighbor-disturbance-level noise past 11:00PM - No pets of any kind - No smoking - Use the kitchen, not the food (it is ours) - Clean up spills and dishes - No illegal drugs or substances",
54325901,SPACIOUS 3 BR APT 5 MNS TO CENTRAL PARK NORTH,20949963437,unconfirmed,El,Manhattan,Harlem,40.802690000000005,-73.94686999999999,United States,US,True,moderate,Entire home/apt,2005,$567 ,$113 ,2,0,,,3,3,353,"We expect our guests to behave in a respectful manner and try to limit loud sounds and noises (such as music and/or shouting) in the evening. All animals must be well mannered and guests are expected alert us to any animals they may have with them, so that we can clean properly after departure. This apartment is non-smoking.",
54326453,UWS Cozy room near Columbia UNIVERSITY***,64663167456,verified,Joe,Manhattan,Upper West Side,40.79978,-73.96295,United States,US,False,flexible,Private room,2013,$266 ,$53 ,1,64,6/23/2019,5.42,4,3,11,"No pets, no smoking inside.",
54327006,Home away from home,56735419195,verified,Joey,Brooklyn,Midwood,40.61615,-73.95997,United States,US,False,strict,Entire home/apt,2004,$479 ,$96 ,1,1,7/17/2018,0.08,4,1,0,,
54327558,Private room close to Columbia university **,84985480593,verified,Joe,Manhattan,Upper West Side,40.79972,-73.96281,United States,US,False,flexible,Private room,2015,$587 ,$117 ,1,76,6/16/2019,6.28,2,3,16,"Parties, group events, having any number of guests above the number of people listed on the reservation either for a few minute visit or otherwise, or playing loud music is not allowed. Neighbors are quiet and respectable professionals and it is strictly necessary to respect their peace and to be discreet at any time. Thank you for your understanding. You can feel free to ask me for anything. Safe travels and see you soon! Sebastien",
54328110,Spacious and close to everything,85267341774,unconfirmed,Vivian,Bronx,Claremont Village,40.84171,-73.91159,United States,US,True,strict,Private room,2009,$612 ,$122 ,1,0,,,2,1,363,This is a quiet residential street of owner occupied properties.  Guest are expected to be respectful of other quests. No late night loud noise making. No smoking.  Freshly laundered slippers are provided for guests to wear in the house.  We have a no shoes policy inside the house.,
54328663,"Big, Pretty & Right in the City!",63838491475,unconfirmed,Kelly,Manhattan,Harlem,40.82763,-73.94404,United States,US,False,moderate,Private room,2011,$899 ,$180 ,1,19,7/2/2019,7.92,3,2,16,,
54329215,NYC Guest Suite with Loft-Free Ferry to Manhattan,59646825096,verified,Nina,Staten Island,Clifton,40.615429999999996,-74.08513,United States,US,False,moderate,Entire home/apt,2004,$913 ,$183 ,2,5,5/19/2019,0.43,5,7,312,,
54329767,LES - Lower East Side,29119712672,unconfirmed,Borna,Manhattan,Chinatown,40.71443,-73.99348,United States,US,False,strict,Private room,2008,$934 ,$187 ,7,1,8/15/2018,0.09,3,1,0,,
54330319,COZY ROOM 5 MNS WALK TO CENTRAL PARK NORTH,40331131833,verified,El,Manhattan,Harlem,40.803670000000004,-73.94803,United States,US,False,strict,Private room,2011,$489 ,$98 ,3,6,1/2/2019,0.6,4,3,353,,
54330872,Charming Upper Manhattan Apartment,87863819292,verified,Talia,Manhattan,Washington Heights,40.83958,-73.94596,United States,US,False,strict,Entire home/apt,2016,$176 ,$35 ,3,4,11/24/2018,0.33,4,1,0,,
54331424,❤️ A Warm Place to Stay. A Clean & Sunny RM,21754608075,unconfirmed,Kazuya,Queens,Woodside,40.744609999999994,-73.90648,United States,US,True,moderate,Private room,2017,$606 ,$121 ,30,0,,,5,103,238,,
54331976,Midtown 45 Manhattan with a view,10239231389,verified,Loretta,Manhattan,Midtown,40.75157,-73.97134,United States,US,False,moderate,Private room,2007,$871 ,$174 ,3,0,,,3,1,5,,
54332529,Cozy home in UWS,6877045298,unconfirmed,Rachel,Manhattan,Upper West Side,40.795770000000005,-73.97403,United States,US,False,flexible,Private room,2020,$233 ,$47 ,6,6,8/26/2018,0.49,4,1,0,,
54333081,One big and comfy bedroom located in queens NY!!,43130789582,unconfirmed,Lina,Queens,Elmhurst,40.74295,-73.87812,United States,US,True,moderate,Private room,2013,"$1,189 ",$238 ,2,0,,,5,1,358,"- On a typical weeknight, I will be home from 10pm to 7:30am",
54333633,The house of Tranquility,35070708055,verified,Ankeen,Brooklyn,Flatbush,40.6533,-73.95534,United States,US,False,moderate,Entire home/apt,2020,$68 ,$14 ,2,1,7/21/2018,0.08,5,1,0,No parties or extra guests! Sorry,
54334186,apartment in ft Greene. Close to park and subway,73064204974,unconfirmed,Elik,Brooklyn,Fort Greene,40.68705,-73.97336,,US,False,flexible,Entire home/apt,2014,$146 ,$29 ,28,6,6/10/2019,0.52,5,1,307,#NAME?,
54334738,RH COZY HOME,69318217114,verified,Danny,Queens,Richmond Hill,40.696659999999994,-73.83415,,US,False,flexible,Entire home/apt,2017,"$1,028 ",$206 ,3,15,1/1/2019,1.33,3,1,0,Please be respectful of noise levels after 10pm.,
54335290,Comfy Quiet Private Room in 3 bd/rm Apt.,15001993694,verified,Bryan,Manhattan,Washington Heights,40.854659999999996,-73.92771,,US,True,flexible,Private room,2010,$850 ,$170 ,2,1,7/30/2018,0.09,3,1,0,Please remove your shoes when you enter the apartment.  There are trays out to place your shoes -- this is especially important in winter to not track salt and snow everywhere. We have nice hardwood floors that we'd like not to damage.  NO SMOKING -- THIS INCLUDES BEHIND OR IN FRONT OF THE BUILDING NO PETS  Do not bring anyone over who is not on the reservation -- you are the only people permitted to enter the building  Respect our neighbors and do not make noise,
54335842,Beautiful Private room in Brooklyn,55609655031,verified,Zara,Brooklyn,Bedford-Stuyvesant,40.69185,-73.95896,,US,False,strict,Private room,2020,$591 ,$118 ,10,0,,,3,1,17,Enjoy the marathon,
54336395,Cozy Brooklyn Nook w/Quick Manhattan Access,38370482791,verified,Janli,Brooklyn,Downtown Brooklyn,40.69032,-73.9871,,US,False,strict,Private room,2022,$249 ,$50 ,2,26,5/31/2019,2.39,2,1,0,,
54336947,Casa Maritza,43317406133,unconfirmed,Marco,Brooklyn,East Flatbush,40.64629,-73.932,,US,True,flexible,Entire home/apt,2015,$584 ,$117 ,3,18,6/22/2019,1.53,3,1,48,,
54337499,Sunny studio apartment in Greenpoint BK,8461292552,verified,Krista,Brooklyn,Greenpoint,40.72878,-73.95823,,US,True,flexible,Entire home/apt,2019,$746 ,$149 ,3,0,,,3,1,0,We live in close proximity to our neighbors so we are not able to allow parties or large gatherings or late night partying.,
54338052,Newly Renovated Apartment in Upper Manhattan!,77485349071,unconfirmed,Matthew,Manhattan,Inwood,40.86159,-73.92616,,US,True,moderate,Entire home/apt,2021,$609 ,$122 ,4,3,10/31/2018,0.26,2,1,0,"No pets, no smoking, no parties.  No guests not on the reservation.  You are liable for any damage. We will give you access to Netflix.  Please respect the account. Please report anything broken at the beginning of your reservation to avoid the loss of your security deposit.  Clean all your dishes and clean up after yourself.  Please keep the noise down.",
54338604,Prospect Park Oasis in the City,40110787431,unconfirmed,Sarah & Bruce,Brooklyn,Prospect-Lefferts Gardens,40.66113,-73.96276999999999,,US,False,moderate,Entire home/apt,2017,$241 ,$48 ,2,11,4/28/2019,0.94,3,1,0,"We expect travelers to leave the apartment in the same condition that they left it in. We take great care of the apartment as we feel it is a truly special home, and hope that others will treat it the same way! We will provide fresh sheets and towels, which guests can put in a pile upon leaving. We do not allow pets unfortunately. Although we love them, the building does not!",
54339156,Home Sweat Home,35040877868,verified,Jasmine,Manhattan,Battery Park City,40.711059999999996,-74.0157,,US,False,moderate,Entire home/apt,2006,$573 ,$115 ,28,5,5/16/2019,0.41,2,1,47,No Smoking  No Pets,
54339709,Esteem's Place Deux,97717642961,unconfirmed,Esteem,Bronx,Parkchester,40.83791,-73.85845,,US,True,moderate,Private room,2014,$280 ,$56 ,1,14,6/13/2019,1.24,5,2,311,#NAME?,
54340261,Comfy Clinton Hill Master Suite,79807769870,unconfirmed,Candi,Brooklyn,Bedford-Stuyvesant,40.694179999999996,-73.96069,,US,True,flexible,Private room,2022,"$1,002 ",$200 ,1,3,4/7/2019,0.36,2,3,0,"Please remember that this is a residential building. The building rules, apartment occupancy restrictions and the year-round tenants must be respected.  Parties and smoking are not allowed under any circumstances and incur significant fees. Pets may be considered with pre-approval and an additional pet fee.",
54340813,Magic at the Castle: private bedroom and bathroom,80903594855,verified,Ally,Bronx,Throgs Neck,40.816390000000006,-73.81954,,US,False,flexible,Private room,2016,$669 ,$134 ,1,13,6/30/2019,1.09,5,1,35,,
54341365,Modern NYC Living in Soho/ Noho/West Village,71609560624,verified,Jeff,Manhattan,Greenwich Village,40.727,-73.99767,,US,True,moderate,Private room,2014,$741 ,$148 ,3,30,6/6/2019,2.64,3,3,20,No kitchen access. No wifi - I do have a hot spot. No key given to you. No extra guest allowed.,
54341918,Chic Designer Lower East Side Studio,81192690825,verified,Daniella,Manhattan,Lower East Side,40.717690000000005,-73.99148000000001,,US,False,strict,Entire home/apt,2018,$708 ,$142 ,1,3,12/30/2018,0.26,3,1,0,"Please treat the interior of the unit, including all furniture with respect.   No smoking or pets allowed. Enjoy yourself but please keep noise to acceptable levels at night to avoid disturbing neighbors.  No parties please.",
54342470,Clean and modern space in Clinton Hills,83008300817,unconfirmed,Tyrone,Brooklyn,Bedford-Stuyvesant,40.6886,-73.95884000000001,,US,False,flexible,Entire home/apt,2004,$523 ,$105 ,2,38,7/1/2019,3.28,2,2,102,No smoking. No pets. ,
54343022,The Best Place to stay in Manhattan,14164615158,verified,Ildiko,Manhattan,Upper West Side,40.79083,-73.97531,United States,US,True,flexible,Entire home/apt,2021,$741 ,$148 ,3,3,5/6/2019,0.42,5,1,330,,
54343575,Williamsburg Modern Apt - same block as L/G train.,34844697151,verified,Bianca,Brooklyn,Williamsburg,40.713640000000005,-73.95125999999999,United States,US,True,strict,Entire home/apt,2018,$758 ,$152 ,5,0,,,4,1,103,"Maintain cleanliness .  Please carry all the necessary items that is required for your stay , host cannot provide any of it . Also can accomodate females who are veg and eggatarians only",
54344127,Lucky Home 像纽约有个温馨的家 安静整洁 Sunshine lovely Comfort,18826982442,verified,Anna,Queens,Flushing,40.75607,-73.82212,United States,US,True,strict,Private room,2008,"$1,001 ",$200 ,1,3,8/19/2018,0.28,5,2,0,,
54344679,Cozy Room Great Price in Bushwick Bklyn! (Suite 2),89169085153,verified,Oscar,Brooklyn,Bushwick,40.68796,-73.90781,United States,US,True,strict,Private room,2021,$547 ,$109 ,4,47,7/2/2019,4.37,2,4,20,"We expect our guests to behave in a respectful manner and try to limit loud sounds and noises (such as music and/or shouting) in the evening. All animals must be well mannered and guests are expected alert us to any animals they may have with them, so that we can clean properly after departure.",
54345232,CESAR'S PALACE,94818701160,unconfirmed,Cesar,Bronx,Pelham Gardens,40.86153,-73.83655999999999,United States,US,True,moderate,Entire home/apt,2017,$566 ,$113 ,1,50,6/23/2019,4.19,3,1,349,"The three main lights of the apartment are on the right of the front entrance.  The far light is for the bed area, the middle one (the black tab you have to flick up and down) is for the main area, and the near switch is for the light right over you as you step in.  The light in the bathroom is by the storage unit.  The light in the kitchen is to your left right as you walk into it.",
54345784,Sunny well-located room near Times Sq. 41D2,64682993631,verified,John,Manhattan,Chelsea,40.75369,-73.99719,United States,US,True,strict,Private room,2006,$55 ,$11 ,7,11,6/22/2019,0.99,3,47,358,"No pets, no children, no smoking (landlord's rules, not ours - sorry!).  Also, it is a pretty quiet building and the owners feel strongly about keeping it this way, so please refrain from any loud music/shouting/partying. Finally, we are happy to take care of stripping/washing the sheets, but would appreciate it if you would clean up any dishes you use during your stay. Other than that, have fun!",
54346336,"LongTerm-25DaysMin
Chinatown,Soho,LittleItaly,LES",35060161465,unconfirmed,Ben,Manhattan,Chinatown,40.715090000000004,-73.99986,United States,US,False,flexible,Private room,2021,$758 ,$152 ,25,0,,,5,2,333,No smoking or pets allowed,
54346888,AIRY & BREEZY,46213141705,unconfirmed,Fifi,Manhattan,Harlem,40.81265,-73.95260999999999,United States,US,True,strict,Entire home/apt,2007,$364 ,$73 ,2,3,4/1/2019,0.31,5,2,0,,
