id,NAME,host id,host_identity_verified,host name,neighbourhood group,neighbourhood,lat,long,country,country code,instant_bookable,cancellation_policy,room type,Construction year,price,service fee,minimum nights,number of reviews,last review,reviews per month,review rate number,calculated host listings count,availability 365,house_rules,license
44577806,AWESOME LOCATION STEPS TO L TRAIN !,29896530218,unconfirmed,Jose,Brooklyn,Williamsburg,40.71354,-73.95011,United States,US,False,strict,Private room,2007,$108 ,$22 ,28,19.0,5/31/2019,0.72,3,6,297,Be respectful of my roommates and my dogs.,
44578358,"Quiet room, view on garden 5m walk from J train",83478614686,unconfirmed,Fred,Brooklyn,Bedford-Stuyvesant,40.68759,-73.92356,United States,US,False,flexible,Private room,2004,$341 ,$68 ,1,12.0,8/26/2018,0.42,4,3,0,"SUMMER SEASON: We have 2 A/C units in apartment, please do not move them, they must remain where they are for electrical reasons and they have to be on a certain angle as well. They are heavy too. Please turn them off when you are not in the condo. It’s an older home; don’t over charge electricity; the circuit breaker will pop if too much charged electricity... (Read utilities on the “house notes”) We ask our guests to be considerate of our neighbors and keep noise levels reasonable. This is a quiet neighborhood.",
44578911,PRIME LOCATION LORIMER L TRAIN,27766507817,verified,Jose,Brooklyn,Williamsburg,40.715309999999995,-73.94986,United States,US,True,flexible,Private room,2008,$918 ,$184 ,1,15.0,5/25/2019,0.56,2,6,325,"No candles. Close and lock windows when you leave the house. Clean up after yourself in the bathroom and the kitchen. Mutual respect and have fun! If you want to have an event or party, let's check in about it first.",
44579463,Large studio in hip area near major subway stop,33775049812,unconfirmed,Lawrence,Brooklyn,Crown Heights,40.67308,-73.95523,United States,US,True,strict,Entire home/apt,2009,$812 ,$162 ,3,93.0,7/5/2019,4.16,2,1,89,"Relax and enjoy. Kitchen fully equipped. Linens and towels supplied.  No smoking. No candles. And, sorry, but this is a place for one adult or a couple. Not suitable for kids.",
44580015,Sunny Room on Hippest Block in Bushwick,94042182111,unconfirmed,Mackenzie,Brooklyn,Bushwick,40.70537,-73.92269,United States,US,False,moderate,Private room,2007,"$1,121 ",$224 ,2,2.0,3/14/2017,0.07,1,1,0,"As mentioned, this is a quiet neighborhood with a mix of young people starting out and families, and we have neighbors living above us in the house and on either side of the house.  As such, loud, late night parties will not be hosted here. We would hope that this house would serve as your staging place to a great Boston experience, but that the bulk of that experience will occur while you are out exploring the area!",
44580568,Cozy Private Room in Vibrant Williamsburg Apt,29276446628,unconfirmed,Sarah,Brooklyn,Williamsburg,40.71992,-73.9413,United States,US,False,flexible,Private room,2005,"$1,093 ",$219 ,1,82.0,5/5/2019,2.95,4,1,0,"Please review the terms of this rental agreement. Enclosed is our rental contract and rules. Please read carefully. If you have any questions please don't hesitate to contact me before submitting your payment. By submitting your deposit you agree to these terms, and the fee and dates outlined in the booking email. Please make sure that you have provided us with a cell phone for the primary contact as well as the EXACT number of occupants. Our rates are based on 2 person occupancy. We charge $25 per person, per night for additional persons.  The unit is located at 256 Amory St. #1, Jamaica Plain, MA If you need directions don’t hesitate to call Christine at (PHONE NUMBER HIDDEN). Your confirmation is as follows: Check-in: after 3pm EST (No early check-in please)  Check-out: by 10 am EST (No late check-outs please) Pre-arrival info will be emailed to you before check in. By submitting my deposit, I agree to all terms and conditions of this agreement RENTAL RULES AND REGULATIONS  Arthouse",
44581120,Spacious & Serene Williamsburg Room,1366240713,unconfirmed,Sarah,Brooklyn,Williamsburg,40.71499,-73.94634,United States,US,False,flexible,Private room,2008,"$1,076 ",$215 ,1,14.0,7/14/2018,0.49,1,1,0,,
44581672,The Perfect Queens Getaway!,9730008965,unconfirmed,Jairo,Queens,Corona,40.74122,-73.85334,United States,US,True,moderate,Entire home/apt,2012,"$1,029 ",$206 ,2,51.0,6/30/2019,1.9,1,1,242,"Rules are detailed in the House Manual, which was emailed to you. There is also a printed copy of the house manual in the condo. Summary: - no guests other than those arranged with host. - no parties. - no smoking. - please be respectful of our neighbors. - please follow the check-out list provided. Failure to follow house rules will result in forfeiture of your security deposit.",
44582224,Cozy Room in Manhattan,88749719454,unconfirmed,Christina,Manhattan,Harlem,40.82827,-73.94785,United States,US,True,strict,Private room,2009,$481 ,$96 ,1,17.0,10/8/2018,1.11,1,1,0,#NAME?,
44582777,Comfy Room in Chic Apartment,22406336961,verified,Haifa,Manhattan,Lower East Side,40.7127,-73.98857,United States,US,True,flexible,Private room,2016,$415 ,$83 ,3,3.0,5/1/2019,0.21,1,2,166,,
44583329,"Cozy studio, private entrance & 3 min. JFK",91774275506,unconfirmed,Erroyl,Queens,Jamaica,40.66989,-73.77454,United States,US,False,flexible,Entire home/apt,2014,$145 ,$29 ,1,75.0,6/23/2019,2.66,4,1,294,,
44583881,Private Room near Columbia University,38683196011,unconfirmed,Pablo,Manhattan,Morningside Heights,40.81638,-73.95936999999999,United States,US,False,flexible,Private room,2012,$100 ,$20 ,28,0.0,,,5,1,0,"No rules per say. I just ask that you respect my friendly ""building mates"" with noise levels. Oh, and no smoking or pets please!",
44584434,Room in Brooklyn With Central Air and Heat,34765959701,verified,Samuel,Brooklyn,Bushwick,40.69484,-73.92499000000001,United States,US,False,flexible,Private room,2011,$241 ,$48 ,12,0.0,,,1,1,0,"ANDREA’S HOUSE RULES:  ** The PINK ROOM is a room in a no-shoes house. Please [BRING] wear slippers or inside-only shoes.  ** All overnight guests must be booked through Airbnb. If you plan to have visitors during your stay, please check with us beforehand.  ** Please help us avoid any staining and damage to the furniture & linens by keeping food and beverages out of the bed. [**For MAKEUP REMOVAL please use the wipes provided and/or the dark washcloth.]  ** Enjoy our PINK ROOM, our BEVERAGE AREA in the living room, the bathroom, and please ** leave these spaces clean & tidy as you found  them **  ** As it states in the “Amenities” section on my listing, I do not provide breakfast (unless you have made a specific arrangement for meals with me). I do offer a few things to get you started. However, there are always several options for coffee in the freezer and other beverage materials in the beverage section.  ** Please hang coats and LEAVE shoes/boots in the hall  ** Please leave towels",
44584986,Gorgeous and Renovated Chelsea Apartment,31534631620,unconfirmed,Karen,Manhattan,Chelsea,40.74392,-73.9946,United States,US,False,flexible,Entire home/apt,2022,$84 ,$17 ,4,0.0,,,3,1,0,No loud noise.  Calm pets ok.  Friendly welcome!,
44585538,Brooklyn Apartment,57222420261,unconfirmed,Austin,Brooklyn,Crown Heights,40.67519,-73.9402,United States,US,False,strict,Private room,2012,$570 ,$114 ,1,0.0,,,5,1,0,"No smoking, no loud parties. I would consider a pet, for an extra fee.",
44586091,Minimalist Room with a Spectacular view,9682857675,verified,Maria,Manhattan,Kips Bay,40.73695,-73.97336,United States,US,False,strict,Private room,2005,$674 ,$135 ,2,37.0,6/2/2019,1.39,4,1,33,"House quiet hours are from 10 pm to 8 am.  We ask guests to simply be respectful and mindful that there are others living downstairs.  We also ask guests to remember that although you will have your own private space, this is not a hotel or even a room for rent, it is a private home that we will be sharing.  As such, we ask you to treat the apartment and its' contents as any guest would in a private home and to keep it clean and leave it as you find it.  There are no overnight guests in our home other than those on the actual reservtion. If there is a last minute situation, please check with us first.  There are no pets or smoking anywhere on the premises inside or out, or any other open flames.",
44586643,Brooklyn Nook perfectly located!,84296524506,verified,Matt,Brooklyn,Greenpoint,40.72398,-73.94978,United States,US,False,strict,Entire home/apt,2022,$379 ,$76 ,2,115.0,7/7/2019,4.26,2,2,32,"Quiet time (including TV sound turned low) at 9:30 PM, though guests, of course, can come and go before and after that. Just be respectful that this is also a house where we live and work. Also, no smoking and no pets - thanks.",
44587195,Large one bedroom in historic Clinton Hill,2707958155,verified,John,Brooklyn,Clinton Hill,40.69478,-73.96126,United States,US,True,moderate,Entire home/apt,2018,"$1,155 ",$231 ,3,34.0,7/5/2019,2.95,2,1,54,Respect our home and our house is your house. Checkout is 11 am at the end of your stay. You are welcome to leave your bags for the day. Please let us know when you plan to arrive. Depending on circumstances we can be very flexible.,
44587747,Luxury One Bedroom UWS,20030660437,unconfirmed,Mat,Manhattan,Upper West Side,40.79424,-73.96588,United States,US,False,flexible,Entire home/apt,2008,$839 ,$168 ,30,2.0,10/31/2018,0.11,3,10,338,"Please do not let any of the animals outside! Quiet hours are from 10 pm - 6:30 am on weekdays, 11 pm - 8:30 am on weekends. Please be considerate and clean up after yourself in the kitchen and bathroom, as they are shared. We use the shower in the shared bathroom, so we appreciate it if you would refrain from lingering there in the mornings. No smoking allowed anywhere on the premises.",
44588300,Beautiful duplex in Gramercy,34829320564,unconfirmed,Pilar,Manhattan,Gramercy,40.73746,-73.98338000000001,United States,US,False,flexible,Entire home/apt,2013,"$1,120 ",$224 ,120,2.0,8/13/2017,0.08,2,1,167,"We hope you will be nice to the dogs, quiet in your comings and goings and respectful of our Eco, vegetarian ways. Please take off your shoes when you come in and clean up after yourself.",
44588852,Bright and Sunny Room in Amazing Bushwick Apt,21125791182,unconfirmed,Gabriele,Brooklyn,Bushwick,40.70105,-73.91547,United States,US,False,flexible,Private room,2011,"$1,042 ",$208 ,1,0.0,,,2,3,0,Please be respectful of my things! I have a lot of stuff that I have collected over the years. Absolutely NO smoking.  This is a really relaxing space and the neighbors are all really cool.  -Pets are allowed,
44589404,Upper East Side Apartment,41816174431,verified,Ken,Manhattan,Upper East Side,40.78073,-73.95013,United States,US,True,flexible,Entire home/apt,2014,"$1,055 ",$211 ,7,7.0,12/29/2017,0.27,4,1,0,Please be mindful after 23:00 in the kitchen or bathroom.,
44589957,Charming apartment in Manhattan!,77088351092,unconfirmed,Betina,Manhattan,Washington Heights,40.85338,-73.93231999999999,United States,US,False,strict,Private room,2007,$749 ,$150 ,3,71.0,6/15/2019,2.54,5,1,60,,
44590509,Homey funky eclectic rich of arts,33972955798,unconfirmed,Lou,Brooklyn,Crown Heights,40.67167,-73.93088,United States,US,True,strict,Private room,2019,$220 ,$44 ,4,37.0,6/24/2019,1.29,2,1,84,,
44591061,Cozy 1 bedroom apt in Astoria NY,1316062537,verified,Franc,Queens,Astoria,40.76984,-73.91815,United States,US,True,moderate,Entire home/apt,2009,$143 ,$29 ,4,0.0,,,3,1,83,1) We live in a quiet neighborhood so no loud noise after 10:00 pm.  2) No outside guests after 10:00 pm. 3) No overnight guests not listed on the reservation.,
44591614,Cozy sunny room 35 min to Time Square,43672115869,verified,Iris,Queens,Rego Park,40.72701,-73.87021999999999,United States,US,True,moderate,Private room,2012,$321 ,$64 ,1,37.0,4/22/2018,1.3,1,4,0,,
44592166,Spacious & Charming Nolita 1 Bed,84083167859,verified,Jill,Manhattan,SoHo,40.72103,-73.99866,United States,US,True,moderate,Entire home/apt,2018,$954 ,$191 ,2,16.0,8/25/2018,0.57,3,1,0,No smoking please. Sorry but no pets. No drinking to excess. No drugs. No children or guests under 21. ,
44592718,Private apartment  in Hamilton Heights,46181455406,verified,Eileen,Manhattan,Harlem,40.8269,-73.93634,United States,US,False,flexible,Entire home/apt,2016,$487 ,$97 ,4,65.0,6/20/2019,2.3,4,1,48,"All outside doors including door to the backyard are to remain closed and locked at all times.   No smoking in any area including backyard and front porch. Quiet hours are from 10 pm to 8 am. 11:30 on weekend.  No parties or guests allowed in the property other than people who book the room.  No cooking. Cold foods, salads, sandwiches, microwaveable food only.  Clean after yourself.  Lost keys replacement $100 (to replace lock)",
44593270,Private Bedroom in East Williamsburg,56251178018,verified,Steven,Brooklyn,Williamsburg,40.70772,-73.94126,United States,US,False,strict,Private room,2006,$746 ,$149 ,2,18.0,7/31/2017,0.63,2,1,0,"Check-in and check-out times are flexible. In general, afternoon/evening check-ins and morning/early afternoon check-outs are preferred. Guests are expected to be respectful and independent.  Guests are welcome to use the kitchen, and are asked to clean up after themselves.",
44593823,1 bedroom apt in 2 bridges/Chinatown,56278529937,verified,Pierre,Manhattan,Civic Center,40.71264,-73.99893,United States,US,False,strict,Entire home/apt,2020,$585 ,$117 ,2,12.0,3/15/2019,0.43,2,2,8,,
44594375,Cozy 2 Bedroom in Prime Location!,91996273910,verified,Dena,Manhattan,Midtown,40.74481,-73.98523,United States,US,True,strict,Entire home/apt,2010,$920 ,$184 ,3,6.0,7/24/2017,0.23,4,1,0,"No smoking inside. Be tidy, we don't have a maid so treat our house like you'd want us to treat yours, simple really. Don't throw a ""rager"". Be respectful.",
44594927,"HUGE 1BR Apt, Varrazano promenade,night life& More",27851283895,unconfirmed,Ahmed,Brooklyn,Fort Hamilton,40.613640000000004,-74.0354,United States,US,False,moderate,Entire home/apt,2003,$502 ,$100 ,2,4.0,4/11/2019,0.42,3,1,313,,
44595480,Brooklyn Cave in the Neighb,71356231599,verified,Avon,Brooklyn,Canarsie,40.64458,-73.90285,United States,US,False,strict,Entire home/apt,2011,"$1,033 ",$207 ,2,68.0,7/1/2019,3.5,2,1,240,THIS IS A NON-SMOKING RESIDENCE. NO Children under the age of 16  Smoking is permitted on the outside front porch deck only. Quiet hours are from 11:00 p.m. - 7:00 a.m. No pets allowed. Be respectful of your neighbors.,
44596032,Artist Home 5 minute walk to Metro 30min from JFK,93761582965,verified,Shirley,Brooklyn,Flatbush,40.633559999999996,-73.95073000000001,United States,US,False,flexible,Shared room,2008,"$1,042 ",$208 ,3,27.0,6/24/2019,1.25,5,2,1,"Shoes are removed at the door to keep the house clean; slippers will be provided.  Guests should be polite, courteous and respectful. Guests seeking to book 5 days or more must have a completed profile, at least three verifications and at least two reviews and/or references.  Exceptions to this policy may be granted individually as warranted.  Please write to inquire. There is no smoking allowed on the property. This is an environmentally friendly home and guests are encouraged to be sensitive to their use of natural resources.  For example, twenty-minute long showers are discouraged.",
44596584,"Hip, cozy apartment (with cat) in terrific Harlem!",27337371261,unconfirmed,Grace,Manhattan,Harlem,40.81108,-73.94682,United States,US,True,strict,Entire home/apt,2005,$684 ,$137 ,2,2.0,6/4/2017,0.08,2,1,0,"Thanks for not smoking and leaving your pets at home! Thanks for keeping the house locked. Thanks for not throwing parties. And... all of the usual stuff that is just good common sense like using coasters and place mats and returning the apartment to the way it looked when you arrived. There is no parking in the driveway. At the end of your stay, please strip the beds and put the sheets in the pantry or on the bathroom floor. Towels can be put with the sheets. Trash and recycling pick up is on Tuesdays. If you are staying through a Tuesday, please put your garbage and recycling outside in the appropriate barrels Monday night or by 7:00 am on Tuesdays. THANKS!",
44597137,Spacious Bedroom in Williamsburg Duplex,3377963717,verified,Jackson,Brooklyn,Williamsburg,40.71397,-73.94572,United States,US,True,strict,Private room,2013,$294 ,$59 ,2,0.0,,,1,1,0,We hope you’ll enjoy our Boston home and that you will care for it as we do. We do not allow pets or smoking in the house.,
44597689,Sun-drenched Charles Street studio!,1785510461,verified,Rebecca,Manhattan,West Village,40.73418,-74.00621,United States,US,True,moderate,Entire home/apt,2003,"$1,012 ",$202 ,9,0.0,,,1,1,0,"Please do not rent this house if you plan to party. This is a quiet house in a quiet neighborhood. Other than that, we are pretty laid back.",
44598241,Luxurious Manhattan 1 Bedroom,93222810706,verified,Kyle,Manhattan,Hell's Kitchen,40.76589,-73.98434,United States,US,True,flexible,Entire home/apt,2022,$906 ,$181 ,30,6.0,7/31/2018,0.23,1,23,365,"Non Smoking, No illicit Drug Usage. Keep loud music to a minimum. Soiled shoes please keel outside. Thank you.",
44598793,Haven in the Heights,69004126809,verified,Alexandra,Manhattan,Washington Heights,40.85321,-73.93596,United States,US,False,flexible,Shared room,2021,$960 ,$192 ,1,27.0,6/30/2019,0.95,3,1,33,- Quiet hours from 10 p.m - 7 a.m. - No loud parties or events - No illegal substance or activity,
44599346,PRIVATE BATHROOM ! PRIME LOCATION,10585302296,verified,Jose,Brooklyn,Williamsburg,40.7141,-73.95064,United States,US,True,flexible,Private room,2005,$251 ,$50 ,28,28.0,6/1/2019,1.01,5,6,303,"You will be sharing a bathroom, so you must be considerate of time spent in the bathroom in the morning when getting ready. If you use the kitchen, please put the dirty cups, bowls, plates, and silverware in the dirty dishes tub, and hand wash all of the pots, pans, and cooking tools you use. Please clean up any mess you may have made. Remember to turn on the fan when using the stove or oven so the fire alarm does not go off from the steam! Please only smoke outside, away from the apartment building, and dispose of your cigarettes responsibly. Checkout: Checkout is at 11:00 am, please inquire if you would like to check out later or leave your bags with us for the day. If we are not awake/home when you leave, please leave the passes on the desk in your room, lock the front door behind you, and put your keys in the lock box behind the front stair case.",
44599898,Manhattan | Luxurious 1 Bedroom,394783889,unconfirmed,Kyle,Manhattan,Hell's Kitchen,40.757659999999994,-73.99089000000001,United States,US,False,moderate,Entire home/apt,2019,$573 ,$115 ,30,0.0,,,2,23,364,"Please only smoke across the street, (smoke travels) there's a lovely green space and a bus shelter if raining Please, no bikes on the fence in front of the house. There's plenty of places to park the bikes. I have a wonderful dog, he's submissive with people, unfortunately aggressive with other dogs. I'm unable to welcome other dogs in the space.",
44600450,High Tower Luxurious 1 Bedroom in Times Square,92863630105,unconfirmed,Kyle,Manhattan,Hell's Kitchen,40.759190000000004,-73.99229,United States,US,True,flexible,Entire home/apt,2011,$398 ,$80 ,30,1.0,8/3/2017,0.04,1,23,115,"No candles. Close and lock windows when you leave the house. Please clean up after yourself in the bathroom and the kitchen. And have fun! If you want to have an event or party, we are open to that, but we should check in about that before you make plans.",
44601003,Luxurious 1 Bedroom in Times Square,58593311287,unconfirmed,Kyle,Manhattan,Hell's Kitchen,40.7593,-73.99229,United States,US,False,flexible,Entire home/apt,2021,"$1,029 ",$206 ,30,0.0,,,4,23,364,You have a private room but sounds should be moderate for me and the neighbors  Quiet at 11pm   No Pets  No Parties  No Smoking,
44601555,❤ of Manhattan | Fantastic 1 Bedroom,30932570019,verified,Kyle,Manhattan,Midtown,40.76501,-73.98312,United States,US,True,moderate,Entire home/apt,2017,$500 ,$100 ,30,0.0,,,4,23,364,"Maximum of 2 guests staying in the studio.  No smoking anywhere in or outside the property.  No pets anywhere in or outside the property.  No parties anywhere in or outside the property.  No parking on our property or in the driveways.  No frying food.  No extreme temperature settings.   Any broken house rules, including evidence of cigarette butts, ashes, odors, stained linens, damaged furniture, or missing items will result in loss of deposit. All doors must be locked, and all lights should be turned off each time you leave. We kindly ask that you respect our property and our neighbors in this wonderful community.",
44602107,❤ of Manhattan | Fantastic 1 Bedroom,87050934374,verified,Kyle,Manhattan,Hell's Kitchen,40.76485,-73.98436,United States,US,True,strict,Entire home/apt,2013,$471 ,$94 ,30,0.0,,,4,23,364,"1.Check-ins Monday – Friday will preferably only happen between 6pm – 10:30pm because we work full-time. However, exceptions can be made. If you really need to check in at another time we are flexible and can try to coordinate accordingly.   2.We are only renting the bottom floor where the private room and bathroom is. The rest of the house is off limits for short stays. If you are staying for more than 1 week and would like to have access to cooking and other areas of the house please let us know. We are pretty easy going.  3.No smoking, No animals, No house parties.  4.The maximum number of guests allowed in this room is two. (Both have to be registered on the original reservation). Surprise additional guests are not allowed.  5.We are trustworthy, clean and respectful and expect our guests to be the same.  6.This is a calm, quiet neighborhood, so we ask that guests please adjust their volumes accordingly.  7.I ask that guests leave rooms the same way they found them, making sure to ",
44602660,❤ of Manhattan | Fantastic 1 Bedroom,6303068870,unconfirmed,Kyle,Manhattan,Theater District,40.76321,-73.98356,United States,US,False,strict,Entire home/apt,2007,$981 ,$196 ,30,0.0,,,4,23,364,"We live on the 3rd floor of a 3-family house, so please minimize noise for our neighbors, especially at night and when entering or exiting.  Our bedroom and office are not for guest use.",
44603212,❤ of Manhattan | Central Park | Fantastic 1 Bed,6358977690,verified,Kyle,Manhattan,Hell's Kitchen,40.76536,-73.98469,United States,US,False,flexible,Entire home/apt,2022,$977 ,$195 ,30,0.0,,,5,23,364,"Please clean after yourself, wipe spilled water after using the bathroom, do not smoke in the apartment and treat the place as you would treat your home! Please let us know about pets or service animals in advance.",
44603764,4A-,44812274951,verified,Nina,Manhattan,Midtown,40.74896,-73.98277,United States,US,True,moderate,Entire home/apt,2019,$225 ,$45 ,30,8.0,5/1/2019,0.31,4,14,203,No smoking  Not pets  No parties or events No candles,
44604316,Large two bedroom in the middle of NYC apt. 3C,56485545900,verified,Nina,Manhattan,Murray Hill,40.749159999999996,-73.98115,United States,US,False,flexible,Entire home/apt,2008,"$1,119 ",$224 ,30,5.0,5/12/2019,0.22,4,14,339,"You will be sharing a bathroom, so you must be considerate of time spent in the bathroom in the morning when getting ready. If you use the kitchen, please put the dirty cups, bowls, plates, and silverware in the dirty dishes tub, and hand wash all of the pots, pans, and cooking tools you use. Please clean up any mess you may have made. Remember to turn on the fan when using the stove or oven so the fire alarm does not go off from the steam! Please only smoke outside, away from the apartment building, and dispose of your cigarettes responsibly. Checkout: Checkout is at 11:00 am, please inquire if you would like to check out later or leave your bags with us for the day. If we are not awake/home when you leave, please leave the passes on the desk in your room, lock the front door behind you, and put your keys in the lock box behind the front stair case.",
44604869,Amazing Apartment | Skyline Views,80302396199,unconfirmed,Kyle,Manhattan,Murray Hill,40.745259999999995,-73.97679000000001,United States,US,True,moderate,Entire home/apt,2006,$399 ,$80 ,30,1.0,5/26/2017,0.04,5,23,365,"We do not allow any pets on the property to protect our guests and family from allergies.  Please do not park in our driveway. You may find on-street parking available on Spring Park Ave or Rockview St. There is no smoking on the property. Please feel free to take a walk around our lovely neighborhood if you need a smoke. Otherwise we have no real ""rules"" except common courtesy please. We always want our guests to feel as much at home as possible, so feel free to do so. Should you need something or have a question, just ask! We are always happy to help. Most of all, enjoy your visit here in our studio!",
44605421,2C,79143737003,verified,Nina,Manhattan,Midtown,40.7502,-73.98289,United States,US,True,moderate,Entire home/apt,2006,$689 ,$138 ,30,3.0,12/17/2018,0.11,3,14,332,"No smoking in the house and no late noises, please!   ",
44605973,MAGNIFICENT apartment in Williamsburg with Balcony,28659890526,verified,Gaël-Etienne,Brooklyn,Williamsburg,40.71397,-73.94873,United States,US,False,flexible,Entire home/apt,2018,"$1,166 ",$233 ,2,22.0,9/9/2018,0.78,4,1,0,#NAME?,
44606526,Amazing 1 Bedroom | 1 Bedroom | Skyline View,97702959689,unconfirmed,Kyle,Manhattan,Murray Hill,40.749190000000006,-73.97244,United States,US,False,strict,Entire home/apt,2022,$220 ,$44 ,30,0.0,,,2,23,365,No smoking or open flames permitted on the property. No drugs.  No pets. Notify host of extra people ($10 charge per night per extra person).,
44607078,Private room in shared apartment for 1,48082068375,unconfirmed,Ian,Manhattan,Greenwich Village,40.734840000000005,-73.99614,United States,US,True,moderate,Private room,2004,$630 ,$126 ,1,1.0,8/31/2017,0.04,3,1,0,Please treat our house as we'd treat yours: with care and respect.,
44607630,Extra Large 1BR by Park Ave in Upper East Side,17406709981,verified,Tny,Manhattan,Upper East Side,40.76876,-73.96686,United States,US,True,flexible,Entire home/apt,2021,$714 ,$143 ,30,0.0,,,1,12,58,"Please be respectful to other members of this home., no parties or loud music is permitted. You can use a porch on the back of the house. No smoking or candles is allowed inside or outside the house,  Please strip the bed and put linen and towels into laundry basket.",
44608183,11 Minutes to Manhattan,5428491361,verified,Jamiel,Queens,Astoria,40.76101,-73.92464,United States,US,True,strict,Entire home/apt,2004,$558 ,$112 ,1,73.0,6/23/2019,2.75,5,1,273,- Noise to be kept to minimum level as to not to disturb others in the apartment or building between 11pm and 6:30am. - No cooking or storage of meat in the apartment (we are vegetarians) - No candles permitted  - Use the compost for non-animal organic waste and recycle all recyclables,
44608735,"2 bedroom apt in Brooklyn, downtown",71244800916,unconfirmed,Diane,Brooklyn,Fort Greene,40.693529999999996,-73.97431,United States,US,False,moderate,Entire home/apt,2007,$477 ,$95 ,3,27.0,6/30/2019,1.0,3,1,303,,
44609287,1 BR Garden Apartment in Brooklyn Brownstone,28603521335,unconfirmed,Sharon And Dave,Brooklyn,South Slope,40.66587,-73.98206,United States,US,False,flexible,Entire home/apt,2011,$791 ,$158 ,3,70.0,7/1/2019,2.58,1,1,89,"We want our guests to be comfortable and enjoy not just our house but our city.  To those ends we welcome inquiries about what to do and where to go.  Our guests should feel free to use the kitchen and living room and not feel confined to ""their room"". Store your food in the fridge, eat your meal on the terrace, read a book on the couch or hammock.  We request only your general consideration of living with others.  Our one hard and fast rule is: No smoking on the property. ",
44609839,BEST LOCATION IN SOHO AND SPACIOUS APARTMENT,48534588132,unconfirmed,Alonso,Manhattan,Little Italy,40.71942,-73.99694000000001,United States,US,False,flexible,Entire home/apt,2020,"$1,199 ",$240 ,1,67.0,1/20/2019,2.45,2,1,189,,
44610392,Cozy Room in TWO BEDROOM Apartment.,88609733983,verified,Kian,Brooklyn,Bedford-Stuyvesant,40.694990000000004,-73.94821999999999,United States,US,True,moderate,Private room,2015,$701 ,$140 ,5,42.0,6/2/2019,1.58,5,3,63,"Be respectable, try to keep the place clean (no wearing shoes in the house!), and no wild parties, please! No smoking, please. I only ask that you treat my home as you would treat your own! When leaving the apartment, please always lock both locks on the door. Please shut off all the lights, air conditioner, TV, etc. before you leave. Please take your shoes off inside the apartment.",
44610944,Divided Room in Financial District,47926173087,unconfirmed,Yaodong,Manhattan,Financial District,40.70817,-74.00511,United States,US,True,strict,Private room,2012,$813 ,$163 ,1,5.0,4/30/2017,0.17,3,1,0,,
44611496,Beautiful 3 BR- 2 Full Baths in Upper Manhattan,35897810774,unconfirmed,Sergio,Manhattan,Washington Heights,40.8513,-73.93681,United States,US,True,flexible,Entire home/apt,2003,$531 ,$106 ,30,7.0,3/19/2019,0.26,2,2,331,,
44612049,"简单的四房一厅两卫生间,位于北上远离开辆,走路四分钟到地铁站,交通便利
Simple bigroom",12104740231,unconfirmed,Hao,Queens,Woodhaven,40.69883,-73.85257,United States,US,True,strict,Private room,2008,$881 ,$176 ,3,7.0,11/3/2018,0.4,2,1,365,"Since it's a vegetarian house, please don't bring meat or fish into the house! Smoking outside please.",
44612601,Renovated 4 BED 3.5 BATH BK Townhouse Triplex APT,50375510035,verified,Mike,Brooklyn,Williamsburg,40.71092,-73.96755,United States,US,False,moderate,Entire home/apt,2009,$112 ,$22 ,2,76.0,6/15/2019,2.69,5,1,209,- No shoes in apartment - No parties - Enjoy yourself!,
44613153,Exciting New York Get Away,34548858930,verified,Telisha,Manhattan,Harlem,40.8178,-73.93774,United States,US,True,moderate,Private room,2018,"$1,069 ",$214 ,1,0.0,,,5,1,0,,
44613706,Prospect Heights Studio Apartment,77509493678,verified,Daniel,Brooklyn,Prospect Heights,40.67435,-73.96691,United States,US,False,flexible,Entire home/apt,2022,"$1,115 ",$223 ,3,2.0,4/11/2017,0.07,3,1,0,"No smoking, no pets.",
44614258,Luxe Large Suite w/Views bathroom en suite,38632496262,unconfirmed,Cameron & Dione,Brooklyn,Downtown Brooklyn,40.6925,-73.98613,United States,US,True,strict,Private room,2015,$872 ,$174 ,3,28.0,6/9/2019,1.0,4,2,11,Our home is well cared for and loved. We would love to invite people who respect personal spaces and enjoy an exotic looking home. Please note that our home is a non-smoking home.,
44614810,Quiet & spacious east village/LES private bedroom,5722862777,unconfirmed,Ruishu,Manhattan,Lower East Side,40.721309999999995,-73.98508000000001,United States,US,False,strict,Private room,2017,$877 ,$175 ,2,1.0,4/20/2019,0.37,5,1,0,"No drugs, no smoking, no pets (our dog is enough pet for us). Make sure the front door is shut securely when you come and go, as our dog Lucy likes to sneak out and explore when we're not looking! No additional guests or visitors without prior permission. If you'd like to have guests over please ask us first.",
44615362,Modern Sunlit Room w/ Balcony on Famous Street!,64436913092,unconfirmed,Zack,Manhattan,East Village,40.727779999999996,-73.98935999999999,United States,US,False,strict,Private room,2021,$979 ,$196 ,4,2.0,5/29/2017,0.08,4,1,0,#NAME?,
44615915,Cozy West Harlem Abode,50190756901,unconfirmed,Sharron And Lenny,Manhattan,Harlem,40.82805,-73.94676,United States,US,True,strict,Entire home/apt,2007,$633 ,$127 ,2,10.0,7/5/2018,0.36,3,1,0,"No smoking, No animals—we already have enough! No house parties. The maximum number of guests allowed in this room is one. Additional guests are not allowed unless they're just stopping in for a brief visit—still, please do clear it with me first.  I am trustworthy, clean and respectful and I expect my guests to be the same.  This is a calm, quiet neighborhood, so we ask that guests please adjust their decibels accordingly.  I ask that guests leave rooms the same way  they found them, making sure to clean up after cooking, to take hair out of the drains, and to put trash in trashcans.  Please  make yourself at home and feel free to use all my kitchen stuff.  No pets allowed. No smoking. No storage permitted outside of rented room, outside of basket and pockets on shower curtain for toiletries in bathroom that I'll  point out to you.  Guests will please keep perishables in a college-size refrigerator dedicated to their use in the kitchen.",
44616467,4BR Brooklyn Apartment Minutes from City Life!,50624002881,verified,Evolve,Brooklyn,East Flatbush,40.64261,-73.94334,United States,US,False,moderate,Entire home/apt,2014,$336 ,$67 ,2,1.0,8/20/2017,0.04,5,1,0,"We expect guests to be clean, neat and respectful. Communication is very important. No smoking indoors and no pets.",
44617019,Bklyn Brownstone 2BD APT Private Spotless wAC+HBO,96673850072,verified,Evan & Erika,Brooklyn,Bedford-Stuyvesant,40.6875,-73.92541999999999,United States,US,True,flexible,Entire home/apt,2007,"$1,078 ",$216 ,2,131.0,7/5/2019,5.23,4,1,159,"Greetings! Check-in: 5pm onwards - please contact me to schedule a time Check-out: 11am If you need an earlier or later check in time, please let me know, and I will do my best to accommodate if I can. Please contact me through the Airbnb prior to booking. Please do not hesitate to call or text or both if you need assistance during your stay. I only accept reservations from Airbnb members that have:  -A profile photo showing their face :-) -ID verification No smoking in the house or on the property, please. You may use coffee maker & electric kettle for tea/coffee and you are welcome to store things in the fridge. No guests allowed in the house but those who have a reservation. If you need to reach me for any reason before or during your stay, please do not hesitate to text me or call any time. We look forward to meeting you!",
44617572,Lovely Home Near Fort Tryon Park & the Cloisters,46102625568,unconfirmed,Brenton,Manhattan,Inwood,40.86488,-73.92922,United States,US,False,flexible,Entire home/apt,2007,$901 ,$180 ,14,7.0,9/18/2018,0.27,5,1,13,Please do not smoke in the house. If you smoke outside please be curteous and dispose of your cigarette butts. We have small children and would rather not have them picking those up outside. Please also keep the noise level down and be respectful of our neighbors.,
44618124,PERFECT East Village Location****,21412898565,verified,Danielle,Manhattan,Gramercy,40.7317,-73.9833,United States,US,False,flexible,Private room,2004,$552 ,$110 ,3,9.0,10/15/2017,0.32,1,2,0,"Please no smoking inside.  During the warmer months, please bring your conversations inside after 10 pm on weekdays and 11 pm on weekends. No gatherings/parties with more than 6 outside guests without my expressed consent are not allowed.  Guests who ignore this rule will lose their security deposit.  I'm sorry about this but the neighbors have complained about the noise!  Treat the house as your own so leave it in the same condition as you found it.  Thanks!",
44618676,Large Room with Private Bathroom (Long Term+++),12737980923,verified,Vernon,Bronx,Fordham,40.85929,-73.90048,United States,US,True,moderate,Private room,2010,$93 ,$19 ,22,10.0,4/13/2019,0.36,3,2,186,"Check-In is 3pm.  Check-Out is 12 Noon.  In order to keep the apartment clean and tidy, we ask all guests to adhere to these Check-In and Check-Out times. No parties. No pets. No smoking.   Yes, enjoying yourself.",
44619229,Quiet room with exposed brick,48189111349,unconfirmed,Susan,Manhattan,East Harlem,40.7865,-73.94406,United States,US,False,flexible,Private room,2004,$730 ,$146 ,16,7.0,10/31/2017,0.28,2,3,0,,
44619781,Large bedroom in the heart of the East Village,40190314862,unconfirmed,Nicholas,Manhattan,East Village,40.7281,-73.9839,United States,US,False,flexible,Private room,2015,$447 ,$89 ,1,26.0,12/28/2018,0.91,1,3,0,,
44620333,Your Home Away From Home!,61898886172,verified,Serena,Queens,Flushing,40.761990000000004,-73.79465,United States,US,False,moderate,Entire home/apt,2012,$346 ,$69 ,3,75.0,7/6/2019,3.07,3,2,174,"Apartment has stairs, so its most appropriate for children 6 years or older. Smoking is allowed outside on the porch but not inside apartment. Cats are allowed, but not dogs as pets (noise consideration).",
44620885,Cute Room in Upper West Side (FEMALES ONLY),51361369255,verified,Ana,Manhattan,Upper West Side,40.799170000000004,-73.96765,United States,US,True,moderate,Private room,2018,$717 ,$143 ,1,19.0,1/4/2018,0.73,3,1,0,"This is our home, not a hotel so we expect guests to leave it as clean as they found it.  No smoking in the house. No pets are allowed.",
44621438,"Comfy bachelor's apartment, Clinton Hill, Brooklyn",36380739991,unconfirmed,Dmitri,Brooklyn,Clinton Hill,40.68152,-73.96276,United States,US,True,flexible,Entire home/apt,2020,$194 ,$39 ,2,10.0,12/9/2018,0.39,4,1,0,,
44621990,Lovely Room in Loisaida Hideaway,66483875928,unconfirmed,Anima,Manhattan,East Village,40.7234,-73.97628,United States,US,True,flexible,Private room,2009,"$1,054 ",$211 ,5,2.0,6/25/2017,0.07,4,2,0,"No smoking  Not suitable for pets  No parties or events  Check-in time is after 2pm Quiet hours: 10pm-8am - Please refrain from loud noise after 10pm as this is a family neighborhood. Music and voices . - No parties. Although we want your group to have tons of fun, additional unnamed guests at a party will result in a 100% loss of deposit. AGREEMENT This Lease Agreement (the “Agreement"") is made by and between Airbnb host (“Homeowner"") and (“Guest"") as of the date last set forth on the agreement made via the (website hidden). For good and valuable consideration, the sufficiency of which is acknowledged, the parties hereby agree as follows: 1. Property. The property address will be disclosed at time of booking. 2. Rental Party. The rental party shall consist of Adults and Children (under age 18). The maximum number of guests is limited to 2 persons. Additional guests staying the night beyond the agreed upon number is not allowed. Any guests found staying at the house over the agreed num",
44622542,"Apartment in Sunset Park, Brooklyn",65130269927,verified,Ye,Brooklyn,Sunset Park,40.64028,-74.01262,United States,US,False,moderate,Entire home/apt,2019,"$1,012 ",$202 ,7,0.0,,,4,1,0,"• Check-in time is 3PM. This is my home and my sanctuary and I'm happy to share it with gentle people who are respectful of themselves and others. House goes quiet at 10 PM, and is smoke and drug-free always. Social drinking, especially with your meals, is A-OK. If you're a musician, you're welcome to use my gear, and we can even lay down a jam! Please note: We have clicked ""Hot Tub"" as an amenity because what we have, a jacuzzi-stye therapeutic bath, comes very close. Typically, Hot Tubs are big, hold 6-8 people and are out on the deck somewhere. What we have is a tub that makes serious bubbles with both water and air jets, and comes with a built-in customized 4-head shower. This tub also happens to be extra deep, extra wide, and extra long. You will love it!",
44623095,Private room near new 2nd Ave. Q train!,917415056,unconfirmed,Imad,Manhattan,Upper East Side,40.78025,-73.94802,United States,US,False,moderate,Private room,2021,$782 ,$156 ,2,154.0,7/1/2019,5.42,4,1,145,,
44623647,MY ROOM/COFFEE &BAGEL,16964734000,unconfirmed,Carol,Manhattan,East Village,40.72521,-73.97879,United States,US,False,strict,Private room,2021,$815 ,$163 ,6,30.0,4/1/2019,1.08,4,3,43,This is a non smoking house.  Quiet hours are from 10pm until 8am.  Cars must be parked within fence so as not to block neighbors driveway.  One parking spot only per room. Please don't use the kitchen for cooking as cleanliness becomes difficult to maintain with the velocity of guests that we host.   Please place dirty dishes in the dishwasher unless it’s full of clean dishes!,
44624199,Beautiful sunny apartment in Williamsburg,60731441047,unconfirmed,Sanna,Brooklyn,Williamsburg,40.71545,-73.95299,United States,US,True,strict,Entire home/apt,2021,$390 ,$78 ,1,0.0,,,3,1,0,,
44624752,Sunny Room at The Gazebo in Brooklyn,5413265174,unconfirmed,Kim,Brooklyn,Bedford-Stuyvesant,40.69428,-73.94148,United States,US,True,strict,Private room,2017,$370 ,$74 ,14,32.0,5/22/2019,1.14,3,2,72,"Please remember that this house is located in the middle floor of a triple decker. We all have our fair share of get together/small parties but we expect that you will be respectful of the space and of our neighbors. If you are visiting friends in Boston and want to invite a few people over, that is fine, however please do not throw any big parties. Also, please do not smoke inside the house. ",
44625304,The Otheroom Bar/Event/Filming Space -read details,78585301802,unconfirmed,James,Manhattan,West Village,40.73571,-74.0078,United States,US,False,moderate,Entire home/apt,2005,$461 ,$92 ,1,0.0,,,4,1,173,"We take great care of our home and want our guests to feel welcome. We only ask that our guests respect our home and neighbors, and keep these rules in mind: - Please advise us at booking how many people are in your group so we can adequately prepare.  No smoking is allowed inside.  Pets are not allowed, unless you have gotten us to agree to an ""exception."" Shoes off inside please. Please do not wander into neighbors' yard.",
44625856,Architect's Bedroom in Large Brooklyn Apartment,26491457139,unconfirmed,Niko,Brooklyn,Bedford-Stuyvesant,40.69612,-73.94918,United States,US,True,strict,Private room,2006,$112 ,$22 ,7,3.0,7/1/2017,0.11,4,1,0,"This is our home and therefore we ask that you respect our things and realize this is a not a rental home or hotel where anything goes.  No shoes inside, no parties, respect our neighbors, etc...  Basically, we ask that you treat our home the way you would like us to treat yours were we to stay over!  Also, we are a smoke-free household.  If you do need to smoke, do so outside and dispose of butts properly.  And please, no shoes since with a small children who pick things up of the floor, we need to minimize outside dirt being tracked in.",
44626408,"Urban Zen: Cozy, creative NYC retreat",60426205163,unconfirmed,Melissa,Manhattan,Washington Heights,40.83137,-73.94117,United States,US,True,flexible,Private room,2018,$182 ,$36 ,2,4.0,6/12/2018,0.16,3,1,0,,
44626961,2 Level Apartment With Private Terrace,22061970814,verified,Olga,Manhattan,Upper East Side,40.782059999999994,-73.94949,United States,US,False,flexible,Entire home/apt,2003,$850 ,$170 ,5,24.0,6/23/2019,0.85,5,1,20,"Smoking isn't allowed in the apartment, though you can do it on our back deck. Because this is our primary residence, we would love it if you would treat it as your own!",
44627513,Bright room in Brownstone,52970266514,unconfirmed,Cameron,Brooklyn,Bedford-Stuyvesant,40.67987,-73.93235,United States,US,False,strict,Private room,2012,$880 ,$176 ,2,21.0,6/14/2019,0.76,1,1,19,Tenant Agreement: House Rules: The landlord reserves the right to inspect the unit to enforce the terms of this agreement at any time. No smoking. No pets. No parties. Reduced noise after 11pm. No sublet. No more than eight people to reside on premises unless given written approval.  No refunds to be given for shortened stays.  No refunds to be given for any cable or internet WI-FI outages.  You are responsible for safe keeping of your own valuables. The landlord is not responsible for lost items.,
44628065,One bedroom Apartment in Carroll Gardens,31890867765,verified,Megan,Brooklyn,Carroll Gardens,40.67522,-73.99853,United States,US,True,flexible,Entire home/apt,2008,"$1,116 ",$223 ,1,0.0,,,5,1,0,,
44628618,Furnished room in Upper East Side apartment,35267107747,verified,Blair,Manhattan,East Harlem,40.789429999999996,-73.9478,United States,US,False,strict,Private room,2003,$258 ,$52 ,6,1.0,3/22/2017,0.04,5,1,0,,
44629170,Quiet Private Room in Brooklyn,62312535783,verified,Stephany,Brooklyn,Bushwick,40.6896,-73.90624,United States,US,False,strict,Private room,2017,$725 ,$145 ,2,83.0,6/22/2019,2.95,4,4,155,"Since I live in the apartment, I expect guests to respect the space and be quiet when coming in late.   No entertaining or overnight guests, please.",
44629722,Room in sweet 2BR in Brooklyn,30521278868,verified,Maura,Brooklyn,Crown Heights,40.66945,-73.93899,United States,US,False,flexible,Private room,2022,$908 ,$182 ,1,4.0,12/17/2018,0.44,5,3,0,,
44630275,Amazing 1 Bedroom Apt in the Heart of LES,63447398734,unconfirmed,Andrew,Manhattan,Lower East Side,40.72105,-73.98371,United States,US,False,moderate,Entire home/apt,2008,$846 ,$169 ,3,6.0,7/20/2017,0.22,3,1,90,Treat our property with respect:  There is no smoking in the loft. Clean up after yourself & turn lights and heating off whenever leaving the space. No Noise after 10 pm.  Guest are not allowed to have other guests come over.,
44630827,Cozy & Quiet 2 Bedroom / Heart of Lower Manhattan,97553656891,verified,Steven,Manhattan,Chinatown,40.71363,-73.9977,United States,US,True,strict,Entire home/apt,2010,$791 ,$158 ,2,15.0,6/9/2019,3.17,2,1,207,Please treat my home with the same love and care you would give your own home.,
44631379,Wonderful & Large Modernist Bushwick Brooklyn Apt.,78385241452,unconfirmed,Renee,Brooklyn,Bushwick,40.6957,-73.93196,United States,US,True,strict,Entire home/apt,2008,$254 ,$51 ,29,0.0,,,5,1,310,I'm a semi kosher vegetarian which means that I don't bring any pork or shelled fish into the house.  Chicken/Red meat is fine. There is no smoking in or around the condo.,
44631931,P,3462539932,unconfirmed,Amelia,Manhattan,Chelsea,40.74431,-73.9922,United States,US,True,moderate,Private room,2004,$902 ,$180 ,5,3.0,4/12/2017,0.11,1,1,0,,
44632484,Quite and comfortable shared room in UES,80882411207,verified,Mohamed,Manhattan,Upper East Side,40.76675,-73.95428000000001,United States,US,False,moderate,Shared room,2009,$77 ,$15 ,1,118.0,1/3/2019,4.21,3,2,0,,
44633036,Quite relaxing convenient shared room in UES.,5987230873,unconfirmed,Mohamed,Manhattan,Upper East Side,40.767309999999995,-73.95419,United States,US,False,strict,Shared room,2011,$670 ,$134 ,1,115.0,1/1/2019,4.06,3,2,0,"We have put a lot of time and effort into giving you a well furnished home with anything you could need, with this in mind, please respect our space by using the apartment for intending living purposes only and abide to the following:  -Leave the home as you found it -Limit noise at all times; quiet hours begin at 9pm -No additional guests except by prior arrangement with hosts.  -No filming  -Smoking of any kind in the apartment and within 50 feet of the outside is not allowed.  -lighting candles is strictly prohibited -The backyard is for the owners' and their family who live upstairs. They respectfully ask that you do not use the outside space  -No pets",
44633588,Clean and renovated apartment,86231827852,verified,Nance,Bronx,Longwood,40.816320000000005,-73.90991,United States,US,False,moderate,Entire home/apt,2005,$827 ,$165 ,2,62.0,6/19/2019,2.19,3,1,36,"-Remove shoes -be sure to lock the front door when entering or leaving the house -be reasonably quiet during sleeping hours - clean up after yourself in common areas like kitchen and bathroom -Good communication is key - No pets  -No smoking -There may be other guests staying and you will be sharing the bathroom with the host and one other guest. is a friendly house hold, reasonably quiet. We expect guests to be reasonably quiet coming in and out before (9AM and after 10PM. Kindly remove your shoes as well.  For safety reasons please do not invite other people to our place.  For summer months, there will be an AC unit provided. PLEASE keep doors and windows closed whenever you are using the AC. Otherwise please shut the AC off, if you want to open the windows and doors. This is for your comfort, as the AC unit will only cool the room if the doors and windows are shut.  Ask if you need anything, I will be providing you with towels, shampoo, conditioner, body wash, lotion, hair dryer. Se",
44634141,Modern Apartment Bayridge/Brooklyn- Sleeps 6,25735978706,verified,Ebada,Brooklyn,Fort Hamilton,40.620670000000004,-74.02942,United States,US,True,strict,Entire home/apt,2006,$205 ,$41 ,5,4.0,6/18/2019,1.9,4,3,312,"The usual ""social code"": There are three of us altogether in the flat, so use of the bathroom should be considerate of others' needs as well.   Quiet is appreciated after 10:00 PM.  You are more than welcome to use the kitchen for preparing food; I would ask only that you leave it in the condition you would wish to find it.  Smoking allowed on deck. *Good communication is essential to ensure everyone is contented.",
44634693,Private Room 2 in East Village (Large Window),76898611910,unconfirmed,Anna,Manhattan,East Village,40.72208,-73.98109000000001,United States,US,False,flexible,Private room,2017,"$1,086 ",$217 ,1,116.0,6/2/2019,4.07,5,2,238,"Not really a 'rules based' household, or perhaps  it is more that  we and our guests have always understood each other! We do appreciate people taking outdoor shoes off in the house.",
44635245,Gorgeous Private Studio in Williamsburg/Greenpoint,53443760225,verified,Reggie,Brooklyn,Williamsburg,40.717859999999995,-73.94556,United States,US,True,moderate,Entire home/apt,2020,$471 ,$94 ,2,9.0,6/17/2018,0.33,4,1,0,,
44635798,Bushwick Oasis Room #2: Close to the L or M train,53167226124,unconfirmed,Connie,Brooklyn,Bushwick,40.70288,-73.92796,United States,US,True,moderate,Private room,2005,$643 ,$129 ,1,1.0,8/14/2017,0.04,3,2,0,,
44636350,Great room in the heart of NYC,33283374917,unconfirmed,Laura,Manhattan,Murray Hill,40.7464,-73.97669,United States,US,True,strict,Private room,2011,$149 ,$30 ,1,2.0,4/8/2017,0.07,3,1,0,,
44636902,2 Bedroom / 2 Bath - Brand New Modern Apt,7371450218,verified,Jenia,Manhattan,Hell's Kitchen,40.764070000000004,-73.99322,United States,US,True,flexible,Entire home/apt,2016,$167 ,$33 ,3,1.0,5/3/2017,0.04,1,2,0,"No candles, maximum 2 guests",
44637454,Cozy Garden Apartment in Charming Park Slope,8329510028,verified,Anelcia Carolle,Brooklyn,Park Slope,40.67573,-73.97993000000001,United States,US,True,moderate,Entire home/apt,2019,$254 ,$51 ,2,97.0,7/3/2019,3.68,4,1,0,We are a second-floor apartment so please do not stomp or jump on floors.,
44638007,Private Mezzanine Room in E. Williamsburg,13391781652,unconfirmed,Elliott,Brooklyn,Williamsburg,40.708870000000005,-73.94609,United States,US,True,flexible,Private room,2005,"$1,187 ",$237 ,3,12.0,12/24/2017,0.43,5,2,0,"This is a family place no large parties,i.e. over 10 people.  No smoking inside except vaporizer. Treat our home as you would want someone to treat yours . Be mindful of neighbors.  If a dish or something breaks don't worry we can resolve anything. The plumbing is old so it's  helpful to use the hair strainer in-place at the  drain of the bath tub and of course nothing down the toilet except waste and toilet paper .  We have an emergency number for a plumber if something unforeseen occurs. Kitchen we have a garbage disposal but we do our best to throw all the waste in the garbage can and use the disposal just for little bits .  The switch for the disposal is located to the left of the sink on the wall. Its the one on the right the other switch is for the upper cabinet lights. very important, no grease or oil down the drain ..save it up in a container and throw the container away in the garbage. Trash/garbage day is Friday in the a.m. it needs to be out on the sidewalk in front of the g",
44638559,Spacious Private Room in bright Manhattan 2 BR,34693412346,unconfirmed,Sneha,Manhattan,Washington Heights,40.84806,-73.93930999999999,United States,US,True,strict,Private room,2015,$963 ,$193 ,1,3.0,3/18/2017,0.11,5,1,0,"Absolutely no smoking, indoors or out. Please take your shoes off in the house. No pets allowed. We have a lovely 3-year old cat who is he's friendly and low-maintenance but will require some food and water during your stay.",
44639111,"Large, Sunny, Williamsburg 1 bedroom Apt",27573312533,verified,Chris,Brooklyn,Williamsburg,40.70983,-73.96495,United States,US,False,strict,Entire home/apt,2005,$763 ,$153 ,3,73.0,7/2/2019,2.64,4,1,37,"WHEN BOOKING, PLEASE PROVIDE THE FOLLOWING IN YOUR MESSAGE to me:  - 1. Total number of guests (adults, children, babies)? Are there any elderly or children under 18? If so, what are their ages?  - 2. Arrival Date AND Time of Check In? (Check In between 2 pm and 9 pm with some leniency)  - 3. Departure Date (Check out before 12 pm/noon)  - 4. Please tell me a little about yourselves and the purpose of your trip.  - 5. What Other Needs or Special Requests or Extra Options (please read below for additional options and possible related additional fees).  ------  PLEASE NOTE THE FOLLOWING BEFORE REQUESTING A BOOKING:  * I will reply as soon as possible to let you know if my apartment will be available for ALL your needs.  - 1. We are happy to host Friendly, Neat, Low-Maintainence Adults & Well-Behaved Children, as well as their well Behaved Pets.  ---- All cookware and utensils in the kitchen are at your disposal. There will be water (brita) and basic condiments provided for you. We ask th",
44639664,The Sweet Pea Cottage,72763413376,unconfirmed,Kathleen,Staten Island,Huguenot,40.538709999999995,-74.16966,United States,US,False,strict,Entire home/apt,2014,$968 ,$194 ,1,136.0,7/7/2019,4.81,5,1,136,We expect that you will treat our house like yours.  We have done many exchanges all over the world and everybody loved our house. No smoking and no pets.,
44640216,Delightful Brooklyn townhouse,91459128292,unconfirmed,Christy,Brooklyn,Park Slope,40.68326,-73.97796,United States,US,True,flexible,Entire home/apt,2009,$317 ,$63 ,6,7.0,1/3/2019,0.36,5,1,42,"Respect our home and our house is your house. Checkout is 11 am at the end of your stay, however you are welcome to leave your bags for the day. Please let us know when you plan to arrive. Depending on circumstances we can be very flexible.",
44640768,"2nd Fl, Tall Ceilings + Spacious, Convenient + Fun",13834390519,verified,Orin,Manhattan,East Village,40.724920000000004,-73.98982,United States,US,False,flexible,Private room,2017,$360 ,$72 ,3,15.0,12/31/2018,0.54,1,1,0,"Please treat the home as you would your own, and treat your hosts as you would like to be treated!",
44641321,Adorable one bedroom next to Central Park,58877356610,verified,Amy,Manhattan,Upper West Side,40.7979,-73.96024,United States,US,True,flexible,Entire home/apt,2018,$974 ,$195 ,30,2.0,8/17/2017,0.08,5,12,216,"No smoking, no drugs, no parties, no pets. Please be polite and courteous.",
44641873,Private bedroom right on the High Line/Chelsea,94140493041,unconfirmed,Louizos Alexandros,Manhattan,Chelsea,40.74899,-74.00403,United States,US,False,flexible,Private room,2010,$756 ,$151 ,7,12.0,11/1/2017,0.42,3,1,0,"Please be respectful of my things! I have a lot of stuff that I have collected over the years. Absolutely NO smoking. This is a really relaxing space and the neighbors are all really cool. -Pets are allowed -If you cook, please clean after yourself and make proper use of the garbage disposal.",
44642425,Private Room Available in Hamilton Heights,757662538,unconfirmed,Nicole,Manhattan,Harlem,40.82288,-73.95254,United States,US,True,flexible,Private room,2004,$542 ,$108 ,7,21.0,4/28/2019,0.75,5,1,0,- no shoes inside - quiet after 8:30pm,
44642977,Cozy apt. w/private patio in Williamsburg!,76921926718,verified,Kilian,Brooklyn,Williamsburg,40.71315,-73.943,United States,US,True,strict,Entire home/apt,2012,$799 ,$160 ,1,6.0,12/31/2017,0.22,5,1,0,,
44643530,Kids friendly 2 bedroom close to Subway and C.Park,91842504371,unconfirmed,Gregor,Manhattan,Upper West Side,40.78873,-73.97402,United States,US,False,strict,Entire home/apt,2022,$935 ,$187 ,2,16.0,6/7/2019,0.59,4,1,0,"Maximum of 2 guests staying in a bedroom.  No smoking anywhere in or outside the property.  No pets anywhere in or outside the property.  No parties anywhere in or outside the property.  No parking on our property or in the lot.  No frying food.  No extreme temperature settings.   Any broken house rules, including evidence of cigarette butts, ashes, odors, stained linens, damaged furniture, or missing items will result in loss of deposit. All doors must be locked, and all lights, fans, air conditioners, and heaters should be turned off each time you leave. We kindly ask that you respect our property and our neighbors in this wonderful community.",
44644082,Renovated Comfortable Room for 2 or solo traveler,85366204907,unconfirmed,Izabel,Brooklyn,Windsor Terrace,40.64958,-73.97482,United States,US,True,flexible,Private room,2022,$619 ,$124 ,1,108.0,7/2/2019,3.8,5,3,243,"The building is mainly families and retirees, and there are quiet hours after 10pm weeknights and 11pm weekends. No cats in our unit, and no smoking anywhere in the building.",
44644634,"""Borough Border Liner"" Diverse/Convenient/Private",7076773072,verified,Maya,Brooklyn,Bushwick,40.70537,-73.91587,United States,US,False,strict,Private room,2020,$232 ,$46 ,1,17.0,5/13/2018,0.97,5,1,0,My condo unit is one of three units shared with my fabulous neighbors. I ask for respect that my wood floors are noisy for my downstairs neighbors. Slippers or socks would be preferred.,
44645187,Large and Sunny Private Bedroom in Astoria,24041462383,unconfirmed,Diana,Queens,Astoria,40.76964,-73.92303000000001,United States,US,False,moderate,Private room,2019,$363 ,$73 ,10,0.0,,,4,1,188,"We do not allow any pets on the property to protect our guests and family from allergies. Please do not park in our driveway. You may find on-street parking available on Spring Park Ave or Rockview St. There is no smoking on the property. Please feel free to take a walk around our lovely neighborhood if you need a smoke. Otherwise we have no real ""rules"" except common courtesy please. We always want our guests to feel as much at home as possible, so feel free to do so. Should you need something or have a question, just ask! We are always happy to help. Most of all, enjoy your visit here in our studio!",
44645739,Trendy Carroll Gardens Boutique apartment,40825734038,unconfirmed,Sharon,Brooklyn,Carroll Gardens,40.68196,-73.99944,United States,US,True,strict,Entire home/apt,2021,$432 ,$86 ,7,1.0,4/1/2017,0.04,1,1,0,No smoking of any kind allowed in house or on property at any time.  Quiet and respectful of our neighbors.,
44646291,Studio Apartment in Upper East Side,45369165400,unconfirmed,Jing,Manhattan,Upper East Side,40.77734,-73.94592,United States,US,True,strict,Entire home/apt,2011,$366 ,$73 ,7,0.0,,,5,1,0,"Dear Guest, Thank you for appreciating that I live in a building with other people. Please always lock all doors (especially the front one) when coming and going.",
44646844,"Private room. 1 bed, 2 guests, 3333 Broadway",6233692070,unconfirmed,Yuedi,Manhattan,Harlem,40.81955,-73.95586999999999,United States,US,False,flexible,Private room,2018,$705 ,$141 ,1,0.0,,,3,1,0,"I feel very responsible and accountable for your needs and comfort while you stay at my home... I will go above and beyond for you!  That being said -- I do not charge hotel pricing for a reason. Hotels allow for 24 hour on call service, if you lock yourself out or are having trouble with something... a hotel front desk can help immediately. Your $300 a night for a hotel in Boston covers that.... I am charging almost a 10th of that for this room. I have my own business, clients, and social obligations to attend to. If you lock yourself out or have some other issue, of course I will come help you, but its important to understand that it will not be immediate. I will do my best to get back to the house as quickly as possible. ***IMPORTANT** I'd rather save you all the money and trust you to be independent / responsible guests... than to charge you for my 24 hour support! So please -- keep your keys on hand and in sight, keep the room clean, and maintain healthy choices while in my space ",
44647396,One BR duplex loft in midtown east townhouse - 43,2020684722,verified,Gordon,Manhattan,Midtown,40.76032,-73.96618000000001,United States,US,True,moderate,Entire home/apt,2020,$223 ,$45 ,30,7.0,11/15/2018,0.4,5,5,71,"The usual ""social code"": There are three of us altogether in the apartment -- myself and two others, usually housemates, though one of the bedrooms may also be occupied by another guest -- so use of the bathroom should be considerate of others' needs as well.   Quiet is appreciated before 8:00 AM and after 10:00 PM.  You are more than welcome to use the kitchen for preparing food; we would ask only that you leave it in the condition you would wish to find it.  Smoking allowed on deck. *Good communication is essential to ensure everyone is contented.",
44647948,Huge Sunny Room in Prime Brooklyn Flushing Ave JM,10905276141,verified,Edith,Brooklyn,Bedford-Stuyvesant,40.7002,-73.94327,United States,US,False,strict,Private room,2011,$689 ,$138 ,1,25.0,5/19/2019,0.88,2,1,0,"Be respectful of all and communicate well enough so we can all enjoy your stay. Pets are invited in theory...we would have to talk about it before hand. Small , very small parties could work here. You could also use the outside under the grape vine",
44648500,Lower East Side Studio,24098153807,verified,Henrik,Manhattan,East Village,40.72208,-73.98473,United States,US,True,strict,Entire home/apt,2013,$490 ,$98 ,12,11.0,1/17/2019,0.39,3,1,0,Please be mindful in the kitchen and bathroom after 23:00.,
44649053,"2BR/2BATH,CENTRALPARK,COLUMBIA,JACUZZI,FIREPLACE",76095838620,unconfirmed,Yolanda,Manhattan,Harlem,40.80063,-73.95223,United States,US,False,strict,Entire home/apt,2007,$578 ,$116 ,30,3.0,6/5/2019,0.27,5,1,327,"In fairness to the other owners who live on the 1st and 3rd floors, it will be important to keep noise to a respectful volume. No house parties allowed. No smoking on the premises. No pets allowed. No open flames (candles of any kind) allowed. Do not use back stairs off of balcony/deck, enter and exit balcony through TV room only, when sitting outside. Back stairs are meant to be used as an emergency egress only in the event of a fire should the main egress become blocked.",
44649605,City Zen Apartment in Brooklyn,37078376964,verified,Stephany,Brooklyn,Bushwick,40.68956,-73.90599,United States,US,True,strict,Entire home/apt,2003,$828 ,$166 ,3,72.0,6/17/2019,2.55,3,4,140,Yes try to be quite for other tenants and roommates so nothing to loud and be respectful. Be clean!,
44650157,Sweet and Secluded Suite minutes from Manhattan,32085015164,unconfirmed,Omar And Kareema,Brooklyn,Bushwick,40.6898,-73.91835,United States,US,True,moderate,Entire home/apt,2018,$406 ,$81 ,3,70.0,6/16/2019,2.51,5,3,170,"- House Rules  Wifi Network: NotYours and NotYours_2EXT Password: Notyours69  Welcome to Jamaica Plain! We are located centrally with easy access to the Green Street T stop on the Orange Line. There is on street parking if needed. Street cleaning takes place at 8:00am the first and third Monday of every month, DO NOT PARK ON GREEN STREET on the first or third Monday or you risk the pleasure of ticketing and TOWING :(   You are a guest in our condo, make yourself at home but please respect it as you would the home of a very tidy friend. Help yourself to tea & coffee.  **No shoes in the condo!   **Please water plants every 2-3 days, yellow watering can is behind couch.  **Buzzer is self- explanatory.   **No smoking!!  **Smoke alarms have reset buttons if needed  **Please turn off or set the AC to 75 when you leave.   **The front door of the building needs to be pulled firmly shut to close, please be sure you close it behind you when you enter & exit.  **Please be respectful of our neighb",
44650710,CLEAN STYLISH SUNNY & COMFORTABLE ONE-BED in L.E.S,72790378048,verified,Analisa,Manhattan,Lower East Side,40.71862,-73.98405,United States,US,False,strict,Entire home/apt,2019,$92 ,$18 ,4,16.0,6/2/2019,0.65,3,1,14,"No smoking, drugs, loud volume, loud partying please. No outdoor shoes inside the house please, indoor slippers are provided. Please help me keep the place clean and organized by cleaning up after yourself, thank you.",
44651262,Great 1 Bedroom on Upper East,23535989588,verified,James,Manhattan,Upper East Side,40.77984,-73.94725,United States,US,True,moderate,Entire home/apt,2013,$484 ,$97 ,2,0.0,,,1,1,0,#NAME?,
44651814,Charming Room in Financial District,96340201269,verified,Alex,Manhattan,Financial District,40.70682,-74.00445,United States,US,False,flexible,Private room,2022,$71 ,$14 ,2,3.0,3/26/2017,0.11,1,1,0,This is a non smoking house.  Quiet hours are from 10pm until 8am.  Cars must be parked within fence so as not to block neighbors driveway.  One parking spot only per room. Please don't use the kitchen for cooking as cleanliness becomes difficult to maintain with the velocity of guests that we host. We welcome you to have breakfast at your leisure.  Please place dirty dishes in the dishwasher unless it’s full of clean dishes!We look forward to having you! Boston is a terrific city and we are walking distance to public transportation and many wonderful shops and restaurants.  Check out our reviews.,
44652367,"Luxury 1BR Apt w/ Rooftop, Gym and Skyline View",6293859962,verified,Michael,Brooklyn,Greenpoint,40.732040000000005,-73.95874,United States,US,False,moderate,Entire home/apt,2007,$377 ,$75 ,2,0.0,,,2,1,0,Cleaning fee only applies to stays under 4 nights.  4 nights or more I pay the fee.  Monthly stays do have to also pay a cleaning fee.,
44652919,The Queens Bungalow,13501886138,unconfirmed,Brittney,Queens,Glendale,40.69643,-73.89362,United States,US,False,strict,Entire home/apt,2004,$854 ,$171 ,3,19.0,7/2/2019,0.7,1,1,104,"Since I go to bed early (I'm a public school teacher), I ask that you keep noise down after 9:30 p.m. on weeknights. The family upstairs would appreciate this as well. Also please let me know if you're planning to have anyone else come over. No pets, no smoking/drugs, be clean, etc.",
44653471,Luxurious Apartment in Crown Heights,38085266936,unconfirmed,Blondine,Brooklyn,Crown Heights,40.67595,-73.94131999999999,United States,US,True,moderate,Entire home/apt,2005,$329 ,$66 ,30,9.0,5/12/2019,0.33,3,2,136,"Please treat our home like you would your own family's! AGREEMENT This Lease Agreement (the “Agreement"") is made by and between Airbnb host (“Homeowner"") and (“Guest"") as of the date last set forth on the agreement made via airbnb. For good and valuable consideration, the sufficiency of which is acknowledged, the parties hereby agree as follows: 1. Property: The property address will be disclosed at time of booking. 2. Rental Party: The rental party shall consist of Adults and Children (under age 18). The maximum number of guests is limited to 2 persons.  3. Term of the Lease. The lease begins at 3:00 p.m. on (the “Check-in Date"") and ends at 10:00 a.m. on (the “Check-out Date""). No refunds are issued for late check-in or early departure. 4. Rental Rate and Fees.  As listed in the Airbnb reservation system and subject to change. Refer to the official reservation for details. 5. Security Deposit. The Security Deposit is required to protect Homeowner from loss or damage to the Property, ",
44654023,"Essential studio, 2 minutes from train (D)",58973268191,verified,Silvia,Brooklyn,East New York,40.67549,-73.88932,United States,US,True,flexible,Entire home/apt,2008,$629 ,$126 ,3,68.0,6/18/2019,2.51,1,8,343,"- Maximum number of guests at any time is 2 adults - No cigarette smoking inside - Please do not take food/beverages unless otherwise noted (but you can use any equipment in the kitchen) - Pets may be accepted on a case by case basis for an additional fee (Note that we have one cat and one (large, chill) therapy dog)",
44654576,Bright and Cosy Room in Williamsburg,46394799414,verified,Julie,Brooklyn,Williamsburg,40.7115,-73.9429,United States,US,True,flexible,Private room,2007,$821 ,$164 ,23,12.0,6/19/2019,0.44,5,2,189,"Since you will be living in my own residence, I expect that you take care and keep the common areas cleaned and neat.",
44655128,Comfy & Spacious RM with Backyard/Near Metro,76884220904,unconfirmed,Ciprian,Bronx,Kingsbridge,40.870940000000004,-73.89386,United States,US,True,moderate,Private room,2017,$232 ,$46 ,3,115.0,6/23/2019,4.1,3,4,71,"I feel very responsible and accountable for your needs and comfort while you stay at my home... I will go above and beyond for you!  That being said -- I do not charge hotel pricing for a reason. Hotels allow for 24 hour on call service, if you lock yourself out or are having trouble with something... a hotel front desk can help immediately. Your $300 a night for a hotel in Boston covers that.... I am charging almost a 10th of that for this room. I have my own business, clients, and social obligations to attend to. If you lock yourself out or have some other issue, of course I will come help you, but its important to understand that it will not be immediate. I will do my best to get back to the house as quickly as possible. ***IMPORTANT** I'd rather save you all the money and trust you to be independent / responsible guests... than to charge you for my 24 hour support! So please -- keep your keys on hand and in sight, keep the room clean, and maintain healthy choices while in my space ",
44655680,"2fireplcs,Garden,BBQ,wshr/dryer,JacuzTub,BIG Kitch",96353275634,verified,Jill & Kerry,Manhattan,Chelsea,40.75046,-73.99854,United States,US,False,moderate,Entire home/apt,2004,$946 ,$189 ,1,132.0,7/4/2019,5.17,4,1,252,"No smoking  Not suitable for pets  No parties or events  Check-in time is after 2pm Quiet hours: 10pm-8am - Please refrain from loud noise after 10pm as this is a family neighborhood. Music and voices from the upper deck carries down the block. We enforce a loss of deposit if there are noise complaints. - No parties. Although we want your group to have tons of fun, additional unnamed guests at a party will result in a 100% loss of deposit. AGREEMENT This Lease Agreement (the “Agreement"") is made by and between Airbnb host (“Homeowner"") and (“Guest"") as of the date last set forth on the agreement made via the (website hidden). For good and valuable consideration, the sufficiency of which is acknowledged, the parties hereby agree as follows: 1. Property. The property address will be disclosed at time of booking. 2. Rental Party. The rental party shall consist of Adults and Children (under age 18). The maximum number of guests is limited to 4 persons. Additional guests staying the night b",
44656233,"Cute apartment, Washington Sq Park!",19622045296,verified,Max,Manhattan,Greenwich Village,40.73104,-73.99831,United States,US,False,strict,Private room,2013,"$1,065 ",$213 ,3,1.0,3/21/2017,0.04,5,1,0,,
44656785,Spacious and Sunny in Prime Park Slope,27462800343,unconfirmed,Jim,Brooklyn,South Slope,40.66317,-73.98465,United States,US,False,strict,Entire home/apt,2018,"$1,038 ",$208 ,1,2.0,3/24/2017,0.07,4,2,0,"The usual ""social code"": There are three of us altogether in the apartment -- myself and two others, usually housemates, though one of the bedrooms may also be occupied by another guest -- so use of the bathroom should be considerate of others' needs as well.  Quiet is appreciated before 8:00 AM and after 10:00 PM.  You are more than welcome to use the kitchen for preparing food; I would ask only that you leave it in the condition you would wish to find it.  Smoking allowed on deck. *Good communication is essential to ensure everyone is contented.",
44657337,Private bedroom 8 mins-JFK&The Mall,85461970699,unconfirmed,Yvonne,Queens,Jamaica,40.68638,-73.79007,United States,US,True,strict,Private room,2010,$158 ,$32 ,1,347.0,7/6/2019,13.48,1,3,159,Please be respectful of my things! I have a lot of stuff that I have collected over the years. Absolutely NO smoking.  This is a really relaxing space and the neighbors are all really cool.  -Pets are allowed,
44657890,Penthouse Luxury Apt with Amazing Views near GCT,52630281728,unconfirmed,Ryan,Manhattan,Murray Hill,40.7481,-73.97771,United States,US,True,strict,Entire home/apt,2020,$118 ,$24 ,14,0.0,,,1,1,0,-Quiet hours after 10 pm -Lock the front door when exiting and entering the property,
44658442,"A small bedroom, Lower East Side",97581997229,verified,Emma,Manhattan,Chinatown,40.71569,-73.99076,United States,US,False,flexible,Private room,2014,$142 ,$28 ,3,10.0,5/5/2017,0.36,1,1,0,"No smoking, drugs, lighting candles, or campfires on the bed. (ha!) We aren't going to tell you not to drink alcohol (we're not your mom), but it would be great if you wouldn't come in super drunk, knock on our neighbor's doors, knock over a ton of our stuff, freak out our dog, and throw up everywhere. Please remove your shoes indoors. Boston streets are pretty gross. Please do not bring your friends into the home. We are sure they're lovely people, but we don't know who they are! We are generally in bed by 10:30 pm on weeknights. You are absolutely welcome to come and go at any time of the night, just try to keep things quiet for the sake of everyone in the building. If you need anything, like a hair dryer or toiletries, please don't hesitate to ask! We are very happy to share (within reason, of course).",
44658994,Private BR in South Harlem close to 2/3,9847591423,unconfirmed,Laura And Robert,Manhattan,Harlem,40.80339,-73.95034,United States,US,False,strict,Private room,2019,$345 ,$69 ,3,9.0,2/24/2018,0.42,3,1,0,The cleaning fee only applies to stays under 4 nights.  4 nights or more it is included.,
44659546,Entire Hipster Flat in the Heart of Bushwick!,86351472674,verified,Leyla,Brooklyn,Bushwick,40.70146,-73.92886999999999,United States,US,True,moderate,Entire home/apt,2022,$929 ,$186 ,5,0.0,,,5,1,0,"**We would love to hear a bit about you and what brings you to Boston before accepting any reservations. Please make sure your profile is filled out (including a clear picture of you), and your online and offline verifications are complete before you submit a reservation request so we have an idea of who you are.** Please be respectful of my home and other guests - clean up after yourself, keep your toiletries neat in the shared bathroom or leave them in your room, no smoking indoors, and please remove your shoes upon entering.   I have coffee and tea for guests, and will leave out some basic breakfast items like snack bars and fresh fruit, however if you are planning on using the kitchen during your stay I ask that you provide your own food and drink.   Please do not bring additional guests home without express prior permission from the host.  Sorry, no pets allowed! Check out time is 12pm.  Please clean your leftovers out of the refrigerator and put in the trash. Clean dishes buy run",
44660099,Penthouse Apartment in Chelsea,58322540254,unconfirmed,Anna,Manhattan,Chelsea,40.743140000000004,-73.99552,United States,US,True,strict,Entire home/apt,2015,$412 ,$82 ,2,24.0,7/1/2019,0.9,1,1,42,Be respectful of house and neighbors on second and third floor. That's all we ask.,
44660651,Cozy private room in Upper East Side apartment,26259644042,unconfirmed,Jillian,Manhattan,Upper East Side,40.77186,-73.95402,United States,US,False,strict,Private room,2011,"$1,176 ",$235 ,2,3.0,3/16/2017,0.11,5,1,0,,
44661203,"2 Bed Apt Brighton Beach, Brooklyn by Beach",17707364569,verified,Anna,Brooklyn,Brighton Beach,40.582,-73.96185,United States,US,True,flexible,Entire home/apt,2007,"$1,001 ",$200 ,1,119.0,7/1/2019,4.2,3,4,85,Relatively quiet after 10 in the evening.,
44661756,(2R) Cozy and clean bedroom with private bathroom,89346577715,verified,Steven,Queens,Fresh Meadows,40.73318,-73.79321999999999,United States,US,True,flexible,Entire home/apt,2004,$57 ,$11 ,2,113.0,7/3/2019,4.04,4,2,3,"No Smoking inside the apartment No Pets When possible, please remove shoes at entryway.  This is our home so please treat it as you would your own and tidy up upon your checkout.",
44662308,Birds nest Oasis in historic cobble hill,88503793725,unconfirmed,Pioneer,Brooklyn,Cobble Hill,40.68886,-73.99825,United States,US,False,moderate,Entire home/apt,2015,$279 ,$56 ,30,11.0,6/17/2019,0.47,3,1,324,"This is a no-smoking apartment. If you do smoke outside, please dispose of the cigarettes properly.  No pets are allowed.",
44662860,Spacious room in front of prospect park,81080274292,unconfirmed,Emmie,Brooklyn,Prospect-Lefferts Gardens,40.66042,-73.96234,United States,US,True,flexible,Private room,2014,$259 ,$52 ,1,45.0,5/19/2019,1.62,5,2,303,"no inside smoking, quiet(ish) after 11, help yourself to condiments, oils, spices, coffee. use of bikes at your own risk. No parties. I'm super tight with neighbors and usually I'm staying 2 doors down.",
44663413,Modern 2br Apartment in the heart of Soho/Nolita,72646184520,verified,Chendi,Manhattan,Nolita,40.72118,-73.99602,United States,US,False,strict,Entire home/apt,2022,$201 ,$40 ,2,0.0,,,3,1,0,NO Smoking,
44663965,Studio Apt - One Block from Central Park,1320148510,verified,Harry,Manhattan,Hell's Kitchen,40.76616,-73.98435,United States,US,True,flexible,Entire home/apt,2016,$630 ,$126 ,13,6.0,5/20/2017,0.21,2,1,0,No Smoking.,
44664517,NYU/E.Village Cafes & Bars*6 month $3500/mo,16800463895,unconfirmed,Lisa,Manhattan,East Village,40.72804,-73.98665,United States,US,False,flexible,Entire home/apt,2013,$156 ,$31 ,180,15.0,5/28/2019,0.56,3,1,332,,
44665069,Luxury Condo in the Heart of Manhattan!(High Rise),94508898116,verified,Vlad,Manhattan,Midtown,40.74685,-73.9841,United States,US,False,flexible,Private room,2013,$812 ,$162 ,2,60.0,6/25/2019,2.3,4,1,357,,
44665622,Living Room Space In NYC,94460307434,unconfirmed,Wendell,Manhattan,Harlem,40.82432,-73.9385,United States,US,False,moderate,Shared room,2018,$837 ,$167 ,1,9.0,10/22/2017,0.32,1,2,0,,
44666174,Studio in Brooklyn Heights with Private Entrance,40116348266,verified,Madeline,Brooklyn,Brooklyn Heights,40.69257,-73.99707,United States,US,True,moderate,Entire home/apt,2021,$200 ,$40 ,2,12.0,1/1/2019,0.5,1,1,0,"Your our guest, so please make yourself at home. Be clean! Hunter and I keep a tight ship around the apartment and we'd like our guests to be as clean as us. =) Speak up! Let us know if you need anything.  Party down (if you let us know).  We aren't huge partiers, but if you like to listen to music or watch loud TV, let us know ahead of time.  This is important.",
44666726,Cozy Zen Brooklyn Bedroom,96566873328,unconfirmed,Noor,Brooklyn,Crown Heights,40.66507,-73.95699,United States,US,False,strict,Private room,2011,$558 ,$112 ,7,11.0,6/24/2018,0.4,3,1,0,"Guest is expected to behave in a nice and orderly manner with respect to other roommates and neighbors. The guest is expected to keep the WHOLE apartment in the same condition they found it in, including the bedroom and bathrooms.",
44667279,NANCY clean/quiet very close city,23198653091,unconfirmed,Julio,Brooklyn,Bushwick,40.693690000000004,-73.92291999999999,United States,US,True,moderate,Private room,2006,$598 ,$120 ,5,26.0,6/24/2019,0.93,2,4,325,"1. No additional guests not part of the reservation in the building at all.  2. No Pets 3. No Smoking  4. No Children under 10. (The house is not child proof) 5. Remove your shoes 6. Check in is 3-11pm  7. Check out is 10am  *early check in or late check out must be arranged before the reservation starts and may not be accommodated* 8. The bathroom is a shared space, keep the sink clear, there is limited room for your bath products in the shower. 9. No Parties",
44667831,Clean Green Artsy Apartment with Great Kitchen,69271017448,unconfirmed,Domenica,Manhattan,East Village,40.72833,-73.98118000000001,United States,US,True,flexible,Private room,2010,$318 ,$64 ,3,3.0,6/9/2017,0.11,4,1,0,,
44668383,Mom Room,73874178609,unconfirmed,Julio,Brooklyn,Bushwick,40.693909999999995,-73.92469,United States,US,True,strict,Private room,2013,$606 ,$121 ,5,23.0,6/19/2019,0.84,3,4,337,,
44668936,Spacious 2 BR Bedford Stuyvesant Bklyn NY,97658895717,unconfirmed,Alvin,Brooklyn,Bedford-Stuyvesant,40.68932,-73.94098000000001,United States,US,True,flexible,Entire home/apt,2005,$479 ,$96 ,2,77.0,6/24/2019,2.97,1,1,88,,
44669488,"Cute, artsy place in Bed/Stuy",31681438529,verified,Marcus,Brooklyn,Bedford-Stuyvesant,40.69175,-73.94755,United States,US,True,flexible,Entire home/apt,2006,$514 ,$103 ,5,0.0,,,4,1,0,"• Check-in time is 4PM. As me and my roommates are students, we often need to concentrate and study at home, what requires the environment to be quiet and silent. We like to party on the weekends though!",
44670040,"5 minutes from JFK,one single cozy bedroom for one",64622374923,unconfirmed,Kevin,Queens,Jamaica,40.68073,-73.78354,United States,US,False,moderate,Private room,2013,$622 ,$124 ,1,336.0,7/5/2019,11.91,3,2,345,No smoking in the bedroom. Smoking is allowed on the back porch.,
44670592,ROSA 'S Private Entrance,17566439409,unconfirmed,Julio,Brooklyn,Bushwick,40.695159999999994,-73.92258000000001,United States,US,True,strict,Private room,2014,$640 ,$128 ,5,32.0,5/21/2019,1.14,4,4,350,,
44671145,Cozy & Private Bedroom only 30-35 min to Manhattan,19341426991,unconfirmed,Luis,Brooklyn,Bedford-Stuyvesant,40.67989,-73.90857,United States,US,True,strict,Private room,2010,$972 ,$194 ,1,102.0,6/24/2019,3.66,5,3,121,"Absolutely no smoking is permitted. Unfortunately no cats because I'm allergic. You may come and go as you please as long as you're staying here and are expected to keep a clean living space (kitchen, bathroom, etc.).",
44671697,Creative Loft Space (Huge) in Great Location,40106661717,unconfirmed,Catherine,Brooklyn,Prospect Heights,40.68006,-73.97248,United States,US,True,flexible,Private room,2016,$552 ,$110 ,1,4.0,4/7/2018,0.15,1,1,0,"Never any smoking of any kind in the apartment or building! Leave the apartment in a respectful state of tidiness upon leaving.  Wet towels should be hung in the shower/tub, trash taken out. Please check first about bringing pets (typically discouraged). Please keep reasonably quiet!   Sheets, towels and other cleaning are done by me.  I do these things at different times.  Always before dinner time (or before you arrive it's a really late arrival). Probably before 3pm, during the school year at about 1pm usually. In the dead of winter, esp. if there is a lot of snow there may be delays.  If you have really specific needs, you should speak up ahead of time.  NOTE although i do try to keep the apartments stocked with toilet paper and soap i do not make additional trips to the apartments to replenish them. Try to sort out recycling, take out recycling/ trash to the alley bins if you can.  Do not leave trash laying around, especially outside. Please communicate, communicate, communicate. ",
44672249,LARGE ROOM IN HEART OF NYC (CHELSEA / FLATIRON),94245033507,verified,Teri,Manhattan,Chelsea,40.74525,-73.99229,United States,US,True,moderate,Private room,2021,$594 ,$119 ,1,1.0,3/31/2017,0.04,1,2,0,,
44672802,Lovely 2-bedroom 1bath in Chinatown & Little Italy,60146973708,unconfirmed,Carmen,Manhattan,Chinatown,40.71463,-73.99658000000001,United States,US,False,strict,Entire home/apt,2016,$452 ,$90 ,1,146.0,6/24/2019,5.28,3,1,212,"Be thoughtful and considerate! Be kind to the space and place things back in their place after use.  It is a shoe-free apartment; please use the shoe racks and freely borrow the in-door slippers if you need one. Please ask before bringing visitors, and sorry I can only allow the number of guest on the reservation to stay overnight.  Please No smoking anywhere (even on the balcony) and No pets; I am allergic to both! But most importantly feel at home :).",
44673354,Gorgeous bedroom 8mins-JFK&the mall,6032349870,verified,Yvonne,Queens,Jamaica,40.687870000000004,-73.78843,United States,US,True,flexible,Private room,2003,"$1,069 ",$214 ,1,129.0,6/23/2019,5.19,4,3,180,No pets allowed. No smoking inside the house. Maintain cleanliness.,
44673906,Beautiful home minutes to Manhattan,66986952262,unconfirmed,Olivera,Queens,Sunnyside,40.74176,-73.92399999999999,United States,US,True,moderate,Entire home/apt,2020,"$1,071 ",$214 ,30,6.0,9/8/2018,0.22,3,1,45,"I expect guests to be neat, reasonably quiet and respectful especially when using shared spaces of my home. Please no pets or smoking on the property. Before booking, please take care to thoroughly complete your profile, including a photo. I live alone and like to have a feel for  who my guests are before welcoming them into my home. The apartment is open to Airbnb guests only. No overnight guests please.",
44674459,SOHA 2 bedroom Beauty! Sleeps 5,26174606905,unconfirmed,Julian,Manhattan,Harlem,40.80859,-73.94216,United States,US,False,flexible,Entire home/apt,2014,$740 ,$148 ,3,61.0,8/3/2018,2.21,1,1,62,,
44675011,"Entire Huge 1 bd Apartment, Brooklyn Living",90520929242,unconfirmed,Jonathan,Brooklyn,Crown Heights,40.663909999999994,-73.93551,United States,US,True,moderate,Entire home/apt,2018,$584 ,$117 ,4,66.0,6/3/2019,2.35,4,1,0,NO Smoking.,
44675563,One Bedroom In New Luxury Building,52241568556,unconfirmed,Sam,Brooklyn,Gowanus,40.67873,-73.98976,United States,US,False,strict,Entire home/apt,2022,$406 ,$81 ,1,3.0,9/17/2017,0.11,1,1,0,,
44676115,Cozy 2 Bedroom,21083160205,verified,Marta,Manhattan,Upper East Side,40.78172,-73.94827,United States,US,True,strict,Entire home/apt,2007,$845 ,$169 ,3,62.0,6/20/2019,2.27,1,1,234,NO Smoking.,
44676668,Fantastic Studio in Brooklyn's core,76018995487,unconfirmed,Jae,Brooklyn,Fort Greene,40.68773,-73.97901999999999,United States,US,True,moderate,Entire home/apt,2018,"$1,154 ",$231 ,2,15.0,6/10/2018,0.62,4,1,66,,
44677220,"*SPECIAL*
COZY WATERFRONT APARTMENT 
•SUPERHOST•",46904241763,unconfirmed,Steve Kings,Queens,Ditmars Steinway,40.78304,-73.91783000000001,United States,US,True,flexible,Entire home/apt,2014,$729 ,$146 ,3,68.0,7/5/2019,2.47,2,1,299,"不要恶意破坏家具,不能过于吵闹影响他人生活。这里不是度假村或是轰趴馆,只是提供舒适的休息场所。",
44677772,Bright West Village Retreat,12425449376,unconfirmed,Cat,Manhattan,West Village,40.734140000000004,-74.00001,United States,US,True,strict,Entire home/apt,2006,$83 ,$17 ,3,12.0,9/25/2017,0.43,3,1,0,"No smoking, drugs, alcohol or pets allowed in the property, including the balcony. No overnight guests or parties.",
44678325,LOFTY 3 BEDROOMS DUPLEX 30MN FROM DOWNTOWN,73380415894,unconfirmed,Samira,Brooklyn,Bay Ridge,40.62645,-74.02888,United States,US,False,flexible,Entire home/apt,2014,$156 ,$31 ,20,0.0,,,3,1,46,,
44678877,Bahia Brazil Vibe - Entire apt,97099367870,verified,Miralva,Brooklyn,Flatbush,40.65218,-73.96193000000001,United States,US,False,flexible,Entire home/apt,2017,"$1,195 ",$239 ,3,26.0,7/1/2019,1.09,2,2,161,"No smoking, no pets. Rest of the house is a mix of classical and jazz musicians, so bring your instrument if you want to jam.",
44679429,Prospect Park Apt 20 min to Soho 5 min from Trains,53367228377,unconfirmed,Mo,Brooklyn,Prospect-Lefferts Gardens,40.65802,-73.95595,United States,US,True,flexible,Entire home/apt,2006,$420 ,$84 ,1,38.0,6/17/2018,1.34,5,1,0,"Please remember that this is a residential building. The building rules, apartment occupancy restrictions and the year-round tenants must be respected.",
44679982,Private Room in Brooklyn Brownstone,55575465982,unconfirmed,Hallie,Brooklyn,Bedford-Stuyvesant,40.68119,-73.93722,United States,US,False,strict,Private room,2014,$51 ,$10 ,2,2.0,3/29/2017,0.07,2,1,0,,
44680534,Cozy 2 Bedroom (Train L or M),86232554770,verified,Albertina,Queens,Ridgewood,40.702,-73.89768000000001,United States,US,True,moderate,Entire home/apt,2011,"$1,152 ",$230 ,3,10.0,5/28/2019,0.37,5,1,16,"Please keep kitchen clean. Make sure porch door is always locked when not in use. Central AC temperature must stay above 70 degrees When checking out, please leave keys on the desk provided in the room. Do not have to worry about locking the door on the way out.",
44681086,Brooklyn Style!,46319777509,verified,Tina,Brooklyn,Flatbush,40.64847,-73.96132,United States,US,False,flexible,Entire home/apt,2020,$232 ,$46 ,31,2.0,3/25/2018,0.07,1,1,41,#NAME?,
44681638,Convenience and Privacy in this shared apartment,22423027475,verified,David,Manhattan,Upper East Side,40.77414,-73.94643,United States,US,False,moderate,Private room,2012,$430 ,$86 ,30,4.0,5/27/2019,0.3,4,10,99,"No Smoking,  Respect for other guests and neighbors.  Well behaved children only.  Limit noise after 10pm.  Please do dishes/run dishwasher prior to departure.   Parking is available on Linwood and Gardner streets 24 hours.    No parking is permitted on Centre Place.",
44682191,Private Sunny Room with Private Bathroom,97405214908,verified,Miranda,Queens,Ridgewood,40.70013,-73.90077,United States,US,True,strict,Private room,2018,$787 ,$157 ,2,9.0,7/30/2017,0.32,2,1,0,,
44682743,Coney Island Private Assembly  Special Events,20131458793,unconfirmed,Ed,Brooklyn,Coney Island,40.57577,-73.98553000000001,United States,US,True,moderate,Entire home/apt,2011,$920 ,$184 ,1,5.0,6/23/2019,0.42,4,6,364,"No pets please - and no smoking in the apartment.  Other than that, we're flexible! We'll be here to answer any other questions you might have!",
44683295,Coney Island  Amphitheat  MCU 1 br  Wifi Cable **,44972921559,verified,Ed,Brooklyn,Coney Island,40.57582,-73.98576,United States,US,True,flexible,Entire home/apt,2014,$984 ,$197 ,2,68.0,1/27/2019,2.51,1,6,125,,
44683848,Bohemian apt in the heart of Greenwich Village,65784825102,verified,Brandon,Manhattan,Greenwich Village,40.72956,-73.99979,United States,US,True,strict,Entire home/apt,2005,$90 ,$18 ,3,22.0,12/26/2018,0.81,1,2,0,1. No parties. 2. Respect the neighbors. Noise level needs to stay low. 3. Keep feet on the porch when outside. 4. Clean any dishes you use. 5. No smoking ... even on porch. Not a good set up for children (0 - 13).,
44684400,One Room Apartment Next to Columbus Circle,26262607932,verified,Arturo,Manhattan,Hell's Kitchen,40.76699,-73.9848,United States,US,True,strict,Entire home/apt,2019,$398 ,$80 ,1,4.0,3/19/2017,0.14,4,1,0,"1. No additional guests not part of the reservation in the building at all.  2. No Pets 3. No Smoking  4. No Children under 10. (The house is not child proof) 5. Remove your shoes 6. Check in is 3-11pm  7. Check out is 10am  *early check in or late check out must be arranged before the reservation starts and may not be accommodated* 8. The bathroom is a shared space, keep the sink clear, there is limited room for your bath products in the shower. 9. No Parties",
44684952,Unique Prime Location NYC  Sleeps 6,21277016785,unconfirmed,Dina,Manhattan,Flatiron District,40.74074,-73.98573,United States,US,False,flexible,Entire home/apt,2009,$196 ,$39 ,3,90.0,6/18/2019,3.21,3,1,194,"Please be mindful of others, no loud music and please be clean and keep the place in great condition, as you found it. Any question  or problem, or immediate need you may have, please send me a message or call me, and I would solve it ASAP.",
44685505,BEST VALUE! SUPER COSY APARTMENT,42926292852,unconfirmed,Martine,Manhattan,Upper East Side,40.776990000000005,-73.95193,United States,US,False,moderate,Private room,2012,$355 ,$71 ,9,3.0,9/20/2017,0.11,5,1,0,"No pets, please - and definitely no smoking. Be nice to furniture and posessions - since this is a house that actually gets lived in, they're mostly pretty important to me, rather than just knicknacks.  Read the books, don't break spines! Don't put the pots and pans or cast iron skillets in the dishwasher!  You know, the basics :)",
44686057,Cozy private room in Brooklyn Heights,19874585020,unconfirmed,Colette,Brooklyn,Cobble Hill,40.68934,-73.99438,United States,US,False,flexible,Private room,2013,$928 ,$186 ,1,3.0,3/27/2017,0.11,2,1,0,Must be 21 to book No loud music No parties No smoking No pets,
44686609,Lovely room in the heart of Williamsburg,43792558503,unconfirmed,Francesca,Brooklyn,Williamsburg,40.710640000000005,-73.96497,United States,US,True,moderate,Private room,2022,$737 ,$147 ,2,0.0,,,4,1,0,,
44687161,Mels Manhattan Home,56872290569,verified,Melissa,Manhattan,Chelsea,40.737559999999995,-73.99110999999999,United States,US,True,moderate,Entire home/apt,2020,"$1,013 ",$203 ,4,5.0,12/30/2017,0.18,1,1,0,"Please remember that this is a residential building. The building rules, apartment occupancy restrictions and the year-round tenants must be respected.",
44687714,SPACIOUS BEDROOM PARK SLOPE BROOKLYN,9740372933,unconfirmed,Erik,Brooklyn,Park Slope,40.66713,-73.98155,United States,US,False,flexible,Private room,2011,$514 ,$103 ,1,86.0,7/1/2019,3.14,5,1,117,,
44688266,"Private room & living room, one block from subway.",62203312550,verified,Jackie,Brooklyn,Bedford-Stuyvesant,40.68187,-73.94589,United States,US,True,moderate,Private room,2006,$412 ,$82 ,1,3.0,12/16/2017,0.16,2,1,0,"You're welcome to enjoy all of the amenities of the space.  I do ask that you keep your personal belongings in the bedroom area, so as to keep the common areas clean for all to enjoy.  There's no curfew!  Come and go as you like, but be respectful in the wee hours of the morning or night please. Liability Waiver: If you decide to stay here, you assume responsibility for yourself and your guests for personal injury and property loss/damage. You agree to indemnify/hold harmless the tenant (Christina Marie), landlord and property management company from any loss, liability, damage or cost incurred by you or your guests related to your stay at this apartment. By agreeing to stay here, you are giving up any rights to bring a legal action or assert a claim against the tentant/landlord/ property management.",
44688818,Comfy Room,81643742465,unconfirmed,Jeremiah,Brooklyn,Crown Heights,40.6727,-73.95505,United States,US,True,flexible,Private room,2010,$92 ,$18 ,4,0.0,,,2,1,0,- Please clean after yourself. Do not leave dishes and personal items in the common area such as the kitchen and Bathroom - Please do not bring guest over - Please don't play loud music,
44689371,COZY Large Private APARTMENT in EAST VILLAGE,52279761630,unconfirmed,Luna,Manhattan,East Village,40.72588,-73.98598,United States,US,False,strict,Entire home/apt,2003,$878 ,$176 ,6,22.0,5/24/2019,0.87,2,1,15,"No Smoking, No Pets",
44689923,Lovely APT in the Heart of Bushwick!,1595545521,verified,Andy,Brooklyn,Bushwick,40.7012,-73.92876,United States,US,True,strict,Entire home/apt,2007,$210 ,$42 ,3,0.0,,,2,2,0,,
44690475,Vintage Rainbow Room,38573048288,verified,Ebony,Brooklyn,Flatbush,40.6514,-73.9616,United States,US,False,moderate,Private room,2016,$118 ,$24 ,3,25.0,6/30/2019,1.78,4,1,3,,
44691028,"Gorgeous condo 20min from NYC,close to the airport",98532192044,verified,Arthur,Queens,Rego Park,40.72999,-73.86043000000001,United States,US,False,strict,Entire home/apt,2008,$994 ,$199 ,2,67.0,7/1/2019,2.58,5,1,278,"1. Be respectful of me and my home 2. No Pets 3. No Smoking  4. No Children under 10. (The house is not child proof) 5. Remove your shoes 6. Check in is 3-11pm  7. Check out is 10am  *early check in or late check out must be arranged before the reservation starts and may not be accommodated* 8. The bathroom is a shared space, keep the sink clear, there is limited room for your bath products in the shower.",
44691580,Cozy room in a 2B with backyard access,89094363199,verified,Cristina,Queens,Astoria,40.769870000000004,-73.92679,United States,US,True,strict,Private room,2018,$822 ,$164 ,1,9.0,4/25/2019,0.91,3,1,0,I have other roommates so be respectful of that.,
44692132,An East Williamsburg Delight,84410281036,unconfirmed,Petra,Brooklyn,Bedford-Stuyvesant,40.68335,-73.91221999999999,United States,US,True,moderate,Private room,2015,$455 ,$91 ,4,36.0,6/27/2018,1.28,1,1,0,,
44692684,Cozy bedroom in williamsburg,2080678766,unconfirmed,Russell,Brooklyn,Williamsburg,40.7087,-73.9671,United States,US,False,flexible,Private room,2020,"$1,078 ",$216 ,1,58.0,6/10/2019,2.08,5,2,120,- $150 Pet Fee - 14.45% Tax Will be adjusted into price once confirmed!,
44693237,Spacious Room w/ 2 Bed,94133556243,unconfirmed,Christine,Queens,Bayside,40.75047,-73.75349,United States,US,True,flexible,Private room,2007,$103 ,$21 ,7,40.0,6/23/2019,1.51,1,5,148,,
44693789,Artsy Private Room in LIC. 2 min walk to Subway.,55201118372,verified,Lunara,Queens,Long Island City,40.741170000000004,-73.94904,United States,US,True,flexible,Private room,2012,$303 ,$61 ,5,17.0,6/9/2019,0.61,1,1,112,,
44694341,Astoria's private room,29141891757,unconfirmed,Dalva,Queens,Long Island City,40.75566,-73.9205,United States,US,True,flexible,Private room,2014,$764 ,$153 ,1,0.0,,,1,1,0,"Please remember that this is a residential building. The building rules, apartment occupancy restrictions and the year-round tenants must be respected.",
44694894,rooms in sunny Loft right off the Bedford L stop,20022774992,verified,Anna,Brooklyn,Williamsburg,40.716120000000004,-73.95983000000001,United States,US,True,strict,Private room,2009,$138 ,$28 ,22,0.0,,,4,2,0,"In the kitchen the primary thing would be to wash your own dishes and clean up after yourself. We don't usually use shoes in the house, we can provide you with slippers or you might want to bring some. Its not a problem if you have to use orthopedic shoes. The bathroom is clean and we want folks to hang up your towels,either in your room or in the bathroom, and not leave the floor wet. We are not a loud house at night. Alcohol is fine so long as you aren't bent on getting drunk. And please no smoking inside, we have plenty of space outdoors for that. If you are here by yourselves for more than 3-4 days we may ask you to water the house plants. We ask that you recycle all pertinent trash and compost your food scraps, if you're not familiar with that we'll be happy to show you our system. No outdoor fires allowed if we are not present. Check in time is best at 3 PM and check out is at noon.",
44695446,Private Room in Brooklyn Communal House,12004754082,verified,Emma,Brooklyn,Bedford-Stuyvesant,40.67964,-73.95629,United States,US,True,strict,Private room,2003,"$1,073 ",$215 ,2,16.0,10/21/2017,0.57,4,3,0,,
44695998,Bx Apartment,19946304668,verified,Vii,Bronx,Olinville,40.88438,-73.86397,United States,US,False,moderate,Private room,2008,$531 ,$106 ,1,0.0,,,3,1,0,#NAME?,
44696551,HUGE BEDROOM LORIMER L TRAIN!!!,37370303236,unconfirmed,Jose,Brooklyn,Williamsburg,40.71355,-73.95003,United States,US,True,strict,Private room,2016,$570 ,$114 ,28,17.0,4/30/2019,0.61,1,6,229,No smoking,
44697103,Spacious two bedrooms condo in upper Manhattan,26979157900,unconfirmed,Max,Manhattan,Inwood,40.86461,-73.92363,United States,US,True,moderate,Entire home/apt,2003,$665 ,$133 ,2,49.0,5/23/2019,1.81,1,3,147,,
44697655,"Room in Queens, NY, near LGA.",53493521461,unconfirmed,Sonia,Queens,East Elmhurst,40.76245,-73.87938,United States,US,True,moderate,Private room,2022,$982 ,$196 ,1,239.0,6/29/2019,8.58,2,2,361,"1. Please clean-up after yourself in the kitchen and keep the living room tidy. 2. Since we go to work/school, please avoid loud noises after 11pm during weekdays.  3. Important: To ensure everyone's safety, guest will be charged the full fee of changing the door knob if key is lost/stolen",
44698207,Cozy home away from home,40990023934,unconfirmed,Linelle,Queens,Edgemere,40.5938,-73.77373,United States,US,False,strict,Private room,2020,$946 ,$189 ,1,76.0,6/27/2019,2.84,1,1,324,,
44698760,Central Park Views - Private Room & Bathroom,5831114091,verified,Paul,Manhattan,Upper West Side,40.79712,-73.96117,United States,US,False,strict,Private room,2012,$706 ,$141 ,1,4.0,8/15/2017,0.14,4,1,0,"My roommates and I take a lot of pride in keeping the house clean and tidy, particularly the common areas. If you plan on staying for more than a couple weeks, all the cleaning supplies under the kitchen sink and a vacuum are at your disposal :) No pets and no smoking please.",
