id,NAME,host id,host_identity_verified,host name,neighbourhood group,neighbourhood,lat,long,country,country code,instant_bookable,cancellation_policy,room type,Construction year,price,service fee,minimum nights,number of reviews,last review,reviews per month,review rate number,calculated host listings count,availability 365,house_rules,license
31488296,New Room Near Manhattan FREE Breakfast,8498961665,verified,Vinicius,Queens,Ditmars Steinway,40.77605,-73.90871,United States,US,False,strict,Private room,2007,$530 ,$106 ,2,12,2/7/2022,3.05,4,5,150,,
31488848,Classic Room Shared Bath - Furnished Studio Rental,64673811533,verified,Esplanade 99,Manhattan,Upper West Side,40.79684,-73.96993,United States,US,True,moderate,Private room,2006,$899 ,$180 ,30,1,2/7/2022,1.0,4,24,116,,
31489401,"Lovely, quaint studio in prime crown heights",29995783509,verified,Sen-I,Brooklyn,Crown Heights,40.67558,-73.95035,United States,US,True,moderate,Entire home/apt,2014,$205 ,$41 ,2,4,2/7/2022,1.25,4,1,3,,
31489953,Lovely 3 bedroom condo to share on the UES,96441958042,verified,Ella,Manhattan,East Harlem,40.78665,-73.94124000000001,United States,US,True,strict,Private room,2012,$869 ,$174 ,3,5,2/7/2022,1.53,3,2,353,,
31490505,"Modern, fully equipped, 2 bedrm  condo in Brooklyn",70237277201,unconfirmed,Henley,Brooklyn,Bedford-Stuyvesant,40.68951,-73.94313000000001,United States,US,True,flexible,Entire home/apt,2018,$406 ,$81 ,1,2,2/7/2022,0.98,3,1,125,,
31491058,Upper East Side Apartments Studio Monthly Rentals,76909435337,verified,CorpHousing,Manhattan,Upper East Side,40.76945,-73.95429,United States,US,True,moderate,Entire home/apt,2017,$263 ,$53 ,30,1,2/7/2022,1.0,5,48,217,,
31491610,Private Apartment/ Shared Bathroom 815,55894926016,unconfirmed,Raquel,Manhattan,Midtown,40.74622,-73.98725999999999,United States,US,True,flexible,Private room,2010,$426 ,$85 ,1,1,2/7/2022,1.0,3,53,71,,
31492162,Village Monthly Rentals Three Bedroom,55603794297,unconfirmed,CorpHousing,Manhattan,West Village,40.7337,-74.007,United States,US,False,flexible,Entire home/apt,2022,$797 ,$159 ,30,1,2/7/2022,1.0,2,48,276,,
31492714,Private Apartment/ Shared Bathroom 619,78763331697,verified,Raquel,Manhattan,Midtown,40.7461,-73.9885,United States,US,False,moderate,Private room,2010,$814 ,$163 ,1,1,2/7/2022,1.0,4,53,80,,
31493267,Perfect Room to Stay in Brooklyn! Near Metro!,27080306739,unconfirmed,Carlos,Brooklyn,Bedford-Stuyvesant,40.6788,-73.9107,United States,US,True,strict,Private room,2013,$299 ,$60 ,1,13,2/7/2022,4.33,4,8,180,,
31493819,Woodhaven suite near  the Forest Park,52002233935,unconfirmed,Rosie,Queens,Woodhaven,40.694379999999995,-73.85424,United States,US,True,strict,Private room,2008,$343 ,$69 ,2,1,2/7/2022,1.0,5,1,90,,
31494371,‚òØ Centrally Located Crash Pad Next Door To Subway,45972770014,unconfirmed,Gurj,Brooklyn,Clinton Hill,40.68789,-73.96083,United States,US,True,flexible,Shared room,2014,$65 ,$13 ,3,3,2/7/2022,1.22,2,16,341,,
31494924,Cozy  and chill bedroom at East Brooklyn.,69343288146,unconfirmed,Manuela,Brooklyn,Crown Heights,40.671859999999995,-73.91539,United States,US,True,strict,Private room,2022,$952 ,$190 ,2,1,2/7/2022,1.0,3,1,100,,
31495476,MACDOUGAL 1 - HUGE NEW BEAUTIFUL MODERN ROOM,23284376761,verified,Gerardo,Brooklyn,Bedford-Stuyvesant,40.68116,-73.90799,United States,US,False,moderate,Private room,2020,$732 ,$146 ,1,2,2/7/2022,1.76,2,5,88,,
31496028,Brand New Sunny Artist Loft Studio in Bushwick,3739551859,verified,Yelle,Brooklyn,Bushwick,40.70259,-73.92709,United States,US,True,strict,Entire home/apt,2019,$368 ,$74 ,30,1,2/7/2022,1.0,2,4,70,,
31496581,cozy get away in broadway #410,69380191882,unconfirmed,Raquel,Manhattan,Midtown,40.7465,-73.98899,United States,US,False,flexible,Private room,2009,$740 ,$148 ,1,1,2/7/2022,1.0,2,53,75,,
31497133,Very Comfortable Room in Brooklyn! Near metro!,96956251907,verified,Maria,Brooklyn,Bushwick,40.687540000000006,-73.90765,United States,US,False,flexible,Private room,2017,$964 ,$193 ,1,1,2/7/2022,1.0,2,21,179,,
31497685,Private room in Brooklyn! Great for travelers!,44858556510,unconfirmed,Bernard,Brooklyn,Crown Heights,40.67255,-73.92371999999999,United States,US,True,moderate,Private room,2011,$329 ,$66 ,1,1,2/7/2022,1.0,4,5,179,,
31498237,Lovely 2 Brooklyn apartment in Brooklyn.,37837327346,verified,Barbara,Brooklyn,Flatbush,40.63385,-73.95251,United States,US,True,moderate,Entire home/apt,2011,$624 ,$125 ,1,1,2/7/2022,1.0,5,1,363,,
31498790,SELF CHECK IN PRIVATE ROOM!!!,17979131675,unconfirmed,Brenda,Queens,Ditmars Steinway,40.772690000000004,-73.91022,United States,US,False,moderate,Private room,2012,"$1,055 ",$211 ,1,1,2/7/2022,1.0,5,28,362,,
31499342,"Comfortable, Sunny Room",72117125710,unconfirmed,Chris,Brooklyn,Clinton Hill,40.68292,-73.96381,United States,US,True,moderate,Private room,2004,"$1,199 ",$240 ,3,301,2/6/2022,2.1,3,1,278,,
31499894,"Sunlit 1 bedroom apt: Williamsburg, Brooklyn",75535109868,unconfirmed,Daniela,Brooklyn,Williamsburg,40.71584,-73.96355,United States,US,False,moderate,Entire home/apt,2007,$910 ,$182 ,30,19,2/6/2022,0.15,2,1,0,,
31500447,"Private,Affordable, 20 min to NYC!",26152374041,unconfirmed,Joris,Queens,Ridgewood,40.699,-73.90295,United States,US,True,strict,Entire home/apt,2020,$319 ,$64 ,30,327,2/6/2022,2.73,5,1,122,,
31500999,"Charming Apt off Bleecker, First Fl",6136245148,unconfirmed,Evelyn,Manhattan,West Village,40.73277,-74.00267,United States,US,False,flexible,Entire home/apt,2003,$804 ,$161 ,1,272,2/6/2022,2.41,4,5,22,,
31501551,IDEAL AREA! 5star! LARGE btfl room over garden,98034042117,verified,Mitty,Brooklyn,Prospect Heights,40.67917,-73.97095999999999,United States,US,True,moderate,Private room,2011,$471 ,$94 ,2,93,2/6/2022,0.85,4,3,72,,
31502104,Charming Bright 2BR apt- sleeps 6,23431359818,verified,Dikla,Brooklyn,DUMBO,40.70218,-73.98719,United States,US,False,flexible,Entire home/apt,2004,$908 ,$182 ,2,308,2/6/2022,2.83,3,2,239,,
31502656,KING Bed - Private Bathroom & Kitchen,57560612289,verified,Deb,Brooklyn,Prospect-Lefferts Gardens,40.66359,-73.95521,United States,US,False,strict,Private room,2019,$728 ,$146 ,5,22,2/6/2022,0.6,4,3,84,,
31503208,"Hosting 2 Bedrms, Private Bath in 3 Bdrm Prewar",76759280526,unconfirmed,Jamie,Manhattan,Midtown,40.76267,-73.97997,United States,US,True,strict,Private room,2019,$423 ,$85 ,3,36,2/6/2022,0.84,2,3,170,,
31503760,East Village Charm,87116833090,verified,Doug,Manhattan,East Village,40.729009999999995,-73.98437,United States,US,True,moderate,Private room,2020,$881 ,$176 ,2,193,2/6/2022,1.99,3,1,81,,
31504313,"Relaxing Apt w vibe, off Park, near Dwntn & Trains",36471919742,unconfirmed,Kevin,Brooklyn,Brownsville,40.66771,-73.92333,United States,US,True,flexible,Entire home/apt,2010,$956 ,$191 ,2,229,2/6/2022,2.49,5,1,174,,
31504865,Mid-Century Modern Garden Paradise,1667767728,verified,Carmia And Joe,Brooklyn,Bedford-Stuyvesant,40.68217,-73.91003,United States,US,True,flexible,Entire home/apt,2005,"$1,193 ",$239 ,30,285,2/6/2022,3.08,5,1,198,,
31505417,The Coziest Cove in Queens | Home Away From Home!,28368056179,verified,Hector Sr,Queens,Elmhurst,40.74674,-73.88593,United States,US,True,flexible,Entire home/apt,2017,$341 ,$68 ,4,188,2/6/2022,2.06,2,3,260,,
31505970,Our home is your home.(Vegetarian),71441812819,verified,Mindy (...And I'M Jeff),Queens,Fresh Meadows,40.73158,-73.78746,United States,US,False,strict,Entire home/apt,2007,$96 ,$19 ,5,36,2/6/2022,0.46,3,1,364,,
31506522,Sun-filled Brownstone in Brooklyn,67637381736,unconfirmed,Gagandeep,Brooklyn,Park Slope,40.67605,-73.97166999999999,United States,US,True,flexible,Entire home/apt,2022,$899 ,$180 ,2,198,2/6/2022,2.36,5,1,39,,
31507074,Caribbean Retreat in the heart of Brooklyn,80079348909,verified,Everol,Brooklyn,East Flatbush,40.642720000000004,-73.94819,United States,US,False,moderate,Entire home/apt,2018,$588 ,$118 ,2,41,2/6/2022,1.19,3,1,26,,
31507627,LaGuardia Room(2) with Private Entrance,65243756241,verified,Laura,Queens,East Elmhurst,40.759209999999996,-73.8758,United States,US,True,moderate,Private room,2009,$763 ,$153 ,1,269,2/6/2022,3.43,5,2,39,,
31508179,Private Man Cave Get Away,22394949702,verified,Dennis,Bronx,Wakefield,40.907540000000004,-73.84588000000001,United States,US,False,flexible,Entire home/apt,2020,$739 ,$148 ,1,222,2/6/2022,2.88,5,1,352,,
31508731,NOLITA Amazing & Spacious,24238048957,unconfirmed,Gary,Manhattan,Nolita,40.723040000000005,-73.99339,United States,US,True,flexible,Entire home/apt,2014,$756 ,$151 ,2,250,2/6/2022,3.33,4,1,163,,
31509283,Adrian's Place: Cozy 1br mins from JFK w/ 55' TV,90532420840,unconfirmed,Adrian,Queens,St. Albans,40.69798,-73.74959,United States,US,True,strict,Private room,2015,$305 ,$61 ,2,80,2/6/2022,1.35,2,1,175,,
31509836,Family Friendly Brooklyn Gem,77224225460,unconfirmed,Evan,Brooklyn,Bedford-Stuyvesant,40.67819,-73.92447,United States,US,True,flexible,Entire home/apt,2021,$479 ,$96 ,2,15,2/6/2022,0.36,5,1,94,,
31510388,Purple room,56687216782,verified,Zsofia,Queens,Maspeth,40.71897,-73.90467,United States,US,False,moderate,Private room,2013,$663 ,$133 ,30,35,2/6/2022,0.53,4,3,320,,
31510940,Duplex - 2 bedrooms in the west village & Backyard,82114416560,verified,Jay,Manhattan,Greenwich Village,40.72998,-74.00157,United States,US,False,flexible,Entire home/apt,2012,$967 ,$193 ,2,58,2/6/2022,1.23,2,1,257,,
31511493,145 Mulberry-Spacious Alcove Studio,40377066071,unconfirmed,Jeniffer,Manhattan,Little Italy,40.718990000000005,-73.99773,United States,US,True,strict,Entire home/apt,2006,$541 ,$108 ,30,9,2/6/2022,0.15,5,186,308,,
31512045,Cozy bedroom in williamsburg,71170939039,verified,Russell,Brooklyn,Williamsburg,40.7089,-73.96561,United States,US,False,strict,Private room,2005,$939 ,$188 ,1,159,2/6/2022,2.64,5,2,110,,
31512597,"Central Location, 1 Block from Subway, Great Price",73896293532,unconfirmed,Mira,Brooklyn,Bedford-Stuyvesant,40.68931,-73.95636,United States,US,True,strict,Private room,2021,$301 ,$60 ,2,253,2/6/2022,4.42,4,4,154,,
31513150,The Peach Room,55655737015,verified,Denise,Brooklyn,Crown Heights,40.67222,-73.93028000000001,United States,US,False,strict,Private room,2021,$269 ,$54 ,30,27,2/6/2022,0.49,5,7,247,,
31513702,Soulful minipenthouse perched over East Village,52303386771,verified,Thomas,Manhattan,East Village,40.7281,-73.97832,United States,US,False,moderate,Private room,2012,$640 ,$128 ,30,148,2/6/2022,2.75,3,1,142,,
31514254,Private Williamsburg apartment,8098825154,unconfirmed,Besnik,Brooklyn,Williamsburg,40.71333,-73.94055,United States,US,False,flexible,Entire home/apt,2022,$193 ,$39 ,1,349,2/6/2022,6.72,2,1,154,,
31514806,2 bedroom in a prewar building,21376792172,unconfirmed,Thikshan,Manhattan,Gramercy,40.736509999999996,-73.98108,United States,US,False,strict,Entire home/apt,2009,$582 ,$116 ,2,48,2/6/2022,0.97,5,2,8,,
31515359,Cozy studio with a fireplace close to the train,10580747409,unconfirmed,Katya,Bronx,Pelham Bay,40.8524,-73.83435,United States,US,False,moderate,Entire home/apt,2022,$773 ,$155 ,30,96,2/6/2022,1.97,4,1,53,,
31515911,Two bedroom apartment in Brooklyn/Bed Stuy,69984852744,verified,Hp,Brooklyn,Bedford-Stuyvesant,40.679959999999994,-73.91059,United States,US,False,strict,Private room,2021,"$1,170 ",$234 ,2,108,2/6/2022,2.24,5,1,151,,
31516463,Astoria Prime,57164736482,unconfirmed,Jay,Queens,Astoria,40.77238,-73.92517,United States,US,True,strict,Entire home/apt,2005,"$1,089 ",$218 ,1,162,2/6/2022,3.37,2,2,283,,
31517016,Sweet Lower Manhattan/Tribeca Loft Suite,17057521302,verified,J.,Manhattan,Tribeca,40.71745,-74.00385,United States,US,False,flexible,Entire home/apt,2006,$135 ,$27 ,21,10,2/6/2022,0.23,4,3,100,,
31517568,Bedroom & Private Bathroom in Brooklyn!,7106360549,verified,Tami,Brooklyn,East Flatbush,40.64738,-73.95091,United States,US,False,moderate,Private room,2021,$285 ,$57 ,1,96,2/6/2022,2.26,4,2,314,,
31518120,"Studio by the park, 30 min to Manhattan",52581552750,verified,Katya,Brooklyn,Prospect-Lefferts Gardens,40.65644,-73.9587,United States,US,False,flexible,Entire home/apt,2018,$902 ,$180 ,2,5,2/6/2022,0.13,2,3,0,,
31518673,DELIGHTFUL PRIVATE ROOM- BY 3 METROS- WILLIAMSBURG,40417299132,unconfirmed,Nova & Marianne,Brooklyn,Williamsburg,40.70942,-73.94403,United States,US,True,strict,Private room,2010,$822 ,$164 ,2,88,2/6/2022,2.01,3,5,344,,
31519225,3BR/2.5BTH Modern Brownstone Duplex w Terrace,28571630250,verified,James & Lisa,Brooklyn,Bedford-Stuyvesant,40.68762,-73.94259,United States,US,False,flexible,Entire home/apt,2006,$648 ,$130 ,30,56,2/6/2022,1.34,3,1,43,,
31519777,"Sunny, Modern Williamsburg Condo Steps from Train",85132097444,unconfirmed,John,Brooklyn,Williamsburg,40.71557,-73.95039,United States,US,True,flexible,Entire home/apt,2019,$59 ,$12 ,30,46,2/6/2022,1.19,3,1,77,,
31520329,Clean and spacious three bedrooms apartment,20497753740,verified,Ellouise,Staten Island,Randall Manor,40.62912,-74.12839,United States,US,False,flexible,Entire home/apt,2014,$236 ,$47 ,4,96,2/6/2022,2.59,4,1,234,,
31520882,Cozy Duplex Studio 1 Minute to Subway,73069113830,verified,Patnaree,Brooklyn,Bedford-Stuyvesant,40.68995,-73.95578,United States,US,False,flexible,Entire home/apt,2008,"$1,010 ",$202 ,2,162,2/6/2022,4.11,3,7,274,,
31521434,"Entire 2 Bedroom Apartment, Private Entrance",83260013985,unconfirmed,Wendy,Staten Island,Rosebank,40.61572,-74.0671,United States,US,False,flexible,Private room,2016,$537 ,$107 ,1,146,2/6/2022,3.89,4,2,85,,
31521986,Chelsea Artist's Apartment with a Balcony,55055185345,verified,Mark,Manhattan,Chelsea,40.742090000000005,-73.99889,United States,US,False,strict,Entire home/apt,2022,"$1,088 ",$218 ,5,24,2/6/2022,2.59,4,1,70,,
31522539,Bright room with Open Terrace 3min walk to Subway,17555378625,verified,Momoyo,Queens,Elmhurst,40.73871,-73.87765,United States,US,True,flexible,Private room,2013,$533 ,$107 ,30,9,2/6/2022,0.26,2,126,1,,
31523091,Brooklyn charming studio apartment!,48277101269,unconfirmed,James And Laureta,Brooklyn,Bedford-Stuyvesant,40.68355,-73.95402,United States,US,True,moderate,Entire home/apt,2005,$932 ,$186 ,1,120,2/6/2022,3.29,3,7,217,,
31523643,RAVENWOOD: Modern Hipster Retreat in Williamsburg,53305387279,unconfirmed,Collen,Brooklyn,Williamsburg,40.71805,-73.95851,United States,US,True,flexible,Entire home/apt,2021,$141 ,$28 ,3,64,2/6/2022,1.97,5,1,149,,
31524196,Modern 2 bedroom apt in Bushwick,97090387391,unconfirmed,Jianren,Brooklyn,Bushwick,40.69833,-73.92922,United States,US,False,moderate,Entire home/apt,2022,$947 ,$189 ,3,75,2/6/2022,2.14,3,1,279,,
31524748,‚òÜ3-Bedroom Spacious Apartment‚òÜ,3872607274,verified,Hamza,Bronx,Port Morris,40.80097,-73.91421,United States,US,False,flexible,Entire home/apt,2012,"$1,099 ",$220 ,2,69,2/6/2022,1.98,4,3,233,,
31525300,"Master bedroom in a 2BR/2BA, own private bathroom",78687263115,verified,Kaz,Queens,Woodside,40.74642,-73.90791999999999,United States,US,True,flexible,Private room,2006,$145 ,$29 ,30,11,2/6/2022,0.35,5,161,346,,
31525852,City Queen ‚Äì Terrace,14223390235,verified,Arlo SoHo,Manhattan,SoHo,40.7244,-74.00794,United States,US,True,strict,Hotel room,2022,$973 ,$195 ,1,88,2/6/2022,3.88,2,11,106,,
31526405,Tranquil Haven W/Private Bath-8 mins to JFK Rm. #1,8993938087,unconfirmed,Sharon,Queens,Jamaica,40.67204,-73.78085,United States,US,False,moderate,Private room,2019,$537 ,$107 ,1,110,2/6/2022,3.39,4,5,72,,
31526957,"Very close to Subway, Jamaica Hosp, Airtrain, JFK",13279545691,verified,"Sandra, Maria Y Carlos",Queens,Jamaica,40.704029999999996,-73.81526,United States,US,True,moderate,Private room,2009,$498 ,$100 ,2,75,2/6/2022,2.26,2,4,146,,
31527509,LOVELY separate apartment in Bedstuy brownstone.,40423570838,unconfirmed,John,Brooklyn,Bedford-Stuyvesant,40.68144,-73.92116999999999,United States,US,False,strict,Entire home/apt,2004,$754 ,$151 ,3,63,2/6/2022,1.91,4,1,19,,
31528062,Three Bedroom Family Suite- Top Floor w/ Skylight,17169260624,unconfirmed,Nicole,Brooklyn,Canarsie,40.641490000000005,-73.90458000000001,United States,US,False,strict,Entire home/apt,2013,$524 ,$105 ,2,17,2/6/2022,0.52,4,1,350,,
31528614,Sunset in Harlem on Hudson,78840437872,unconfirmed,Sabrina,Manhattan,Harlem,40.82743,-73.95114000000001,United States,US,False,flexible,Private room,2012,$59 ,$12 ,2,28,2/6/2022,0.92,2,1,364,,
31529166,"Close2Manhattan,walk2Shops ferry&subway.Clean NYC!",91534576070,unconfirmed,Anthony,Brooklyn,Sunset Park,40.64608,-74.01433,United States,US,False,moderate,Entire home/apt,2009,$147 ,$29 ,1,131,2/6/2022,4.16,2,1,211,,
31529719,Newly Renovated Space in the Heart of Brooklyn,3069396269,verified,Amy,Brooklyn,Bedford-Stuyvesant,40.68942,-73.92625,United States,US,False,flexible,Entire home/apt,2004,$103 ,$21 ,30,4,2/6/2022,0.79,3,2,235,,
31530271,1600ft TriBeCa Townhouse | Luxury & Spacious,21469534427,verified,Ellen,Manhattan,Tribeca,40.718779999999995,-74.00913,United States,US,True,strict,Entire home/apt,2007,$826 ,$165 ,1,72,2/6/2022,2.61,5,1,345,,
31530823,Love,35180553980,verified,Qiulan,Brooklyn,Borough Park,40.64377,-74.0007,United States,US,True,moderate,Private room,2009,$609 ,$122 ,1,45,2/6/2022,1.45,5,8,365,,
31531375,Huge bohemian loft apartment with garden vibes,75856867673,unconfirmed,Remi,Brooklyn,Williamsburg,40.707159999999995,-73.92815,United States,US,False,flexible,Entire home/apt,2016,$965 ,$193 ,1,241,2/6/2022,7.8,4,1,128,,
31531928,Sonder at One Platt | Spacious Two-Bedroom Apartment,86870381684,unconfirmed,Sonder (NYC),Manhattan,Financial District,40.70657,-74.00491,United States,US,False,moderate,Entire home/apt,2015,$838 ,$168 ,2,155,2/6/2022,5.44,2,54,361,,
31532480,"Big Apple Dreams: quiet, studio hotel apartment",33460962682,verified,Lindsey,Manhattan,Washington Heights,40.834959999999995,-73.93800999999999,United States,US,False,moderate,Entire home/apt,2006,"$1,077 ",$215 ,1,4,2/6/2022,1.24,4,1,90,,
31533032,Comfort zone by hospital,85954073612,unconfirmed,Jessica,Manhattan,Washington Heights,40.845259999999996,-73.9427,United States,US,True,moderate,Private room,2013,$825 ,$165 ,30,3,2/6/2022,0.81,4,2,56,,
31533585,COZY ROOM. GREAT VALUE AND LOCATION2,68081015428,verified,Alex,Brooklyn,East Flatbush,40.63391,-73.94864,United States,US,False,flexible,Private room,2014,$382 ,$76 ,1,106,2/6/2022,3.61,4,7,302,,
31534137,"Locked, private room WITH TV1
BROOKLYN COLLEGE",28431340226,verified,Alex,Brooklyn,East Flatbush,40.63563,-73.94957,United States,US,False,moderate,Private room,2004,$67 ,$13 ,1,73,2/6/2022,2.51,3,7,170,,
31534689,Chooklyn Farms: Private Room in Brooklyn,28422538656,verified,Genevieve,Brooklyn,Fort Greene,40.69357,-73.97124000000001,United States,US,False,moderate,Private room,2016,$323 ,$65 ,1,82,2/6/2022,2.89,2,3,49,,
31535242,2 Bedroom Cozy apartment in a Private house,89960511678,verified,Yoselyn,Bronx,Clason Point,40.81002,-73.85127,United States,US,True,flexible,Entire home/apt,2008,$603 ,$121 ,2,39,2/6/2022,1.42,3,2,350,,
31535794,"Historic Brownstone, Your Private Studio Apartment",70705485169,verified,Marlyn,Manhattan,Harlem,40.80893,-73.95568,United States,US,True,strict,Entire home/apt,2007,$462 ,$92 ,1,25,2/6/2022,0.92,4,1,118,,
31536346,3 Bedroom in Bushwick. Great location!,97201478989,verified,Chomwan,Brooklyn,Bushwick,40.70139,-73.93085,United States,US,False,flexible,Entire home/apt,2003,$993 ,$199 ,30,1,2/6/2022,1.0,2,1,208,,
31536898,The Hawthorne - Spacious 3-Bedroom Apartment,55914672812,verified,Christopher,Brooklyn,Prospect-Lefferts Gardens,40.6571,-73.95195,United States,US,True,strict,Entire home/apt,2019,$674 ,$135 ,2,54,2/6/2022,2.16,5,1,36,,
31537451,The home of love 12,68678538142,unconfirmed,Shu,Brooklyn,Sunset Park,40.644940000000005,-74.00678,United States,US,False,moderate,Private room,2017,$699 ,$140 ,1,32,2/6/2022,1.48,2,8,363,,
31538003,RARE LUX. Private. Elevator Outdoor space Apt. 5,47117445469,unconfirmed,Daniel,Manhattan,Lower East Side,40.71313,-73.98895999999999,United States,US,False,moderate,Entire home/apt,2019,$121 ,$24 ,30,5,2/6/2022,0.51,2,5,74,,
31538555,The modern cave,72870799087,unconfirmed,Ace,Brooklyn,Brownsville,40.66019,-73.91778000000001,United States,US,True,flexible,Entire home/apt,2018,$904 ,$181 ,3,85,2/6/2022,4.09,2,1,171,,
31539108,"amazing, Williamsburg, super clean, prime location",40378816378,verified,Annette,Brooklyn,Williamsburg,40.71314,-73.95666999999999,United States,US,True,strict,Entire home/apt,2017,$239 ,$48 ,30,6,2/6/2022,0.27,5,2,189,,
31539660,138 Bowery-Modern Queen Studio,64721667502,unconfirmed,Jeniffer,Manhattan,Nolita,40.72009,-73.99518,United States,US,True,flexible,Entire home/apt,2021,$878 ,$176 ,15,5,2/6/2022,1.43,3,51,81,,
31540212,138 Bowery-Modern Queen Studio,54944243946,unconfirmed,Jeniffer,Manhattan,Nolita,40.72025,-73.99533000000001,United States,US,False,flexible,Entire home/apt,2013,$294 ,$59 ,15,8,2/6/2022,0.63,4,51,61,,
31540765,138 Bowery-Classic Queen Studio,35752439506,unconfirmed,Jeniffer,Manhattan,Chinatown,40.71864,-73.99561,United States,US,False,moderate,Entire home/apt,2019,$616 ,$123 ,15,23,2/6/2022,1.12,2,51,54,,
31541317,Roomy 1 Bedroom In Fantastic Midtown Location!,37203125784,unconfirmed,Evan,Manhattan,Midtown,40.75118,-73.9709,United States,US,True,flexible,Entire home/apt,2007,$67 ,$13 ,3,68,2/6/2022,3.15,3,1,126,,
31541869,A+ Location City Studio (2 Double beds & Kitchen),31294929690,unconfirmed,Nomad,Manhattan,Midtown,40.74812,-73.98889,United States,US,True,strict,Entire home/apt,2012,$401 ,$80 ,1,42,2/6/2022,2.03,3,53,166,,
31542421,Midtown Spacious Room - Time Square/Central Park,52919733347,verified,Helen,Manhattan,Hell's Kitchen,40.767520000000005,-73.98628000000001,United States,US,True,flexible,Private room,2003,$587 ,$117 ,1,77,2/6/2022,4.21,2,2,68,,
31542974,Olu's Airbnb by the Sea,79731721233,verified,Jomo,Queens,Rockaway Beach,40.58505,-73.81985,United States,US,False,flexible,Entire home/apt,2015,$878 ,$176 ,2,46,2/6/2022,2.27,2,1,126,,
31543526,CENTERED LOCATION*5TH FLOOR*STUDIO FOR 5 PEOPLE,11462318745,verified,Julia,Manhattan,Midtown,40.747840000000004,-73.98834000000001,United States,US,False,moderate,Entire home/apt,2014,$350 ,$70 ,1,78,2/6/2022,3.83,4,9,280,,
31544078,Huge studio room +private toilet+kitchen,76349568355,verified,Ismene,Brooklyn,Crown Heights,40.67185,-73.94671,United States,US,True,flexible,Entire home/apt,2007,$395 ,$79 ,30,9,2/6/2022,0.73,3,3,124,,
31544631,Harlem Apt on the Park,88489270786,verified,Sarah,Manhattan,Harlem,40.80127,-73.95868,United States,US,True,strict,Entire home/apt,2016,$653 ,$131 ,2,52,2/6/2022,2.82,2,1,99,,
31545183,Upper East Side Studio/Full kitchen/Great location,40159919334,unconfirmed,Richard And Elena,Manhattan,Upper East Side,40.780429999999996,-73.94892,United States,US,True,moderate,Entire home/apt,2011,"$1,061 ",$212 ,5,45,2/6/2022,2.28,3,1,111,,
31545735,Sunny skyline 1-bed w/ home office & fire pit,50400400368,verified,Caitlin,Brooklyn,Greenpoint,40.73497781,-73.95464591,United States,US,False,strict,Entire home/apt,2007,$464 ,$93 ,3,1,2/6/2022,1.0,3,1,30,,
31546288,Sonder Battery Park | Accessible Studio Apartment,24561769913,unconfirmed,Sonder (NYC),Manhattan,Financial District,40.70494,-74.0144,United States,US,True,moderate,Entire home/apt,2021,$542 ,$108 ,2,27,2/6/2022,1.52,4,54,301,,
31546840,"private room,  25 mins from Manhattan",95208788985,unconfirmed,Anna,Brooklyn,Crown Heights,40.67642,-73.95104,United States,US,True,moderate,Private room,2022,$686 ,$137 ,1,4,2/6/2022,0.21,2,2,11,,
31547392,433 West 53-Furnished Studio in Midtown West,52365396395,unconfirmed,Jeniffer,Manhattan,Hell's Kitchen,40.76566,-73.98969,United States,US,True,strict,Entire home/apt,2020,$429 ,$86 ,30,2,2/6/2022,0.14,4,186,302,,
31547944,Sunlit room with private bathroom and entrance,79951231403,verified,Gabriele,Brooklyn,Williamsburg,40.70988,-73.94547,United States,US,True,strict,Private room,2011,$187 ,$37 ,20,9,2/6/2022,0.83,3,1,33,,
31548497,The Medina Home,64795420875,verified,Conrado,Queens,East Elmhurst,40.75934,-73.88829,United States,US,True,flexible,Entire home/apt,2006,$790 ,$158 ,3,29,2/6/2022,1.88,5,1,147,,
31549049,407 West 51-Junior 1 bedroom Apt,20456462224,verified,Jeniffer,Manhattan,Hell's Kitchen,40.76491,-73.98986,United States,US,False,flexible,Entire home/apt,2013,$468 ,$94 ,30,3,2/6/2022,0.2,2,186,196,,
31549601,Beautiful 2 Double Bed Hotel Room,31156725294,unconfirmed,Justin,Manhattan,Financial District,40.70647,-74.00531,United States,US,False,moderate,Private room,2010,"$1,002 ",$200 ,1,69,2/6/2022,4.42,3,102,28,,
31550154,Beautiful 2 Double Bed Hotel Room,44960177131,verified,Justin,Manhattan,Financial District,40.705740000000006,-74.00591,United States,US,False,moderate,Private room,2012,$830 ,$166 ,1,99,2/6/2022,6.41,2,102,47,,
31550706,Beautiful King Bed Hotel Room,83969786019,verified,Justin,Manhattan,Financial District,40.70636,-74.00515,United States,US,False,moderate,Private room,2006,$657 ,$131 ,1,31,2/6/2022,2.0,3,102,22,,
31551258,Perfect Work from Home place next to Central Park,62482148126,unconfirmed,Andrew,Manhattan,Upper West Side,40.80124,-73.96209,United States,US,True,strict,Private room,2013,$805 ,$161 ,30,2,2/6/2022,0.16,4,3,150,,
31551811,"Sunny, spacious 1 BD Prime Williamsburg Brownstone",30589190493,verified,Camila,Brooklyn,Williamsburg,40.71778,-73.95721,United States,US,False,strict,Entire home/apt,2018,$749 ,$150 ,4,4,2/6/2022,0.39,4,1,78,,
31552363,Zen Cozy Clean Williamsburg Oasis - best location,57561490025,unconfirmed,Sara,Brooklyn,Williamsburg,40.7186,-73.94593,United States,US,False,strict,Entire home/apt,2007,$321 ,$64 ,5,23,2/6/2022,1.62,5,1,281,,
31552915,Queen Queen Hotel Room,93507745282,unconfirmed,Michelle,Manhattan,Chelsea,40.74725,-73.9924,United States,US,True,moderate,Private room,2017,$295 ,$59 ,1,9,2/6/2022,0.8,3,50,28,,
31553467,BIG ROOM that shines with Natural Light,97379701139,unconfirmed,Raphael,Manhattan,Upper West Side,40.799620000000004,-73.96616,United States,US,False,moderate,Private room,2018,$835 ,$167 ,1,23,2/6/2022,2.07,5,2,4,,
31554020,3 Bedroom 2 Bath Duplex near Times Square,7601440285,verified,Pierre,Manhattan,Hell's Kitchen,40.760670000000005,-73.99297,United States,US,False,moderate,Entire home/apt,2009,$183 ,$37 ,30,3,2/6/2022,0.24,3,7,105,,
31554572,Spacious King bed Hotel Room,43854921692,verified,Michelle,Manhattan,Chelsea,40.74765,-73.99245,United States,US,False,strict,Private room,2016,$234 ,$47 ,1,9,2/6/2022,0.7,2,50,28,,
31555124,Keith's Room,58879894181,unconfirmed,Nicole,Brooklyn,Crown Heights,40.667390000000005,-73.94005,United States,US,False,flexible,Private room,2018,$492 ,$98 ,6,21,2/6/2022,1.66,3,2,331,,
31555677,Entire 2 bedroom Apt in the heart of crown Heights,35775188453,unconfirmed,Corey,Brooklyn,Crown Heights,40.6734,-73.94623,United States,US,True,moderate,Entire home/apt,2016,$208 ,$42 ,2,33,2/6/2022,3.19,3,1,306,,
31556229,Cozy Downtown NYC 1BR Apartment - Prime Location!,25509721458,verified,Mubin,Manhattan,Greenwich Village,40.72784,-73.99859000000001,United States,US,False,flexible,Entire home/apt,2015,$133 ,$27 ,4,14,2/6/2022,1.44,3,1,166,,
31556781,Luxury 2 bedroom apt in Crown Heights,3221236546,unconfirmed,Lyndon,Brooklyn,Crown Heights,40.67235,-73.95827,United States,US,True,flexible,Entire home/apt,2003,$545 ,$109 ,2,30,2/6/2022,2.96,2,2,100,,
31557334,‚úàÔ∏èRoom Airport LGAüë®üèª‚Äç‚úàÔ∏è,67976465794,verified,Joe Jobana,Queens,East Elmhurst,40.76768,-73.87751999999999,United States,US,False,moderate,Private room,2016,$534 ,$107 ,1,22,2/6/2022,1.88,2,4,365,,
31557886,Hotel Room King Bed Chelsea,49362226644,verified,Michelle,Manhattan,Chelsea,40.7478,-73.99240999999999,United States,US,False,flexible,Private room,2007,$294 ,$59 ,1,15,2/6/2022,1.29,3,50,28,,
31558438,"Modern private room,25 mins to MANHATTAN 2",89538482687,unconfirmed,Filiz,Queens,Ridgewood,40.710570000000004,-73.91901,United States,US,True,moderate,Private room,2008,$297 ,$59 ,1,48,2/6/2022,4.06,2,7,143,,
31558990,Cozy Apartment and Office Space in NYC,79997510881,verified,Ilan,Manhattan,Upper West Side,40.781290000000006,-73.97606,United States,US,True,flexible,Entire home/apt,2017,"$1,091 ",$218 ,2,3,2/6/2022,1.88,2,1,47,,
31559543,Instinct Hospitality1 Cozy Room Free Parking,82254988072,verified,Jovon,Brooklyn,Flatbush,40.64246,-73.95397,United States,US,False,strict,Private room,2006,$575 ,$115 ,1,11,2/6/2022,2.75,2,5,326,,
31560095,Sonder City Hall Park | Spacious Studio Apartment,63205837175,unconfirmed,Sonder (NYC),Manhattan,Financial District,40.710609999999996,-74.00759000000001,United States,US,False,moderate,Entire home/apt,2004,$940 ,$188 ,2,20,2/6/2022,1.99,3,54,353,,
31560647,Cozy Apartment Located In The Heart Of Manhattan#7,58871286700,unconfirmed,Alberto,Manhattan,Midtown,40.7485,-73.98732,United States,US,False,moderate,Entire home/apt,2018,$580 ,$116 ,1,23,2/6/2022,2.28,5,3,258,,
31561200,Trendy Townhouse w/ HOT TUB (Duplex),13508578383,unconfirmed,Lauren,Brooklyn,Bedford-Stuyvesant,40.68488,-73.92886999999999,United States,US,False,moderate,Entire home/apt,2007,$125 ,$25 ,2,12,2/6/2022,1.17,2,1,162,,
31561752,Large Sunny 1 Bedroom Apartment in Midtown,72848537688,verified,Prasanna,Manhattan,Murray Hill,40.74655,-73.9731,United States,US,False,flexible,Entire home/apt,2008,$116 ,$23 ,3,3,2/6/2022,0.28,4,1,0,,
31562304,Waterfront views of Manhattan,50073457165,unconfirmed,Zev,Brooklyn,Columbia St,40.686146,-74.00415799999999,United States,US,True,moderate,Entire home/apt,2005,$82 ,$16 ,1,50,2/6/2022,4.7,2,1,293,,
31562857,Charming Chelsea One Bedroom - Great Location,27166275956,unconfirmed,Victor,Manhattan,Chelsea,40.74948,-73.99811,United States,US,True,moderate,Entire home/apt,2013,$473 ,$95 ,3,44,2/6/2022,4.41,3,1,175,,
31563409,The perfect cozy  place for you!,83426567084,unconfirmed,Andres,Queens,Forest Hills,40.73386,-73.84475,United States,US,False,moderate,Private room,2009,$566 ,$113 ,2,29,2/6/2022,2.96,4,3,40,,
31563961,Luxury Inspiring & Creative Room (Peach Room),55994451925,unconfirmed,Susan,Brooklyn,East Flatbush,40.63586,-73.94686,United States,US,True,flexible,Private room,2011,$941 ,$188 ,1,3,2/6/2022,1.43,2,5,176,,
31564513,Deluxe Room #08 -  Furnished Studio Rentals,85502142326,verified,Esplanade 99,Manhattan,Upper West Side,40.79636,-73.97179,United States,US,True,flexible,Private room,2020,$724 ,$145 ,30,1,2/6/2022,1.0,4,24,148,,
31565066,‚ô•‚ô•‚ô• Beautiful & Bold. Relax or Host Here ‚ô•‚ô•‚ô•,55127614456,verified,Edwin,Bronx,Parkchester,40.83933,-73.86905,United States,US,True,flexible,Entire home/apt,2005,$976 ,$195 ,1,9,2/6/2022,1.84,3,7,363,,
31565618,Black Abstract Bedroom with 45‚Äù Smart TV/Desk,18918435949,unconfirmed,Julia,Manhattan,Lower East Side,40.71782,-73.9911,United States,US,False,moderate,Private room,2013,$229 ,$46 ,1,28,2/6/2022,3.08,5,5,36,,
31566170,2BR Home W/ Beautiful Exposed Brick wall & Jacuzzi,95881132596,unconfirmed,Alex,Brooklyn,Crown Heights,40.674609999999994,-73.93198000000001,United States,US,True,moderate,Entire home/apt,2018,$357 ,$71 ,2,47,2/6/2022,5.66,4,2,88,,
31566723,Spacious & Modern 3 BR in Time sq,79214864933,verified,Flam,Manhattan,Hell's Kitchen,40.758990000000004,-73.99259,United States,US,False,moderate,Entire home/apt,2021,$237 ,$47 ,2,7,2/6/2022,0.92,2,1,311,,
31567275,Modern 4 BR Brownstone {TOP FLOOR} A Gem on Utica,97734682138,verified,Tiana,Brooklyn,East Flatbush,40.66252,-73.93269000000001,United States,US,True,moderate,Entire home/apt,2010,$663 ,$133 ,1,38,2/6/2022,4.77,2,5,356,,
31567827,2 bedroom flat in the heart of South Williamsburg,92272003867,verified,Vi,Brooklyn,Williamsburg,40.709590000000006,-73.95317,United States,US,False,flexible,Entire home/apt,2021,$751 ,$150 ,30,12,2/6/2022,1.77,4,1,135,,
31568380,Lovely 3 Bed/2 Full Bath Open Concept Rental,3669612261,unconfirmed,Terrioma,Brooklyn,East New York,40.669740000000004,-73.88832,United States,US,True,flexible,Entire home/apt,2004,$814 ,$163 ,2,19,2/6/2022,2.53,4,1,30,,
31568932,Cozy renovated room with its own bathroom Brooklyn,62955922101,verified,Oksana,Brooklyn,Sheepshead Bay,40.584379999999996,-73.95078000000001,United States,US,True,strict,Private room,2018,$638 ,$128 ,3,5,2/6/2022,1.43,5,7,50,,
31569484,"Lovely 1-bd pet friendly in Astoria, Queens",40833551981,unconfirmed,Ahu,Queens,Astoria,40.76682,-73.9127,United States,US,False,flexible,Entire home/apt,2003,$638 ,$128 ,2,15,2/6/2022,3.08,5,2,16,,
31570036,Charming One Bedroom Bedstuy Bklyn  420 Friendly,73735896152,verified,Lola,Brooklyn,Bedford-Stuyvesant,40.68526,-73.94935,United States,US,True,flexible,Entire home/apt,2009,$814 ,$163 ,1,9,2/6/2022,1.56,4,1,276,,
31570589,UNTITLED at Freeman - Queen Studio 1012,67229559559,verified,Karen,Manhattan,Lower East Side,40.72094,-73.99135,United States,US,False,moderate,Entire home/apt,2008,$891 ,$178 ,2,27,2/6/2022,4.01,3,208,162,,
31571141,2 Queen beds w/ Private half  bathroom,69431803686,unconfirmed,Derek,Brooklyn,East Flatbush,40.649429999999995,-73.92092,United States,US,True,strict,Private room,2005,$730 ,$146 ,2,2,2/6/2022,0.38,2,5,277,,
31571693,Luxurious 6Bed 4Bath Duplex in Historic Brownstone,82741451613,verified,Hong,Brooklyn,Crown Heights,40.6726,-73.94641,United States,US,False,moderate,Entire home/apt,2018,"$1,098 ",$220 ,3,17,2/6/2022,2.6,5,2,248,,
31572246,Massive space w/ Private Backyard (1200+ sqft),95402486509,verified,Ray,Brooklyn,Flatbush,40.650690000000004,-73.95318,United States,US,True,moderate,Private room,2012,"$1,049 ",$210 ,1,13,2/6/2022,2.65,5,2,362,,
31572798,3 bedroom in turn of the century Brownstone,76196954142,verified,Michael,Bronx,Longwood,40.81427,-73.89873,United States,US,False,moderate,Entire home/apt,2019,$550 ,$110 ,1,25,2/6/2022,4.14,2,4,343,,
31573350,Lovely room in the Bronx,51523499815,verified,Ana,Bronx,Morrisania,40.831070000000004,-73.90126,United States,US,True,strict,Private room,2010,"$1,058 ",$212 ,4,5,2/6/2022,0.9,4,2,314,,
31573903,"Beautiful 3beds in the UES, Central Park",34064635391,verified,Cristina,Manhattan,Upper East Side,40.77142,-73.95682,United States,US,False,strict,Entire home/apt,2008,$431 ,$86 ,3,5,2/6/2022,1.69,3,1,299,,
31574455,Blue Moon Hotel | Lovely King with Balcony,83109513218,unconfirmed,Blue Moon,Manhattan,Lower East Side,40.71808,-73.98881999999999,United States,US,False,flexible,Entire home/apt,2005,$375 ,$75 ,1,5,2/6/2022,1.13,4,27,310,,
31575007,Guest house with separate House entry,62886219855,verified,Trevis,Brooklyn,Flatlands,40.6167,-73.92456,United States,US,False,moderate,Shared room,2016,"$1,130 ",$226 ,1,14,2/6/2022,2.46,5,3,363,,
31575559,Comfy Retreat in the Heart of Brooklyn,59943469830,verified,Mike,Brooklyn,Prospect-Lefferts Gardens,40.66339,-73.95476,United States,US,False,flexible,Private room,2009,$397 ,$79 ,1,8,2/6/2022,1.7,5,1,342,,
31576112,Simple but comfortable,44841670219,unconfirmed,William,Brooklyn,Bedford-Stuyvesant,40.688629999999996,-73.93278000000001,United States,US,True,strict,Private room,2004,$965 ,$193 ,2,9,2/6/2022,1.74,3,1,338,,
31576664,"New Gem in Lower East Side! 2 Modern Units, Steps Away from Delancey Street Station, Onsite Bar and Restaurant!",54133089457,verified,RoomPicks,Manhattan,Lower East Side,40.72059,-73.98697,United States,US,False,flexible,Private room,2015,"$1,070 ",$214 ,1,3,2/6/2022,1.0,3,80,221,,
31577216,Shoreham Hotel - Amazing room in an Unrivaled Location,47441098629,verified,Shoreham,Manhattan,Midtown,40.76145,-73.97606,United States,US,True,strict,Entire home/apt,2014,$843 ,$169 ,1,16,2/6/2022,3.22,5,44,348,,
31577769,Shoreham Hotel - Boutique Hotel Studio Close to Iconic Landmarks,87435342498,unconfirmed,Shoreham,Manhattan,Midtown,40.7635,-73.97536,United States,US,False,flexible,Entire home/apt,2015,$437 ,$87 ,1,5,2/6/2022,1.09,4,44,353,,
31578321,"Event Space - Celebration, Production, Workshops",62962711427,verified,Karina,Bronx,Wakefield,40.9116,-73.84917,United States,US,False,flexible,Entire home/apt,2003,$481 ,$96 ,1,5,2/6/2022,1.34,2,2,363,,
31578873,Private One Bedroom Apartment In Central NYC,65797902638,unconfirmed,John,Manhattan,Hell's Kitchen,40.764,-73.98779,United States,US,False,flexible,Entire home/apt,2022,$600 ,$120 ,5,9,2/6/2022,2.43,4,1,24,,
31579426,"""I think I'll stay here a while.""2-bed Brooklyn",73465854424,verified,Aira,Brooklyn,Bushwick,40.697520000000004,-73.93124,United States,US,True,strict,Entire home/apt,2010,"$1,174 ",$235 ,2,9,2/6/2022,2.6,3,1,83,,
31579978,Large 1 Bedroom Park Slope Brownstone Apartment,53215268153,unconfirmed,Tara,Brooklyn,Park Slope,40.6758,-73.97317,United States,US,True,moderate,Entire home/apt,2020,$407 ,$81 ,7,3,2/6/2022,0.73,2,1,9,,
31580530,Cute Studio in Greenpoint Brooklyn <3,32418640807,unconfirmed,Hannah,Brooklyn,Greenpoint,40.72805,-73.95248000000001,United States,US,True,strict,Entire home/apt,2007,$625 ,$125 ,3,2,2/6/2022,0.71,4,1,306,,
31581082,"#1 Bedroom Convenient to JFK, casino/gym LGA 20min",2550625544,verified,Anthony,Queens,Springfield Gardens,40.66823,-73.76329,United States,US,True,moderate,Private room,2007,$519 ,$104 ,1,11,2/6/2022,2.89,5,6,360,,
31581635,Family Studio/2 Min to the Empire S. Building #52,88898323958,verified,Alberto Fernando,Manhattan,Midtown,40.74605,-73.98892,United States,US,True,flexible,Entire home/apt,2003,$557 ,$111 ,1,4,2/6/2022,0.94,3,8,229,,
31582187,Cozy Private Room With Queen Bed,90473276350,verified,Julia,Brooklyn,Bedford-Stuyvesant,40.679120000000005,-73.90948,United States,US,True,strict,Private room,2005,$464 ,$93 ,1,10,2/6/2022,2.38,5,6,73,,
31582739,Sunny private room near C park &Colombia univ,8276155770,unconfirmed,Max,Manhattan,Upper West Side,40.80022,-73.96081,United States,US,False,moderate,Private room,2018,$587 ,$117 ,1,15,2/6/2022,3.75,2,2,65,,
31583292,Stylish 2 Floor Brooklyn Duplex - 3 Bedroom 2 Bath,78719129334,verified,Aleksandr,Brooklyn,Bushwick,40.690979999999996,-73.91893,United States,US,True,flexible,Entire home/apt,2021,$680 ,$136 ,2,9,2/6/2022,2.43,4,1,122,,
31583844,Private Bathroom in every room,3024260449,verified,Johanna,Brooklyn,Bedford-Stuyvesant,40.69532,-73.94005,United States,US,True,flexible,Private room,2012,"$1,137 ",$227 ,2,3,2/6/2022,0.92,5,5,320,,
31584396,"Cozy, extremely comfy Greenpoint pied-a-terre",29387504325,verified,Hannah,Brooklyn,Greenpoint,40.72925,-73.9523,United States,US,False,flexible,Entire home/apt,2008,$549 ,$110 ,2,9,2/6/2022,2.41,3,1,37,,
31584949,PRIVATE ROOM FOR YOU,85004456473,unconfirmed,Brenda,Queens,Long Island City,40.759859999999996,-73.93275,United States,US,True,strict,Private room,2014,$776 ,$155 ,1,7,2/6/2022,2.0,4,28,62,,
31585501,LGA Modern one Bedroom Walk in Basement apartment,14675171541,unconfirmed,Winda,Queens,East Elmhurst,40.76698,-73.87468,United States,US,False,moderate,Entire home/apt,2004,$904 ,$181 ,1,6,2/6/2022,2.17,4,1,125,,
31586053,"Apartment near JFK,  Subway and Beach",31108199785,unconfirmed,Veronica,Queens,Arverne,40.591675,-73.790756,United States,US,True,flexible,Entire home/apt,2017,"$1,196 ",$239 ,3,13,2/6/2022,4.29,5,1,27,,
31586605,Full Bed at the Crossroads of the World,25695571846,unconfirmed,Hotel Shocard Times Square,Manhattan,Theater District,40.75649,-73.98852,United States,US,False,strict,Entire home/apt,2009,$249 ,$50 ,1,1,2/6/2022,1.0,5,5,39,,
31587158,Queen Bed at the Crossroads of the World,95521704214,verified,Hotel Shocard Times Square,Manhattan,Midtown,40.754490000000004,-73.98759,United States,US,False,flexible,Entire home/apt,2016,$599 ,$120 ,1,3,2/6/2022,2.05,4,5,40,,
31587710,Imperial Midtown Studios 829,66215255531,unconfirmed,Anna,Manhattan,Midtown,40.748020000000004,-73.98679,United States,US,False,moderate,Entire home/apt,2016,$282 ,$56 ,1,9,2/6/2022,2.76,5,5,77,,
31588262,Private Apartment / Shared Bathroom 826,86732685636,unconfirmed,Raquel,Manhattan,Midtown,40.74678,-73.98662,United States,US,False,strict,Private room,2022,$81 ,$16 ,1,1,2/6/2022,1.0,5,53,75,,
31588815,Private Apartment / Shared Bathroom 717,69398910093,unconfirmed,Raquel,Manhattan,Midtown,40.74623,-73.98886999999999,United States,US,True,flexible,Private room,2006,$72 ,$14 ,1,1,2/6/2022,1.0,3,53,59,,
31589367,Modern 2 bedroom rental with balcony.,71596419909,unconfirmed,Carlos,Queens,East Elmhurst,40.76462,-73.87751,United States,US,True,moderate,Entire home/apt,2011,$96 ,$19 ,2,6,2/6/2022,2.14,4,1,331,,
31589919,Luxurious 3 BEDROOM IN ‚òÖTHE HEART OF Times Square‚òÖ,4109229273,unconfirmed,Maxinne,Manhattan,Hell's Kitchen,40.76127,-73.99163,United States,US,False,flexible,Entire home/apt,2005,"$1,037 ",$207 ,30,1,2/6/2022,1.0,3,1,355,,
31590472,üå¥Miami Art Deco Themed 1BDR Aptüå¥,15601804180,unconfirmed,Jazmin,Queens,St. Albans,40.69715,-73.77425,United States,US,True,moderate,Entire home/apt,2009,$168 ,$34 ,1,7,2/6/2022,2.73,2,2,351,,
31591024,NEW LISTING! Comfy Queens Home - Just Minutes From JFK Airport!,57247407607,verified,RedAwning,Queens,Springfield Gardens,40.667801000000004,-73.7593,United States,US,True,moderate,Entire home/apt,2018,$244 ,$49 ,1,2,2/6/2022,1.54,2,3,361,,
31591576,"Top Flight experience 
JFK /LGA/ Casino/mall",74632115975,unconfirmed,Anthony,Queens,Springfield Gardens,40.667190000000005,-73.76536999999999,United States,US,True,flexible,Entire home/apt,2019,$789 ,$158 ,1,3,2/6/2022,1.84,5,6,361,,
31592128,"Spacious modern 1 BR in luxury high-rise Dumbo, BK",12548469025,verified,Ankita,Brooklyn,Downtown Brooklyn,40.699,-73.9874,United States,US,True,moderate,Entire home/apt,2019,$398 ,$80 ,4,2,2/6/2022,0.67,5,1,12,,
31592681,Amazing studio sleeps 6! Convenient location,62604958715,unconfirmed,Tenzing,Queens,Elmhurst,40.747040000000005,-73.87546,United States,US,True,flexible,Entire home/apt,2005,"$1,095 ",$219 ,1,2,2/6/2022,0.95,5,4,349,,
31593233,Large Studio in a Brownstone Beauty,97356523738,verified,Kimberly,Brooklyn,Bedford-Stuyvesant,40.683243,-73.945663,United States,US,False,strict,Entire home/apt,2015,$534 ,$107 ,2,5,2/6/2022,2.34,2,4,299,,
31593785,"Modern, Sleek 1 bedroom apartment waiting for you!",91760505460,unconfirmed,Jennifer,Queens,Ridgewood,40.71215,-73.91812,United States,US,False,flexible,Entire home/apt,2017,$414 ,$83 ,1,2,2/6/2022,1.25,4,1,343,,
31594338,Spacious and Bright Artist's Condo.  2-Bed 2 Bath.,31955838119,verified,Pierre,Bronx,Concourse Village,40.828590000000005,-73.91754,United States,US,False,moderate,Entire home/apt,2018,$831 ,$166 ,30,1,2/6/2022,1.0,2,7,260,,
31594890,Crash Ex,5503377407,verified,John,Brooklyn,East New York,40.66682,-73.87371999999999,United States,US,False,flexible,Private room,2018,$275 ,$55 ,3,1,2/6/2022,1.0,5,11,365,,
31595442,2 rooms 2 Baths in Central Greenpoint/Wburg Unit,73051904355,unconfirmed,Michael,Brooklyn,Greenpoint,40.72408,-73.9467,United States,US,True,moderate,Private room,2020,"$1,042 ",$208 ,1,1,2/6/2022,1.0,5,6,19,,
31595995,Lovely renovated 3bd/3 bathroom apartment nyc,85932331787,unconfirmed,Johanna,Brooklyn,Bedford-Stuyvesant,40.695029999999996,-73.94025,United States,US,False,moderate,Entire home/apt,2011,$505 ,$101 ,1,1,2/6/2022,1.0,3,5,320,,
31596547,Perfect Cozy Room for Travelers near Prospect Park,50528165448,unconfirmed,Carol,Brooklyn,Prospect-Lefferts Gardens,40.66026,-73.94292,United States,US,False,moderate,Private room,2011,$165 ,$33 ,1,1,2/6/2022,1.0,2,17,364,,
31597099,Red Stones-Queen Bed-Private House-5 mins From JFK,73139607435,verified,Marc,Queens,Rosedale,40.65903,-73.73405,United States,US,False,moderate,Entire home/apt,2014,$323 ,$65 ,1,5,2/6/2022,3.66,4,2,116,,
31597651,Great Room to Stay in Brooklyn!! Good location!!,45452298472,verified,Bernard,Brooklyn,Crown Heights,40.67275,-73.92355,United States,US,True,flexible,Private room,2021,$436 ,$87 ,1,3,2/6/2022,2.31,5,5,180,,
31598204,*BDRM 3* Huge Master bedroom/en-suite,43378332763,verified,Vivian,Brooklyn,East New York,40.65960509,-73.89385205,United States,US,True,strict,Private room,2017,"$1,097 ",$219 ,1,3,2/6/2022,1.36,5,3,81,,
31598756,Pristine garden flat - 40 min to midtown Manhattan,381411372,verified,Shaffiq,Brooklyn,East Flatbush,40.640390000000004,-73.95063,United States,US,False,flexible,Entire home/apt,2012,$212 ,$42 ,30,2,2/6/2022,1.71,3,2,266,,
31599308,Sunny Williamsburg Flat with Private Balcony,2697731207,unconfirmed,Priya,Brooklyn,Williamsburg,40.71589,-73.95588000000001,United States,US,True,strict,Entire home/apt,2022,$437 ,$87 ,4,2,2/6/2022,1.71,5,2,8,,
31599861,"Beautiful, elegant 3 bed SOHO loft",57575380549,verified,Harrison,Manhattan,Tribeca,40.72012,-74.00397,United States,US,False,moderate,Entire home/apt,2008,$466 ,$93 ,30,108,2/5/2022,0.85,4,1,334,,
31600413,"Sunny, calm room in Victorian home",38911175105,verified,Mary,Brooklyn,Bedford-Stuyvesant,40.68613,-73.95545,United States,US,True,flexible,Private room,2019,$572 ,$114 ,3,195,2/5/2022,1.53,5,3,250,,
31600965,Bright + Near Central Park + Columbia University!,80568732939,verified,Bria,Manhattan,Harlem,40.80413,-73.95756,United States,US,False,strict,Entire home/apt,2010,$240 ,$48 ,30,78,2/5/2022,0.62,4,1,38,,
31601518,Fabulous  2 bdr discount on weekly/monthly stays,34898792946,verified,Noemie,Brooklyn,Crown Heights,40.67543,-73.93970999999999,United States,US,True,strict,Entire home/apt,2005,$706 ,$141 ,3,279,2/5/2022,2.38,4,1,188,,
31602070,Private room minutes from midtown!,76994885791,verified,Roque,Bronx,Longwood,40.81341,-73.90544,United States,US,True,strict,Private room,2014,$383 ,$77 ,3,166,2/5/2022,1.58,2,1,257,,
31602622,Small Cozy Room Wifi & AC near JFK,40972110586,verified,Antonio,Queens,Woodhaven,40.68939,-73.8519,United States,US,True,strict,Private room,2009,$782 ,$156 ,2,488,2/5/2022,4.78,3,3,61,,
31603174,Manhattan Courtyard Studio with Spa Bathroom,6929680375,verified,Tom,Manhattan,Harlem,40.808440000000004,-73.95528,United States,US,False,moderate,Entire home/apt,2007,"$1,165 ",$233 ,4,151,2/5/2022,1.64,3,4,100,,
31603727,Beautiful Terrace Room,74670959889,unconfirmed,Larry,Brooklyn,Canarsie,40.63883,-73.91748,United States,US,True,strict,Private room,2011,"$1,149 ",$230 ,4,48,2/5/2022,0.53,5,2,338,,
31604279,Bright Studio with Peaceful Private Terrace,55530970481,unconfirmed,Katherine / Fran√ßois,Brooklyn,Sunset Park,40.662459999999996,-73.9933,United States,US,True,strict,Entire home/apt,2013,$552 ,$110 ,7,8,2/5/2022,0.78,5,3,108,,
31604831,"Sunny, Park, Private Entrance (Photos not current)",83069516021,unconfirmed,Ariel,Brooklyn,Greenpoint,40.72724,-73.94208,United States,US,False,strict,Private room,2018,$408 ,$82 ,30,86,2/5/2022,1.01,5,1,113,,
31605384,"Che' Randall 
SoBro
10 min from Manhattan!",43889868271,unconfirmed,Rawn,Bronx,Longwood,40.81831,-73.90816,United States,US,False,strict,Private room,2005,$440 ,$88 ,5,40,2/5/2022,0.74,4,3,59,,
31605936,Stylish 1 bed room in the East Village,89321650957,unconfirmed,Jillian,Manhattan,East Village,40.73076,-73.98735,United States,US,True,strict,Entire home/apt,2012,$234 ,$47 ,5,157,2/5/2022,1.92,5,2,252,,
31606488,Charming Duplex in Brooklyn Townhouse,91990300121,unconfirmed,Jacob,Brooklyn,Bedford-Stuyvesant,40.680279999999996,-73.91196,United States,US,False,moderate,Entire home/apt,2020,$948 ,$190 ,3,142,2/5/2022,1.78,4,1,223,,
31607041,Big 1.5 bedroom on a great block-Private apt,98628722483,unconfirmed,Kristian,Brooklyn,Bedford-Stuyvesant,40.681290000000004,-73.93004,United States,US,True,flexible,Entire home/apt,2021,$279 ,$56 ,5,202,2/5/2022,2.59,2,1,62,,
31607593,"Artist/Musician Apartment, All Private. 4 Guests",47167039768,verified,Thomas,Brooklyn,Bushwick,40.696329999999996,-73.91872,United States,US,True,strict,Private room,2004,"$1,100 ",$220 ,3,171,2/5/2022,2.16,5,1,254,,
31608145,Exquisite Apartment in Hip Hamilton Heights,84105711077,unconfirmed,Edward,Manhattan,Harlem,40.82352,-73.95245,United States,US,False,flexible,Private room,2006,$193 ,$39 ,3,81,2/5/2022,1.04,2,1,83,,
31608697,Cozy room in the Heart of Astoria,5455546054,verified,Nadir,Queens,Astoria,40.766909999999996,-73.91758,United States,US,True,flexible,Private room,2013,"$1,171 ",$234 ,15,132,2/5/2022,1.7,2,3,38,,
31609250,"Stylish Townhouse, 2 large bedrooms, ensuite bths",62495511013,unconfirmed,Sebastian,Brooklyn,Bedford-Stuyvesant,40.68978,-73.93185,United States,US,False,strict,Entire home/apt,2012,$967 ,$193 ,7,21,2/5/2022,0.48,5,1,281,,
31609802,A room for you in Williamsburg! Only for Women.,44418819818,verified,Mary,Brooklyn,Williamsburg,40.71192,-73.96238000000001,United States,US,True,strict,Private room,2017,$824 ,$165 ,5,41,2/5/2022,0.53,2,1,36,,
31610354,Private bdrm in bedstuy brownstone,20047607800,unconfirmed,Aliza,Brooklyn,Bedford-Stuyvesant,40.68512,-73.92869,United States,US,False,strict,Private room,2008,$834 ,$167 ,15,26,2/5/2022,0.37,4,4,293,,
31610907,üåû Sweet & sunny bedroom üòé in awesome NYC aptüçï,94524526481,unconfirmed,Haffro,Manhattan,East Village,40.72351,-73.98461,United States,US,False,moderate,Private room,2021,$121 ,$24 ,4,84,2/5/2022,1.17,3,8,113,,
31611459,Spacious Private 1-Bedroom Apartment in LIC,3277854608,verified,Jim,Queens,Long Island City,40.74514,-73.95295,United States,US,True,strict,Entire home/apt,2008,$397 ,$79 ,3,140,2/5/2022,1.86,2,1,80,,
31612011,Á∫ΩÁ∫¶‰πãÂÆ∂ (Sunny Home2),55050446800,verified,Amy,Queens,Flushing,40.74537,-73.83252,United States,US,False,flexible,Private room,2010,$777 ,$155 ,1,174,2/5/2022,2.39,2,8,90,,
31612564,Cozy Guest Room in Brooklyn,41142281519,verified,Brittni,Brooklyn,Bedford-Stuyvesant,40.69253,-73.93224000000001,United States,US,True,strict,Private room,2003,$180 ,$36 ,14,36,2/5/2022,0.49,3,1,71,,
31613116,145 Mulberry-Renovated Studio near Soho,8924170712,verified,Jeniffer,Manhattan,Little Italy,40.718990000000005,-73.99773,United States,US,False,moderate,Entire home/apt,2010,$314 ,$63 ,30,11,2/5/2022,0.16,4,186,172,,
31613668,"More Space, 3 BR, 2 Bath",68631192474,verified,Collin,Brooklyn,Bushwick,40.691590000000005,-73.92402,United States,US,False,strict,Entire home/apt,2007,$683 ,$137 ,3,136,2/5/2022,1.97,2,1,29,,
31614220,"LUXURY , FULL OF LIGHT, RENOVATED BIG  1BEDROOM",20659690741,verified,Olga,Manhattan,West Village,40.735690000000005,-74.00256,United States,US,True,strict,Entire home/apt,2005,$574 ,$115 ,30,79,2/5/2022,1.17,4,1,274,,
31614773,"Home Base, Back Yard!",1565303376,verified,Angelika,Brooklyn,Bedford-Stuyvesant,40.69693,-73.9455,United States,US,False,strict,Entire home/apt,2019,$461 ,$92 ,2,195,2/5/2022,2.91,5,1,125,,
31615325,"Charming, Cozy & Convenient 1 Bd Apartment",61352654710,unconfirmed,Pavle,Brooklyn,Gowanus,40.67783,-73.98346,United States,US,False,moderate,Entire home/apt,2015,$746 ,$149 ,21,21,2/5/2022,0.32,4,1,0,,
31615877,2 bed spacious/Quiet Upper Ditmars Astoria Wifi.,32494902710,unconfirmed,Chetina,Queens,Ditmars Steinway,40.769859999999994,-73.89405,United States,US,False,flexible,Entire home/apt,2016,$172 ,$34 ,30,39,2/5/2022,0.64,4,3,185,,
31616430,EXTRA LARGE PRIVATE BEDROOM,19928569464,verified,Shuly,Queens,Ditmars Steinway,40.772529999999996,-73.90472,United States,US,False,moderate,Private room,2014,$381 ,$76 ,2,134,2/5/2022,2.41,5,6,302,,
31616982,Full studio in the heart of Queens!,66343950323,unconfirmed,Celeste,Queens,Flushing,40.75875,-73.81116999999999,United States,US,True,strict,Entire home/apt,2007,$336 ,$67 ,30,6,2/5/2022,0.11,3,3,275,,
31617534,Charming 1BD Apartment near Empire State building,30970152546,unconfirmed,Mikhail,Manhattan,Murray Hill,40.74458,-73.97381999999999,United States,US,True,strict,Entire home/apt,2005,$787 ,$157 ,30,7,2/5/2022,0.14,3,1,214,,
31618087,"Clean, Comfy and Central Midtown Haven!",47118801146,unconfirmed,Sasha,Manhattan,Midtown,40.754690000000004,-73.9733,United States,US,False,flexible,Entire home/apt,2016,$942 ,$188 ,2,90,2/5/2022,1.78,5,1,117,,
31618639,Cozy Private Room by Yankee Stadium. *Read Rules*,84298833439,verified,Vas,Bronx,Concourse Village,40.83041,-73.91929,United States,US,False,strict,Private room,2020,$69 ,$14 ,1,86,2/5/2022,1.75,2,1,243,,
31619191,Great Room in Townhouse Close to 5 Medical Centers,74187862228,unconfirmed,Eugenia,Brooklyn,Brownsville,40.6683,-73.9227,United States,US,True,strict,Private room,2006,$247 ,$49 ,14,8,2/5/2022,0.19,3,5,343,,
31619743,Small Private Room # 1,68438547961,verified,Masud,Brooklyn,Cypress Hills,40.68408,-73.87889,United States,US,True,flexible,Private room,2012,$542 ,$108 ,30,18,2/5/2022,0.39,2,3,248,,
31620296,BEAUTIFUL STUDIO ON UPPER EAST SIDE/ CENTRAL PARK,69926600483,verified,Inna,Manhattan,Upper East Side,40.769515999999996,-73.95644399999999,United States,US,True,flexible,Entire home/apt,2020,"$1,182 ",$236 ,30,16,2/5/2022,0.38,5,32,325,,
31620848,Suite/English basement in Brooklyn townhouse,80892513805,verified,Rachel,Brooklyn,Kensington,40.6447,-73.97081999999999,United States,US,False,flexible,Entire home/apt,2009,$916 ,$183 ,3,48,2/5/2022,1.09,4,1,39,,
31621400,Fanta Sea Home 3,93857026717,verified,Jewell,Brooklyn,Brownsville,40.665490000000005,-73.91764,United States,US,False,flexible,Private room,2017,$141 ,$28 ,4,17,2/5/2022,0.4,5,3,364,,
31621953,Boho-Chic sleeps 5 TOP FLOOR penthouse prime WBURG,19771599148,verified,Emily,Brooklyn,Williamsburg,40.71115,-73.95702,United States,US,False,flexible,Entire home/apt,2021,$800 ,$160 ,30,21,2/5/2022,0.54,2,2,22,,
31622505,"Large, Sunny Retreat- B/Q subway, Prospect Park!",41825380609,verified,Jewel,Brooklyn,Flatbush,40.65003,-73.96403000000001,United States,US,True,moderate,Private room,2022,$688 ,$138 ,2,71,2/5/2022,1.66,3,2,177,,
31623057,Village/Soho  2 Br +Garden+Skylight,7211202384,verified,James,Manhattan,SoHo,40.72622,-74.0013,United States,US,True,flexible,Entire home/apt,2019,"$1,190 ",$238 ,30,44,2/5/2022,1.14,2,3,224,,
31623610,Clean and Cozy Room 2 in Brooklyn,50301321226,verified,Olabimpe,Brooklyn,Bedford-Stuyvesant,40.68932,-73.93082,United States,US,True,flexible,Private room,2014,$895 ,$179 ,30,36,2/5/2022,0.96,4,2,307,,
31624162,Modern Bedroom - 30 minutes from Midtown!,59101643465,verified,Jabari,Bronx,Mount Hope,40.848890000000004,-73.90293,United States,US,True,moderate,Private room,2019,$768 ,$154 ,30,8,2/5/2022,0.21,5,2,64,,
31624714,Your own huge private oasis in the heart of Soho,43478021799,verified,Asya,Manhattan,SoHo,40.72627,-74.00104,United States,US,True,flexible,Entire home/apt,2008,"$1,177 ",$235 ,5,24,2/5/2022,0.69,4,1,12,,
31625266,MANHATTAN MANSION | ROOFTOP PATIO| ASK ABOUT SALE!,14792401792,verified,Sasha,Manhattan,Washington Heights,40.83586,-73.94058000000001,United States,US,True,moderate,Entire home/apt,2005,"$1,157 ",$231 ,3,69,2/5/2022,1.91,4,1,243,,
31625819,30mins to City: 2 bathrooms: 7train 3 Blocks,29846497132,unconfirmed,Kelly,Queens,Jackson Heights,40.750820000000004,-73.87491999999999,United States,US,False,flexible,Private room,2020,$627 ,$125 ,1,71,2/5/2022,1.96,3,13,349,,
31626371,Private 2 beds Studio w/sofa Near ESB,48407082984,verified,Studioplus,Manhattan,Midtown,40.74657,-73.98715,United States,US,True,moderate,Entire home/apt,2007,"$1,068 ",$214 ,2,71,2/5/2022,2.15,5,14,265,,
31626923,"Hotel Hendricks, Superior Queen",4726233287,verified,Hotel Hendricks,Manhattan,Midtown,40.75181,-73.98406,United States,US,True,moderate,Private room,2007,$936 ,$187 ,1,49,2/5/2022,2.15,5,6,0,,
31627476,Private Family Home 30 Days or more,30165338437,verified,Myrna And David,Queens,Astoria,40.757020000000004,-73.91485,United States,US,True,strict,Entire home/apt,2017,$612 ,$122 ,30,3,2/5/2022,0.36,3,2,362,,
31628028,"Highly Disinfected | Perfectly Located Near Restaurants, Shops, & Sites",67910071283,verified,Wendy,Manhattan,Hell's Kitchen,40.761990000000004,-73.98978000000001,United States,US,False,moderate,Entire home/apt,2016,$302 ,$60 ,2,85,2/5/2022,2.76,2,1,243,,
31628580,2BR garden apt Brooklyn brownstone 20mn Manhattan,98351837281,unconfirmed,Mallorie,Brooklyn,Bedford-Stuyvesant,40.68077,-73.94036,United States,US,True,flexible,Entire home/apt,2015,$617 ,$123 ,5,33,2/5/2022,1.11,4,1,198,,
31629133,Hudson Yards Lux Two Bedroom R3,54284953720,verified,Carolyn,Manhattan,Hell's Kitchen,40.754090000000005,-73.99675,United States,US,True,flexible,Entire home/apt,2014,$185 ,$37 ,30,4,2/5/2022,0.14,5,4,115,,
31629685,Boho chic bedroom in quiet neighborhood w/key~,5623110816,unconfirmed,Dee,Queens,Fresh Meadows,40.75243,-73.78603000000001,United States,US,True,strict,Private room,2015,$974 ,$195 ,3,4,2/5/2022,0.16,2,10,276,,
31630237,Williamsburg 2 Bedroom/1.5 Bath - 30 days min,37878517663,unconfirmed,Michael,Brooklyn,Williamsburg,40.712070000000004,-73.9597,United States,US,True,flexible,Entire home/apt,2012,$489 ,$98 ,30,4,2/5/2022,0.15,5,3,186,,
31630789,Sunny and Chill Qwik Commute To NYC & Long Island,53960756626,verified,Lynn,Queens,Little Neck,40.76678,-73.72622,United States,US,True,strict,Shared room,2021,$388 ,$78 ,30,3,2/5/2022,0.13,4,2,358,,
31631342,Beautiful Furnished 1BR in Midtown + Gym,63200926634,verified,Zeus,Manhattan,Hell's Kitchen,40.75385,-73.99518,United States,US,True,flexible,Entire home/apt,2020,$242 ,$48 ,30,1,2/5/2022,1.0,5,34,334,,
31631894,Modern Luxury Apt in the Heart of NYC Times Square,63209755447,unconfirmed,Gregory,Manhattan,Hell's Kitchen,40.75925,-73.99587,United States,US,True,strict,Entire home/apt,2003,$206 ,$41 ,5,9,2/5/2022,0.32,2,2,154,,
31632446,Cozy room,40334571598,unconfirmed,Fazia,Bronx,Hunts Point,40.81418,-73.88878000000001,United States,US,True,strict,Private room,2012,"$1,059 ",$212 ,6,26,2/5/2022,1.02,2,5,327,,
31632999,Comfortable Large Bedroom 1B,89713962999,verified,Rob,Queens,Ridgewood,40.706520000000005,-73.90286,United States,US,True,strict,Private room,2004,$690 ,$138 ,5,9,2/5/2022,0.34,4,4,92,,
31633551,2Beds Studio apartment in Prime Location #1,42503207499,unconfirmed,Studioplus,Manhattan,Midtown,40.74608,-73.98852,United States,US,False,moderate,Entire home/apt,2014,$164 ,$33 ,2,34,2/5/2022,1.4,3,14,339,,
31634103,Modern Spacious 1BR Apt - Great QNS Location!,54362987233,unconfirmed,Sarfraz,Queens,Rego Park,40.73004,-73.86114,United States,US,True,strict,Entire home/apt,2013,$267 ,$53 ,4,20,2/5/2022,0.78,2,1,3,,
31634656,Love you,67882581634,unconfirmed,Shu,Brooklyn,Sunset Park,40.64542,-74.00641,United States,US,True,moderate,Private room,2015,$987 ,$197 ,1,26,2/5/2022,1.34,3,8,350,,
31635208,Beautiful Modern Apartment in Queens,24893488149,unconfirmed,Carmen,Queens,Elmhurst,40.741859999999996,-73.87475,United States,US,True,strict,Entire home/apt,2011,$367 ,$73 ,1,57,2/5/2022,2.33,2,2,173,,
31635760,Entire private sunny apt with 2 full bedrooms,43951807861,verified,Obee,Brooklyn,Williamsburg,40.718340000000005,-73.94003000000001,United States,US,False,moderate,Entire home/apt,2012,$195 ,$39 ,5,40,2/5/2022,1.66,3,2,79,,
31636312,Perfect retreat for a working professional,90677556118,unconfirmed,Simo,Brooklyn,Sheepshead Bay,40.58549,-73.94601999999999,United States,US,False,moderate,Entire home/apt,2007,"$1,132 ",$226 ,30,2,2/5/2022,0.98,4,1,364,,
31636865,Rare Upper East Side Furnished Studio w/ Balcony,39204977200,unconfirmed,Nezih,Manhattan,Upper East Side,40.7767,-73.94631,United States,US,False,flexible,Entire home/apt,2005,$668 ,$134 ,15,16,2/5/2022,0.9,3,1,250,,
31637417,"Live, Work, Stay in Prime Midtown 1 Br Apartment 2",10533106209,verified,Anthony And Elle,Manhattan,Midtown,40.75461,-73.97444,United States,US,True,flexible,Entire home/apt,2016,$376 ,$75 ,90,6,2/5/2022,0.39,2,3,135,,
31637969,Gorgeous Brooklyn Townhouse w/ Private Garden,89116802319,verified,Gian Franco,Brooklyn,Bushwick,40.69146,-73.91714,United States,US,False,moderate,Entire home/apt,2003,"$1,101 ",$220 ,30,30,2/5/2022,2.1,3,1,64,,
31638522,Sonder Battery Park | One-Bedroom Apartment,78174797938,verified,Sonder (NYC),Manhattan,Financial District,40.70617,-74.01482,United States,US,False,strict,Entire home/apt,2011,$426 ,$85 ,2,16,2/5/2022,1.09,3,54,362,,
31639074,Bright and Sunny Oasis in Williamsburg,69806065357,verified,Ken,Brooklyn,Williamsburg,40.71297,-73.96303,United States,US,False,moderate,Private room,2018,$281 ,$56 ,3,13,2/5/2022,0.85,2,1,3,,
31639626,NYC comfort in 2 bedroom,69651633707,unconfirmed,Kass,Brooklyn,Cypress Hills,40.68205,-73.89504000000001,United States,US,True,moderate,Entire home/apt,2007,$469 ,$94 ,3,30,2/5/2022,2.02,3,3,341,,
31640179,greenhouse NEWLY RENOVATED,89410457055,verified,Katherine,Queens,Hollis,40.70655,-73.76818,United States,US,False,strict,Entire home/apt,2011,$959 ,$192 ,1,33,2/5/2022,2.11,2,1,13,,
31640731,Private & Clean Full Apartment w/ Kitchen + Bath!,26316332952,unconfirmed,Christina,Manhattan,Harlem,40.81935,-73.94284,United States,US,True,flexible,Private room,2021,$419 ,$84 ,1,41,2/5/2022,2.76,5,2,15,,
31641283,Private Room @South Slope Sanctuary,54992710899,verified,Zahra,Brooklyn,Sunset Park,40.65793,-73.99129,United States,US,False,strict,Private room,2006,$920 ,$184 ,3,9,2/5/2022,0.87,2,1,121,,
31641835,Large King Bed Hotel Room,4687400572,verified,Justin,Manhattan,Financial District,40.70624,-74.00359,United States,US,True,flexible,Private room,2014,$952 ,$190 ,1,52,2/5/2022,3.51,3,102,22,,
31642388,Brand New Brooklyn Luxury Penthouse w/ Balcony,48347188231,unconfirmed,Marlene & Errol,Brooklyn,Midwood,40.61916,-73.95443,United States,US,False,moderate,Entire home/apt,2005,$269 ,$54 ,2,26,2/5/2022,5.38,5,2,0,,
31642940,Stylish Queen Queen Hotel Room,67054992543,verified,Michelle,Manhattan,Chelsea,40.74702,-73.99047,United States,US,False,strict,Private room,2017,$183 ,$37 ,1,14,2/5/2022,1.36,5,50,28,,
31643492,CHARMING PRIVATE ROOM- BY 3 METROS- WILLIAMSBURG,67397397479,unconfirmed,Nova & Marianne,Brooklyn,Williamsburg,40.70973,-73.94221,United States,US,True,moderate,Private room,2021,$513 ,$103 ,2,34,2/5/2022,3.23,5,5,341,,
31644045,Private room in beautiful neighborhood!,89349913656,unconfirmed,Raju,Queens,Woodhaven,40.6921,-73.86627,United States,US,True,moderate,Private room,2016,$716 ,$143 ,1,27,2/5/2022,2.61,4,1,153,,
31644597,Beautiful Private 2 Bedroom Brownstone,70312003363,verified,Jessica,Bronx,Kingsbridge,40.87177,-73.89981,United States,US,False,strict,Entire home/apt,2013,$704 ,$141 ,30,2,2/5/2022,0.48,5,1,179,,
31645149,Rear Facing XL Modern Studio Apartment,40090251363,verified,Ori,Manhattan,Hell's Kitchen,40.75568,-73.99695,United States,US,True,flexible,Entire home/apt,2010,$995 ,$199 ,30,4,2/5/2022,0.59,5,7,147,,
31645702,The west wing,23131629203,verified,Arazmis,Brooklyn,Williamsburg,40.71736,-73.95623,United States,US,False,strict,Private room,2006,$731 ,$146 ,1,26,2/5/2022,2.79,2,2,172,,
31646254,YANKEE STADüåÜ ENTIRE üè°  üõå 9 LUX CONDO üíª paid GARAGE,67945637250,unconfirmed,Godson,Bronx,Concourse Village,40.82092,-73.92437,United States,US,False,flexible,Entire home/apt,2014,"$1,188 ",$238 ,2,27,2/5/2022,3.03,4,1,365,,
31646806,Charming Chelsea/West Village 1-bedroom,8161202081,unconfirmed,Alexandre,Manhattan,Chelsea,40.741170000000004,-73.99962,United States,US,False,strict,Entire home/apt,2019,$556 ,$111 ,8,14,2/5/2022,1.56,2,1,0,,
31647358,"Home For Medical Professionals - ""Magnesium""",90200738451,verified,Stat,Brooklyn,East Flatbush,40.65876,-73.93578000000001,United States,US,False,moderate,Private room,2008,$916 ,$183 ,6,3,2/5/2022,0.91,4,52,282,,
31647911,Private Room in Cozy Williamsburg Apartment,2100300893,unconfirmed,Erica,Brooklyn,Williamsburg,40.71598,-73.94023,United States,US,False,flexible,Private room,2008,$279 ,$56 ,1,19,2/5/2022,2.37,4,2,80,,
31648463,AWESOME 1BDRM APARTMENT IN LES/EAST VILLAGE,52531811467,verified,Bianca,Manhattan,East Village,40.72583,-73.98603,United States,US,True,strict,Entire home/apt,2016,$320 ,$64 ,3,8,2/5/2022,1.16,2,1,230,,
31649015,Private Room to Stay in Queens - Awesome location,40574321157,unconfirmed,David,Queens,Ditmars Steinway,40.773790000000005,-73.91641,United States,US,True,strict,Private room,2005,$183 ,$37 ,1,28,2/5/2022,3.65,3,11,180,,
31649568,<B2> Bushwick Shared Room,9775478882,verified,Grace,Brooklyn,Bushwick,40.69377,-73.92593000000001,United States,US,False,strict,Shared room,2008,$837 ,$167 ,4,5,2/5/2022,0.8,3,6,166,,
31650120,Private room in a loft in trendy Bed Stuy,77970925741,unconfirmed,Katya,Brooklyn,Bedford-Stuyvesant,40.68715,-73.95031,United States,US,True,moderate,Private room,2009,"$1,005 ",$201 ,30,4,2/5/2022,0.76,4,12,296,,
31650672,Entire Apartment Near Times Square,16396440395,unconfirmed,Stay And Smile,Manhattan,Hell's Kitchen,40.76108,-73.9947,United States,US,False,strict,Entire home/apt,2015,$540 ,$108 ,3,8,2/5/2022,1.12,3,9,325,,
31651225,Spacious 1-Bedroom in the Heart of Chelsea,33713505811,verified,Rachel,Manhattan,Chelsea,40.74276,-73.99746999999999,United States,US,False,strict,Entire home/apt,2021,$515 ,$103 ,30,1,2/5/2022,1.0,2,4,111,,
31651777,Lovely 1BR one stop away from Manhattan,69324142748,unconfirmed,Inna,Queens,Long Island City,40.74496,-73.94201,United States,US,False,strict,Entire home/apt,2008,$954 ,$191 ,4,6,2/5/2022,0.86,3,1,0,,
31652329,Gillespie,36985462812,verified,Jake,Queens,St. Albans,40.68935,-73.77592,United States,US,False,strict,Private room,2004,$566 ,$113 ,1,27,2/5/2022,3.65,3,5,363,,
31652881,Modern Studio with Laundry - Doorman - Elevator,24659203213,unconfirmed,Nathan,Manhattan,Hell's Kitchen,40.75949,-73.99106,United States,US,False,flexible,Entire home/apt,2005,$358 ,$72 ,30,2,2/5/2022,0.92,2,37,339,,
31653434,Amazing Room in Brooklyn 2min from Subway Station,86774411297,verified,Carlos,Brooklyn,Bedford-Stuyvesant,40.679159999999996,-73.90926999999999,United States,US,False,moderate,Private room,2006,$381 ,$76 ,1,12,2/5/2022,2.34,4,8,180,,
