id,NAME,host id,host_identity_verified,host name,neighbourhood group,neighbourhood,lat,long,country,country code,instant_bookable,cancellation_policy,room type,Construction year,price,service fee,minimum nights,number of reviews,last review,reviews per month,review rate number,calculated host listings count,availability 365,house_rules,license
30825536,COZY 2 BEDROOM APARTAMENT IN AWESOME LOCATION,47621695845,verified,Mauricio,Queens,Long Island City,40.74731,-73.94901999999999,United States,US,False,moderate,Entire home/apt,2007,"$1,193 ",$239 ,1,1,2/15/2022,1.0,2,3,264,,
30826088,Best Location in NYC! TIMES SQUARE!,11108475537,verified,Luiz,Manhattan,Hell's Kitchen,40.75611,-73.99523,United States,US,False,strict,Private room,2006,$942 ,$188 ,2,357,2/14/2022,2.41,3,2,266,,
30826641,"Times Square, Safe, Clean and Cozy!",56505249460,unconfirmed,Luiz,Manhattan,Hell's Kitchen,40.756029999999996,-73.99294,United States,US,False,moderate,Private room,2021,"$1,129 ",$226 ,2,430,2/14/2022,2.99,2,2,281,,
30827193,Large Brand New Park Slope 1BR,67829092588,unconfirmed,Mi,Brooklyn,Gowanus,40.66952,-73.99201,United States,US,True,strict,Entire home/apt,2016,$647 ,$129 ,30,110,2/14/2022,0.84,2,1,52,,
30827745,"LES private apt, 1 bedroom & more",21741770056,unconfirmed,Blue,Manhattan,Lower East Side,40.72113,-73.98442,United States,US,False,strict,Entire home/apt,2017,$169 ,$34 ,28,107,2/14/2022,0.84,2,1,196,,
30828298,"Beautiful 2bd Apt near BK Museum, Crown Heights",3549714495,unconfirmed,Duane,Brooklyn,Crown Heights,40.667629999999996,-73.95836,United States,US,True,strict,Entire home/apt,2013,$425 ,$85 ,2,75,2/14/2022,0.62,4,5,224,,
30828850,Stunning 3BR loft in Williamsburg!!!,31417188883,unconfirmed,Phillip,Brooklyn,Williamsburg,40.714040000000004,-73.96077,United States,US,True,strict,Entire home/apt,2021,$696 ,$139 ,30,82,2/14/2022,0.72,2,2,60,,
30829402,"Modern Duplex 1 bdrm , 1.5 Baths + terrace!",58150046847,verified,Mark,Manhattan,Upper East Side,40.77451,-73.9574,United States,US,True,strict,Entire home/apt,2006,$571 ,$114 ,1,146,2/14/2022,1.36,5,1,350,,
30829954,Beautiful new one bedroom apartment,74410108293,verified,Trevor,Brooklyn,Bedford-Stuyvesant,40.68942,-73.93897,United States,US,False,strict,Entire home/apt,2003,$206 ,$41 ,3,278,2/14/2022,2.6,3,1,203,,
30830507,Authentic Soho Loft (1200 sq ft),29967539945,unconfirmed,Norwin,Manhattan,Tribeca,40.72118,-74.00567,United States,US,False,moderate,Entire home/apt,2019,$241 ,$48 ,2,197,2/14/2022,1.87,3,1,22,,
30831059,Gramercy apartment,53773525723,verified,Raul,Manhattan,Kips Bay,40.74002,-73.9802,United States,US,True,flexible,Entire home/apt,2017,"$1,113 ",$223 ,3,66,2/14/2022,0.71,3,1,182,,
30831611,"Chelsea/Penn Station Studio has Washer/Dryer, WiFi",32433460656,unconfirmed,Michael,Manhattan,Chelsea,40.75038,-73.99625,United States,US,False,strict,Entire home/apt,2010,$959 ,$192 ,55,32,2/14/2022,0.31,2,20,278,,
30832164,Bright East Village Bedroom w/ Private Bath,11917654865,unconfirmed,Kim,Manhattan,East Village,40.72547,-73.97711,United States,US,False,moderate,Private room,2021,$732 ,$146 ,1,207,2/14/2022,3.25,3,1,95,,
30832716,NEW Stylish + Clean Basement Studio Suite - BKLYN!,82182779082,unconfirmed,Chris And Zach,Brooklyn,East Flatbush,40.64712,-73.9466,United States,US,False,moderate,Entire home/apt,2015,$860 ,$172 ,3,323,2/14/2022,3.1,4,3,101,,
30833268,Private Ground Floor Studio Apt PLUS Driveway,97345537938,unconfirmed,Kerri & Steve,Queens,Rego Park,40.7198,-73.85915,United States,US,True,flexible,Entire home/apt,2006,$317 ,$63 ,3,146,2/14/2022,1.46,4,1,234,,
30833821,Chic & Clean 1 Bedroom - Prospect Park - Pets Ok,6993046495,verified,Richard,Brooklyn,Windsor Terrace,40.657740000000004,-73.97556999999999,United States,US,False,moderate,Entire home/apt,2015,$724 ,$145 ,1,227,2/14/2022,2.36,2,3,12,,
30834373,Sun filled 2BR in BedStuy Townhouse,7435624863,unconfirmed,Josandra,Brooklyn,Bedford-Stuyvesant,40.68562,-73.92219,United States,US,True,moderate,Entire home/apt,2019,$462 ,$92 ,2,392,2/14/2022,4.19,5,1,138,,
30834925,Beautiful 2br in Williamsburg,89798667337,unconfirmed,Amitai,Brooklyn,Williamsburg,40.7187,-73.94903000000001,United States,US,False,moderate,Entire home/apt,2020,$301 ,$60 ,30,61,2/14/2022,0.66,2,1,103,,
30835477,GORGEOUS 2 Bedroom in Queens NYC,56853014096,unconfirmed,Mark,Queens,Kew Gardens Hills,40.72872,-73.82548,United States,US,True,strict,Entire home/apt,2016,$328 ,$66 ,3,135,2/14/2022,1.59,2,2,345,,
30836030,1st Time/Solo/Duo Travelers!Charming Studio Share!,40372147813,unconfirmed,Sue,Manhattan,Chelsea,40.74773,-74.00144,United States,US,True,strict,Shared room,2008,$811 ,$162 ,2,173,2/14/2022,2.14,5,1,303,,
30836582,"Comfy 4br, 2 full baths, 3 fls, 2 living rooms",84184172110,verified,Hill,Brooklyn,Williamsburg,40.71221,-73.95059,United States,US,False,moderate,Entire home/apt,2019,"$1,061 ",$212 ,2,100,2/14/2022,2.6,4,1,201,,
30837134,Mod 3 BR duplex-East Village,45636164112,unconfirmed,Cara,Manhattan,East Village,40.72655,-73.97775,United States,US,False,strict,Private room,2014,$150 ,$30 ,2,228,2/14/2022,3.15,5,1,90,,
30837687,"Bright, Cheerful, Safe and Private Apartment",94009060482,unconfirmed,David,Brooklyn,Clinton Hill,40.69576,-73.96181,United States,US,False,strict,Entire home/apt,2016,"$1,144 ",$229 ,30,131,2/14/2022,2.03,3,1,365,,
30838239,Easy Great Private Room!,66310530508,unconfirmed,Lord Daniel,Brooklyn,Bedford-Stuyvesant,40.68622,-73.95257,United States,US,False,strict,Private room,2013,$657 ,$131 ,15,41,2/14/2022,0.5,5,5,30,,
30838791,[301] 5 min WALK to Times Square,14194775026,unconfirmed,Akiko & Cindy,Manhattan,Hell's Kitchen,40.76032,-73.98921,United States,US,True,moderate,Private room,2005,$728 ,$146 ,28,252,2/14/2022,3.1,5,9,341,,
30839344,Modern 19th C West Village Charmer,74188062811,unconfirmed,Chavi,Manhattan,West Village,40.73491,-74.00151,United States,US,True,moderate,Entire home/apt,2017,$443 ,$89 ,1,14,2/14/2022,0.17,4,1,0,,
30839896,Huge Duplex only minutes from NYC,30789538124,verified,Omar And Kareema,Brooklyn,Bushwick,40.68933,-73.91848,United States,US,True,moderate,Entire home/apt,2009,$857 ,$171 ,3,235,2/14/2022,3.04,5,1,161,,
30840448,Stay next to TimesSquare & Broadway,26959587007,verified,Peter,Manhattan,Hell's Kitchen,40.76231,-73.99322,United States,US,False,moderate,Entire home/apt,2020,$944 ,$189 ,1,65,2/14/2022,0.85,2,2,1,,
30841000,"Sunny bedroom with balcony, Queens",40120690054,verified,Maya,Queens,Elmhurst,40.740840000000006,-73.88995,United States,US,True,strict,Private room,2011,$105 ,$21 ,1,181,2/14/2022,2.35,5,2,355,,
30841553,Deluxe Loft Suite in Greenpoint,68634190926,unconfirmed,Henry Norman,Brooklyn,Greenpoint,40.72847,-73.94337,United States,US,True,flexible,Entire home/apt,2005,$959 ,$192 ,3,60,2/14/2022,0.8,5,14,324,,
30842105,"Room 5, Victorian Home to Enjoy!",93045318121,verified,Laura,Brooklyn,Flatbush,40.6428,-73.96173,United States,US,True,strict,Private room,2013,$722 ,$144 ,2,164,2/14/2022,2.23,5,2,162,,
30842657,Private Studio: Landmark Dt (Smart TV/Wifi/Cable),78660262224,verified,Louise,Brooklyn,Flatbush,40.64448,-73.96539,United States,US,False,flexible,Entire home/apt,2011,$913 ,$183 ,4,155,2/14/2022,2.11,2,3,285,,
30843210,3 bedroom in the heart of Manhattan,47028712337,verified,Martin,Manhattan,Hell's Kitchen,40.76003,-73.99204,United States,US,False,strict,Entire home/apt,2009,$796 ,$159 ,3,193,2/14/2022,2.62,2,1,164,,
30843762,Charming Modern Bed-Stuy Brooklyn Townhouse,83743910951,unconfirmed,Nicole And Nathan,Brooklyn,Bedford-Stuyvesant,40.682026,-73.915649,United States,US,True,flexible,Entire home/apt,2018,$843 ,$169 ,5,38,2/14/2022,1.19,2,1,68,,
30844314,(FV) Sunny Private room Central Harlem,82753878488,verified,J,Manhattan,Harlem,40.81147,-73.94077,United States,US,False,flexible,Private room,2007,$317 ,$63 ,4,101,2/14/2022,1.42,5,2,162,,
30844867,Beautiful Spacious Apartment near Prospect Park,22497162769,unconfirmed,Althea,Brooklyn,Windsor Terrace,40.65922,-73.97898,United States,US,False,strict,Entire home/apt,2020,$196 ,$39 ,4,121,2/14/2022,1.78,4,1,233,,
30845419,"Spacious, 1 Bedroom Hell's Kitchen",89791909003,verified,Farhan,Manhattan,Hell's Kitchen,40.76113,-73.99438,United States,US,False,moderate,Entire home/apt,2014,"$1,038 ",$208 ,2,5,2/14/2022,1.1,3,1,0,,
30845971,Private suite in Carroll Gardens,6664204663,unconfirmed,Mark,Brooklyn,Carroll Gardens,40.67788,-73.99874,United States,US,False,moderate,Private room,2007,$563 ,$113 ,2,347,2/14/2022,5.31,5,1,33,,
30846523,Beautiful 2 bedroom private suite,36404216742,verified,Razia,Manhattan,Harlem,40.8035,-73.94918,United States,US,False,strict,Entire home/apt,2010,$750 ,$150 ,4,94,2/14/2022,1.39,2,2,71,,
30847076,"Large studio in Williamsburg, 4B",95561930277,unconfirmed,Krzysztof,Brooklyn,Greenpoint,40.72141,-73.94274,United States,US,True,strict,Entire home/apt,2018,$527 ,$105 ,30,14,2/14/2022,0.22,4,7,68,,
30847628,Carroll Gardens Apartment,16034245991,verified,Viki,Brooklyn,Cobble Hill,40.68533,-73.99775,United States,US,True,strict,Entire home/apt,2017,"$1,087 ",$217 ,2,264,2/14/2022,4.04,4,2,184,,
30848180,Entire Spacious 2 Bed Apt on UWS,90593541652,unconfirmed,Jenny,Manhattan,Upper West Side,40.80072,-73.96325,United States,US,False,strict,Entire home/apt,2019,$141 ,$28 ,30,86,2/14/2022,1.47,4,2,309,,
30848733,"Independent Apt steps to Park, Subway, Restaurants",4717721495,unconfirmed,Tanya,Brooklyn,Windsor Terrace,40.65677,-73.98216,United States,US,True,moderate,Entire home/apt,2021,$481 ,$96 ,4,136,2/14/2022,2.14,2,1,75,,
30849285,"Privacy, comfort, style in the heart of Park Slope",56555294151,unconfirmed,Alfred,Brooklyn,Park Slope,40.670809999999996,-73.97725,United States,US,True,strict,Entire home/apt,2004,$999 ,$200 ,5,166,2/14/2022,2.59,2,1,158,,
30849837,"Sunny,Private,Clean,TV, Queen Bed, in Ridgewood,NY",18332027009,verified,Katarina,Queens,Ridgewood,40.698679999999996,-73.89771999999999,United States,US,True,flexible,Entire home/apt,2005,$923 ,$185 ,5,149,2/14/2022,3.2,4,2,64,,
30850390,PreSpring Sale..Sun-Soaked Hideaway~ 2 Bedroom Apt,63665357214,verified,Thomas,Brooklyn,Bedford-Stuyvesant,40.6895,-73.93589,United States,US,True,strict,Entire home/apt,2014,$420 ,$84 ,3,96,2/14/2022,1.57,2,1,67,,
30850942,Sunny Chelsea Oasis,81602476960,verified,Eric,Manhattan,Chelsea,40.743320000000004,-74.00078,United States,US,False,flexible,Entire home/apt,2012,"$1,034 ",$207 ,2,209,2/14/2022,3.36,4,1,222,,
30851494,Artists' Room in Beautiful Brownstone Brooklyn,92543924075,unconfirmed,Chelsea,Brooklyn,Carroll Gardens,40.67978,-73.99361999999999,United States,US,True,moderate,Private room,2003,$425 ,$85 ,3,131,2/14/2022,2.17,5,1,47,,
30852046,Charming & Affordable Shared Studio  in WestHarlem,88235172003,unconfirmed,Janu,Manhattan,Harlem,40.80014,-73.95603,United States,US,True,strict,Shared room,2018,$354 ,$71 ,2,122,2/14/2022,2.07,3,2,8,,
30852599,Tidy room  separate entrance plus paid parking,60657982628,verified,Jimmy &Cindy,Queens,Flushing,40.7555,-73.81665,United States,US,True,strict,Private room,2006,$879 ,$176 ,3,90,2/14/2022,1.53,4,8,90,,
30853151,Urban jungle vibes in the Bronx,22471295738,verified,Sheila,Bronx,Schuylerville,40.83228,-73.834,United States,US,False,strict,Private room,2015,$134 ,$27 ,3,52,2/14/2022,1.02,3,3,178,,
30853703,"""WELCOME TO BROOKLYN"" PARK SIDE VIEW STUDIO APT",88863724741,unconfirmed,R.J,Brooklyn,Bedford-Stuyvesant,40.69024,-73.94671,United States,US,True,strict,Entire home/apt,2011,$642 ,$128 ,1,365,2/14/2022,6.21,5,4,41,,
30854256,Lovely studio in Bushwick,23688188755,unconfirmed,Clemence,Brooklyn,Bushwick,40.69614,-73.91173,United States,US,False,moderate,Entire home/apt,2013,$375 ,$75 ,3,58,2/14/2022,1.06,3,1,60,,
30854808,Cozy Brooklyn Oasis,15233352925,verified,Linda,Brooklyn,Bedford-Stuyvesant,40.6878,-73.9398,United States,US,True,moderate,Entire home/apt,2006,$534 ,$107 ,1,256,2/14/2022,4.47,5,2,324,,
30855360,"Quiet, cozy room just across the Brooklyn Museum",65313283394,unconfirmed,Yuval,Brooklyn,Crown Heights,40.67276,-73.96238000000001,United States,US,False,strict,Private room,2013,$57 ,$11 ,1,260,2/14/2022,4.5,2,3,94,,
30855913,Cozy private room Near Central Park,84153786854,verified,Jolly,Manhattan,East Harlem,40.78855,-73.94679000000001,United States,US,True,strict,Private room,2022,$130 ,$26 ,5,58,2/14/2022,1.04,3,1,357,,
30856465,Large bedroom in the center of Fresh Meadows,56795349887,verified,FuKang,Queens,Fresh Meadows,40.73795,-73.79302,United States,US,False,flexible,Private room,2005,$941 ,$188 ,1,53,2/14/2022,0.93,4,6,364,,
30857017,Shay‚Äôs Hut,46050393856,unconfirmed,Mishay,Queens,St. Albans,40.69158,-73.75647,United States,US,True,strict,Entire home/apt,2021,$244 ,$49 ,2,119,2/14/2022,2.15,5,1,311,,
30857569,2BR PH Loft and Executive Office Central Manhattan,42701536595,unconfirmed,Jacqueline,Manhattan,Flatiron District,40.74382,-73.98957,United States,US,True,moderate,Entire home/apt,2017,$528 ,$106 ,3,82,2/14/2022,1.53,4,1,29,,
30858122,Fort Greene Getaway with Private Deck (30 Day Min),49311893900,verified,Emilia And Michael,Brooklyn,Fort Greene,40.68554,-73.96951999999999,United States,US,False,flexible,Entire home/apt,2004,$832 ,$166 ,30,109,2/14/2022,2.0,2,1,144,,
30858674,Bright & Spacious 1000 sq ft Chinatown Loft,57564454374,verified,Jaymie,Manhattan,Chinatown,40.71632,-73.99273000000001,United States,US,False,flexible,Entire home/apt,2007,$170 ,$34 ,4,44,2/14/2022,0.81,3,1,59,,
30859226,Cozy yet spacious private brownstone bedroom,83366754913,verified,Adeyemi,Brooklyn,Bedford-Stuyvesant,40.6821,-73.91245,United States,US,False,strict,Private room,2011,$376 ,$75 ,1,193,2/14/2022,3.56,3,6,257,,
30859779,NO CLEANING FEE: Bronx hostel-style PRIVATE ROOM,59014797586,unconfirmed,Shera,Bronx,Wakefield,40.89748,-73.85497,United States,US,False,moderate,Private room,2009,$302 ,$60 ,1,333,2/14/2022,6.1,4,6,20,,
30860331,Queens 20 mins to subway- 15 mins JFK- walk to bus,29229205736,verified,Beverley,Queens,St. Albans,40.69422,-73.74880999999999,United States,US,False,moderate,Private room,2005,$58 ,$12 ,1,237,2/14/2022,4.66,2,1,335,,
30860883,"‚ú∞Spacious, bright & modern room in Prime Bushwick!",21716802203,unconfirmed,Rahul,Brooklyn,Bushwick,40.6994,-73.92947,United States,US,True,strict,Private room,2010,$90 ,$18 ,3,134,2/14/2022,2.62,2,1,154,,
30861436,Ashes Cove,6966563276,unconfirmed,Aston,Queens,Springfield Gardens,40.662409999999994,-73.77154,United States,US,True,moderate,Entire home/apt,2012,$106 ,$21 ,1,62,2/14/2022,1.2,5,3,359,,
30861988,Spacious bedroom away from home,5170750443,verified,Jeanette,Manhattan,Washington Heights,40.83718,-73.94547,United States,US,False,strict,Private room,2009,$486 ,$97 ,2,157,2/14/2022,3.0,5,1,327,,
30862540,Comfortable 1 Bedroom Apartment,29744460925,verified,Chris,Brooklyn,Bath Beach,40.60882,-74.0054,United States,US,True,strict,Entire home/apt,2003,$379 ,$76 ,3,119,2/14/2022,2.44,5,1,314,,
30863092,Spacious 2-bedroom Apt in Heart of Greenpoint,16588752737,verified,Vishanti & Jeremy,Brooklyn,Greenpoint,40.723890000000004,-73.95376,United States,US,True,moderate,Entire home/apt,2021,$560 ,$112 ,2,193,2/14/2022,3.74,4,1,21,,
30863645,LARGE Best Loc & View of NYC! 10 Min to Time Sqr,7980237677,unconfirmed,Larry,Queens,Long Island City,40.74423,-73.95953,United States,US,False,moderate,Entire home/apt,2005,$519 ,$104 ,2,118,2/14/2022,2.36,3,3,4,,
30864197,The Explorer's Lounge in Bushwick,69577881311,unconfirmed,Beth,Brooklyn,Bushwick,40.69915,-73.93706,United States,US,False,moderate,Entire home/apt,2011,$730 ,$146 ,2,188,2/14/2022,3.89,3,1,164,,
30864749,A cozy garden apartment,98715056930,verified,Christopher,Brooklyn,Crown Heights,40.67711,-73.94861,United States,US,True,moderate,Entire home/apt,2008,$211 ,$42 ,2,165,2/14/2022,3.59,5,1,298,,
30865302,Large 1 bedroom and private bath in Astoria,61162506625,unconfirmed,Gentry,Queens,Long Island City,40.758379999999995,-73.92869,United States,US,True,moderate,Private room,2018,$477 ,$95 ,2,35,2/14/2022,0.78,2,1,78,,
30865854,1 Bed in a 6-Bed Mixed Gender Dorm with Private Bathroom,1117404135,verified,The Local,Queens,Long Island City,40.749435,-73.94783000000001,United States,US,True,flexible,Shared room,2018,$695 ,$139 ,1,39,2/14/2022,0.85,4,5,357,,
30866406,Private Garden. Trendy Williamsburg location!,11391808001,verified,Artem,Brooklyn,Williamsburg,40.71397,-73.94185,United States,US,True,flexible,Entire home/apt,2017,$865 ,$173 ,2,126,2/14/2022,2.8,4,2,272,,
30866959,"Private Queen bedroom in Chinatown, NYC",55315345481,verified,Amiee,Manhattan,Chinatown,40.71488,-73.99535,United States,US,False,strict,Private room,2009,$709 ,$142 ,1,183,2/14/2022,4.04,3,8,98,,
30867511,"Cozy Room Great Price in Bushwick, Bklyn!(Suite 3)",8695437837,unconfirmed,Oscar,Brooklyn,Bushwick,40.68926,-73.90803000000001,United States,US,False,strict,Private room,2016,$485 ,$97 ,3,117,2/14/2022,2.6,3,4,84,,
30868063,Private Apartment 30mins from Times Square,48377320228,unconfirmed,Christopher,Manhattan,Inwood,40.868390000000005,-73.92015,United States,US,True,moderate,Entire home/apt,2014,$286 ,$57 ,3,81,2/14/2022,1.88,2,1,266,,
30868615,Beautiful and Clean Private Bedroom with Bathroom,33685554146,verified,Zi,Queens,College Point,40.78086,-73.84665,United States,US,False,flexible,Private room,2004,$897 ,$179 ,3,59,2/14/2022,1.33,4,2,41,,
30869168,"JFK Queens Home away from Home""House Of Suedajoy#3",81208148865,verified,Suzan,Queens,Jamaica,40.671620000000004,-73.77911,United States,US,True,strict,Private room,2003,$618 ,$124 ,1,108,2/14/2022,2.4,4,6,179,,
30869720,20 Minutes to Times Square - 3 Bedroom Apartment,11862110255,verified,Mehedhi,Queens,Woodside,40.74173,-73.90586,United States,US,True,flexible,Entire home/apt,2021,$366 ,$73 ,5,159,2/14/2022,3.57,2,1,86,,
30870272,Charming Private Room - Near 2 Metros,3457775246,unconfirmed,"Aarron, Scott And Michael",Brooklyn,Williamsburg,40.70813,-73.93279,United States,US,False,flexible,Private room,2019,$632 ,$126 ,2,92,2/14/2022,2.1,3,4,342,,
30870825,Spacious duplex for creatives in Brooklyn,82082227390,verified,O,Brooklyn,Bedford-Stuyvesant,40.68039,-73.94368,United States,US,False,strict,Entire home/apt,2020,$94 ,$19 ,3,7,2/14/2022,0.16,3,1,166,,
30871377,Jay's Studio Apartment,88789905243,verified,Jehan,Bronx,Allerton,40.8693,-73.85644,United States,US,False,flexible,Entire home/apt,2004,$158 ,$32 ,4,100,2/14/2022,2.3,2,1,152,,
30871929,Cozy room/Private bath. in the room. Mid Flushing,72775268537,verified,Liqin,Queens,Flushing,40.7593,-73.8199,United States,US,False,flexible,Private room,2003,"$1,163 ",$233 ,1,64,2/14/2022,1.47,3,8,361,,
30872482,ELEXEY'S COMFORT....This room is small and cozy.,38977026949,unconfirmed,Michelle,Queens,St. Albans,40.70602,-73.75861,United States,US,True,moderate,Private room,2005,$937 ,$187 ,2,128,2/14/2022,2.96,2,4,365,,
30873034,Brand New 1 Bedroom w/Parking-25 Mins to Manhattan,70684170854,verified,Philip,Queens,Douglaston,40.76741,-73.74616999999999,United States,US,True,flexible,Entire home/apt,2015,"$1,050 ",$210 ,3,49,2/14/2022,1.14,5,1,79,,
30873586,"Industrial Chic, Owners Suite",79074468962,verified,Vaughn,Brooklyn,East Flatbush,40.65922,-73.92051,United States,US,False,moderate,Entire home/apt,2018,$578 ,$116 ,2,109,2/14/2022,2.67,5,1,152,,
30874138,Central Park Cozy Private Room w Rooftop Patio,59360012712,unconfirmed,Min,Manhattan,Upper East Side,40.777029999999996,-73.95106,United States,US,True,strict,Private room,2005,$462 ,$92 ,1,182,2/14/2022,4.33,5,3,319,,
30874691,Beautiful Private Room with Laundry - Williamsburg,89128959879,verified,"Sharon, Ivy And Andrew",Brooklyn,Williamsburg,40.708890000000004,-73.9658,United States,US,True,flexible,Private room,2020,$319 ,$64 ,2,24,2/14/2022,3.33,4,6,342,,
30875243,Modern Apartment in Brooklyn with deck and yard,71632546059,unconfirmed,Maruf,Brooklyn,Kensington,40.64196,-73.98302,United States,US,True,moderate,Entire home/apt,2020,$913 ,$183 ,2,72,2/14/2022,1.82,5,2,308,,
30875795,Pelham Gardens Entire Home *Newly Built*,78568669697,verified,Sadio,Bronx,Pelham Gardens,40.86347,-73.84128,United States,US,True,flexible,Entire home/apt,2015,$185 ,$37 ,2,77,2/14/2022,1.93,2,1,364,,
30876348,‚òÖ PRIVATE NYC STUDIO‚òÖSTEPS FROM TRAIN‚òÖQUEEN BED‚òÖ,52236960634,unconfirmed,Michael,Staten Island,Dongan Hills,40.583890000000004,-74.10491999999999,United States,US,False,flexible,Entire home/apt,2012,$90 ,$18 ,3,46,2/14/2022,1.15,4,1,32,,
30876900,BEST Bushwick Lower Level Apt 15 mins to Manhattan,71718967296,unconfirmed,Gordon,Brooklyn,Bushwick,40.69232,-73.92412,United States,US,False,moderate,Entire home/apt,2022,$107 ,$21 ,3,91,2/14/2022,2.31,4,3,143,,
30877452,Cozy apartment in heart of BedStuy,87192193777,verified,Dania,Brooklyn,Bedford-Stuyvesant,40.6872,-73.93213,United States,US,True,flexible,Entire home/apt,2020,$384 ,$77 ,2,4,2/14/2022,0.12,5,1,0,,
30878005,Luxury in Brooklyn,35479280222,unconfirmed,Franklyn,Brooklyn,Bushwick,40.68209,-73.90553,United States,US,True,flexible,Entire home/apt,2016,$248 ,$50 ,3,103,2/14/2022,2.64,2,1,31,,
30878557,Lovely spacious 1 BR apartment in Williamsburg,88035203503,verified,Vanessa,Brooklyn,Williamsburg,40.7082,-73.9493,United States,US,True,strict,Entire home/apt,2022,$949 ,$190 ,30,14,2/14/2022,0.37,5,3,81,,
30879109,Manhattan  renovated flat near Central Park.,31491513461,verified,Emmanuel,Manhattan,East Harlem,40.79441,-73.93929,United States,US,True,strict,Entire home/apt,2018,$648 ,$130 ,1,134,2/14/2022,3.44,5,1,15,,
30879661,Private Room Inside Historic Loft,1198944936,verified,Victor,Brooklyn,Williamsburg,40.706520000000005,-73.93654000000001,United States,US,False,flexible,Private room,2019,$842 ,$168 ,30,5,2/14/2022,0.13,2,1,10,,
30880214,Cozy Studio in Queens,98628854303,verified,Natalia,Queens,Woodside,40.74858,-73.89856999999999,United States,US,True,flexible,Entire home/apt,2012,$390 ,$78 ,1,78,2/14/2022,3.03,5,1,35,,
30880766,Cute Studio in Central of Midtown,4494133731,unconfirmed,Studioplus,Manhattan,Midtown,40.74772,-73.98682,United States,US,True,flexible,Entire home/apt,2007,$648 ,$130 ,2,89,2/14/2022,2.47,5,14,300,,
30881318,"Cozy Private Room, Walking Distance From LGA, Rm 6",49810887694,unconfirmed,Zahir,Queens,East Elmhurst,40.76913,-73.87161,United States,US,True,flexible,Private room,2014,$718 ,$144 ,1,260,2/14/2022,7.26,3,8,167,,
30881871,Industrial bedroom  1 minute to Subway,17967916778,verified,Patnaree,Brooklyn,Bedford-Stuyvesant,40.688390000000005,-73.95452,United States,US,False,moderate,Private room,2008,$660 ,$132 ,2,70,2/14/2022,2.08,2,7,300,,
30882423,Germania's Deluxe Palace,9550572712,verified,Giovanna,Queens,Jamaica Hills,40.71543,-73.80722,United States,US,True,strict,Entire home/apt,2020,$763 ,$153 ,2,98,2/14/2022,2.76,3,2,306,,
30882975,Chic Blush Shine,48305087893,unconfirmed,Jackie,Manhattan,Chinatown,40.71474,-73.99096,United States,US,True,strict,Private room,2004,$693 ,$139 ,2,129,2/14/2022,3.63,2,2,199,,
30883528,Private Room in Newly Renovated Apartment,56184470380,unconfirmed,Lana,Queens,Kew Gardens,40.707142,-73.82867399999999,United States,US,True,strict,Private room,2019,$208 ,$42 ,7,27,2/14/2022,0.77,3,14,280,,
30884080,"Convenient, bright 1Bdr in Williamsburg, Brooklyn",19680532289,unconfirmed,Jeff,Brooklyn,Williamsburg,40.71201,-73.96089,United States,US,False,strict,Entire home/apt,2018,$909 ,$182 ,5,10,2/14/2022,0.28,2,1,0,,
30884632,Comfortable Clean Private Room with Bunk Beds,85197902374,unconfirmed,Jeff And Michelle,Brooklyn,Bensonhurst,40.614779999999996,-73.99031,United States,US,True,moderate,Private room,2021,$121 ,$24 ,2,11,2/14/2022,0.42,2,2,57,,
30885184,Spacious King Room near Times Square,35022331536,verified,The Michelangelo,Manhattan,Theater District,40.76157,-73.98257,United States,US,False,moderate,Hotel room,2016,"$1,150 ",$230 ,1,23,2/14/2022,0.7,2,7,318,,
30885737,Stunning Modern Farmhouse,59586468208,unconfirmed,Karilyn,Staten Island,Grant City,40.58032,-74.11117,United States,US,False,flexible,Entire home/apt,2005,$737 ,$147 ,4,52,2/14/2022,1.62,2,2,330,,
30886289,Home SWEET Home for a day or 2,22303153800,verified,Jacqueline,Queens,St. Albans,40.69075,-73.7573,United States,US,False,strict,Private room,2021,$774 ,$155 ,1,185,2/14/2022,5.4,4,1,363,,
30886841,Newly Renovated 5 Bed 2 Bath Spacious Apartment,66403530010,unconfirmed,Philip,Brooklyn,Crown Heights,40.66487,-73.93006,United States,US,False,flexible,Entire home/apt,2021,"$1,137 ",$227 ,3,36,2/14/2022,1.08,4,4,294,,
30887394,Huge 1br/studio in the heart of Williamsburg,56452809848,unconfirmed,Seymur,Brooklyn,Williamsburg,40.71705,-73.95652,United States,US,True,flexible,Entire home/apt,2011,$330 ,$66 ,5,44,2/14/2022,1.34,2,1,34,,
30887946,‚òÖ5 MILLION DOLLAR TOWNHOUSE‚òÖ,52257539267,unconfirmed,Sam,Manhattan,Harlem,40.824009999999994,-73.94247,United States,US,False,strict,Entire home/apt,2020,$184 ,$37 ,3,174,2/14/2022,5.44,5,1,235,,
30888498,Authentic Brooklyn Artist Loft Experience,47233401763,verified,Josh,Brooklyn,Williamsburg,40.70797,-73.95188,United States,US,True,strict,Entire home/apt,2009,$860 ,$172 ,4,62,2/14/2022,1.91,4,1,321,,
30889051,Charming 1 Bedroom Apartment in Clinton Hill,65503155319,unconfirmed,Anokye,Brooklyn,Clinton Hill,40.687290000000004,-73.96124,United States,US,False,moderate,Entire home/apt,2018,$756 ,$151 ,3,67,2/14/2022,2.08,4,1,169,,
30889603,Cozy Queen bed in Quiet Bedstuy!,44839767981,unconfirmed,Wa,Brooklyn,Bedford-Stuyvesant,40.692679999999996,-73.94082,United States,US,True,moderate,Private room,2021,$191 ,$38 ,1,19,2/14/2022,0.59,5,3,301,,
30890155,Perfectly Located Organic Getaway,79616935057,verified,Isabel,Manhattan,Upper West Side,40.798,-73.96174,United States,US,False,strict,Shared room,2020,$911 ,$182 ,2,48,2/14/2022,1.5,2,3,220,,
30890707,"Bright, brand-new designer condo with balcony",78233600610,verified,Adam,Brooklyn,Williamsburg,40.71147,-73.94896,United States,US,True,strict,Entire home/apt,2021,$933 ,$187 ,30,36,2/14/2022,1.17,4,1,3,,
30891260,New 3BR 2Full Bath Apartment With Dryer & Washer,51591454930,verified,Philip,Brooklyn,Crown Heights,40.66928,-73.95058,United States,US,False,moderate,Entire home/apt,2017,$500 ,$100 ,3,30,2/14/2022,0.99,4,4,324,,
30891812,The home of love 2,84247749980,unconfirmed,Shu,Brooklyn,Sunset Park,40.64528,-74.00465,United States,US,True,strict,Private room,2014,$800 ,$160 ,1,34,2/14/2022,1.13,3,8,174,,
30892364,"Beautiful, Clean, Rustic, Luxury Waterfront Lodge",5364346789,verified,Adam,Brooklyn,Williamsburg,40.71732,-73.96663000000001,United States,US,False,strict,Entire home/apt,2021,$509 ,$102 ,1,25,2/14/2022,0.84,2,1,20,,
30892917,1 bedroom presidential In The Big NY City,52633034979,unconfirmed,Angela,Manhattan,Midtown,40.7516,-73.97187,United States,US,False,moderate,Entire home/apt,2012,$486 ,$97 ,2,6,2/14/2022,0.25,5,2,3,,
30893469,one bed apartment in the heart of staten island,29923265905,verified,Mehmet,Staten Island,Mariners Harbor,40.626670000000004,-74.15075999999999,United States,US,True,flexible,Entire home/apt,2014,$320 ,$64 ,2,24,2/14/2022,0.88,2,1,179,,
30894021,West Village - true 1 Bedroom,55988178230,unconfirmed,Jo,Manhattan,West Village,40.73707,-74.00769,United States,US,True,flexible,Entire home/apt,2007,$718 ,$144 ,2,29,2/14/2022,0.99,3,1,5,,
30894574,Huge Perfect! 3BR/2Bath- 5min JFK & Resorts Casino,91797313405,unconfirmed,Larry,Queens,Jamaica,40.67003,-73.78013,United States,US,True,moderate,Entire home/apt,2007,$809 ,$162 ,2,45,2/14/2022,1.76,2,1,151,,
30895126,Shared Room For Cool Low Maintenance People #3,32611226606,unconfirmed,Amy,Brooklyn,Bushwick,40.68801,-73.90828,United States,US,True,flexible,Shared room,2008,$191 ,$38 ,5,13,2/14/2022,0.45,2,9,126,,
30895678,Home away from home minutes from jfk,79059539546,verified,Oneil,Queens,Cambria Heights,40.70296,-73.74271,United States,US,True,flexible,Entire home/apt,2005,$845 ,$169 ,7,28,2/14/2022,1.09,3,1,175,,
30896230,Best deal in Queens! Our Cozy Guest Room,62184973617,verified,Payton,Queens,Woodside,40.74366,-73.90164,United States,US,False,flexible,Private room,2013,"$1,170 ",$234 ,2,43,2/14/2022,1.58,3,1,6,,
30896783,"Cozy, quiet, private 1 br apt NO SMOKING ALLOWED",15665091466,verified,Johanna,Bronx,Schuylerville,40.83345,-73.82839,United States,US,True,flexible,Entire home/apt,2012,$674 ,$135 ,1,6,2/14/2022,1.78,5,1,358,,
30897335,3 Bedroom Quietly Close To Everything,57062720093,unconfirmed,Alejandro,Queens,Ridgewood,40.70868,-73.91133,United States,US,True,flexible,Entire home/apt,2007,$955 ,$191 ,1,52,2/14/2022,1.97,3,1,282,,
30897887,Cirlu Pride,47918648458,unconfirmed,Erma,Brooklyn,Crown Heights,40.671209999999995,-73.9267,United States,US,True,strict,Entire home/apt,2006,$225 ,$45 ,3,19,2/14/2022,0.76,2,2,72,,
30898440,"Comfy & sunny 1 BR apartment, Bed Stuy/Bushwick",90476714201,unconfirmed,Elaine,Brooklyn,Bedford-Stuyvesant,40.68618,-73.92154000000001,United States,US,False,moderate,Entire home/apt,2017,$712 ,$142 ,1,9,2/14/2022,2.39,4,1,54,,
30898992,Come Relax in Brooklyn and Be My Guest,68425977346,unconfirmed,Jenny,Brooklyn,Bushwick,40.69854,-73.92119,United States,US,False,moderate,Private room,2012,$142 ,$28 ,1,14,2/14/2022,0.71,3,2,166,,
30899544,Bedroom #1 with Access to Living Room and Kitchen,5974959095,unconfirmed,Juber,Bronx,Van Nest,40.84515,-73.86415,United States,US,True,moderate,Private room,2003,$77 ,$15 ,1,104,2/14/2022,4.94,4,4,364,,
30900097,Artsy Clinton Hill Hideout,81531075737,unconfirmed,Sarah,Brooklyn,Bedford-Stuyvesant,40.69648,-73.95904,United States,US,True,moderate,Private room,2006,"$1,188 ",$238 ,1,46,2/14/2022,1.99,5,1,344,,
30900649,Peaceful entire APT in the heart of midtown,63592017766,verified,Luna,Manhattan,Midtown,40.757459999999995,-73.96773,United States,US,True,moderate,Entire home/apt,2011,$522 ,$104 ,3,65,2/14/2022,3.03,5,1,137,,
30901201,CENTERED LOCATION*9TH FLOOR*STUDIO FOR 3 PEOPLE,68831260466,verified,Julia,Manhattan,Midtown,40.7478,-73.98689,United States,US,False,flexible,Entire home/apt,2003,$516 ,$103 ,1,71,2/14/2022,3.55,2,9,318,,
30901753,1 Ready to Go Apartment 2 Bedroom,27834692941,unconfirmed,Hong Sheng,Brooklyn,Sunset Park,40.64326,-74.01623000000001,United States,US,True,moderate,Entire home/apt,2009,"$1,058 ",$212 ,1,69,2/14/2022,3.48,4,6,141,,
30902306,138 Bowery-King Suite w. Living Room Space,4685061793,verified,Jeniffer,Manhattan,Nolita,40.72017,-73.99583,United States,US,False,flexible,Entire home/apt,2015,$280 ,$56 ,15,18,2/14/2022,0.92,2,51,71,,
30902858,Elegant & Private Brooklyn Hts Apt w/Terrace.,5295845835,unconfirmed,John,Brooklyn,Boerum Hill,40.69008,-73.99213,United States,US,True,moderate,Entire home/apt,2017,$69 ,$14 ,7,16,2/14/2022,0.83,5,2,56,,
30903410,"Modern, Roomy 2BD/2BA in the heart of SOHO/LES",11827915036,verified,Benjamin,Manhattan,Lower East Side,40.72255,-73.99265,United States,US,True,strict,Entire home/apt,2022,$999 ,$200 ,30,4,2/14/2022,0.47,2,3,248,,
30903963,Minutes From 2 Airports And 3 Major Highways,94883365806,verified,Tina,Queens,South Ozone Park,40.6708,-73.79709,United States,US,True,moderate,Entire home/apt,2014,$289 ,$58 ,2,30,2/14/2022,1.59,5,1,73,,
30904515,Luxury420Airbnb 2 Bedroom with Backyard,94476313752,unconfirmed,Kellan,Brooklyn,Bedford-Stuyvesant,40.68499,-73.92035,United States,US,True,strict,Entire home/apt,2020,$225 ,$45 ,3,2,2/14/2022,0.27,3,4,0,,
30905067,"Chic, Bohemian 3BD/2BA + Roof deck in Williamsburg",49883205636,verified,Pedro,Brooklyn,Williamsburg,40.709070000000004,-73.95636999999999,United States,US,True,moderate,Entire home/apt,2009,$589 ,$118 ,6,30,2/14/2022,1.86,3,1,38,,
30905620,CONVENIENT LOCATION TO SIUH & RUMC MIN WALK 2TRAIN,85547108534,verified,Maria,Staten Island,Grant City,40.578109999999995,-74.11,United States,US,True,moderate,Private room,2009,$635 ,$127 ,30,2,2/14/2022,0.3,3,11,179,,
30906172,The William Vale,5131712982,verified,The William Vale,Brooklyn,Williamsburg,40.72121028,-73.95720895,United States,US,False,moderate,Hotel room,2005,$345 ,$69 ,1,4,2/14/2022,0.81,2,1,0,,
30906724,Private Bushwick 2 Bedroom Apartment,11317677866,verified,Molly,Brooklyn,Bushwick,40.68485,-73.91039,United States,US,True,flexible,Entire home/apt,2006,$612 ,$122 ,3,42,2/14/2022,2.73,2,1,4,,
30907276,Large 3 Bedroom Apartment in Heart of Chelsea,44679324259,verified,Ivan,Manhattan,Chelsea,40.74087,-73.99935,United States,US,True,flexible,Entire home/apt,2016,$303 ,$61 ,3,52,2/14/2022,3.33,5,1,205,,
30907829,Classic / Comfy Williamsburg Railroad,90282308557,verified,Sean,Brooklyn,Williamsburg,40.70935,-73.94628,United States,US,True,moderate,Entire home/apt,2017,$538 ,$108 ,3,26,2/14/2022,1.8,4,1,272,,
30908381,Disco meets Chinatown Chic Lower East Side Apt.,21703212587,verified,Eric,Manhattan,Chinatown,40.71413,-73.99409,United States,US,True,flexible,Entire home/apt,2006,$496 ,$99 ,3,14,2/14/2022,0.91,4,1,145,,
30908933,Water View King Bed Hotel Room,24217838311,unconfirmed,Justin,Manhattan,Financial District,40.70463,-74.00544000000001,United States,US,False,flexible,Private room,2004,$595 ,$119 ,1,100,2/14/2022,6.48,4,102,16,,
30909486,Beautiful King Bed Hotel Room,64870175562,verified,Justin,Manhattan,Financial District,40.70458,-74.00573,United States,US,True,strict,Private room,2018,$128 ,$26 ,1,47,2/14/2022,3.05,2,102,22,,
30910038,Steps to Time Square! 2BR Midtown District!,82342536611,verified,Enrique,Manhattan,Hell's Kitchen,40.762190000000004,-73.99191,United States,US,False,moderate,Entire home/apt,2013,$765 ,$153 ,30,6,2/14/2022,0.74,3,1,58,,
30910590,A+ Location Studio(APT Selected at Check-in) #4,2229501763,verified,Nomad,Manhattan,Midtown,40.74767,-73.98671999999999,United States,US,False,strict,Private room,2017,$801 ,$160 ,1,14,2/14/2022,0.95,3,53,169,,
30911143,Prime SOHO Loft Penthouse,79968102730,unconfirmed,Micky,Manhattan,Greenwich Village,40.727940000000004,-73.99667,United States,US,False,moderate,Entire home/apt,2015,$90 ,$18 ,3,19,2/14/2022,1.33,4,1,176,,
30911695,Large King Bed Hotel Room,45934872062,verified,Justin,Manhattan,Financial District,40.70602,-74.00383000000001,United States,US,True,moderate,Private room,2014,"$1,043 ",$209 ,1,86,2/14/2022,5.82,3,102,19,,
30912247,Water View King Bed Hotel Room,49184123773,unconfirmed,Justin,Manhattan,Financial District,40.70615,-74.00408,United States,US,True,moderate,Private room,2004,$486 ,$97 ,1,80,2/14/2022,5.53,3,102,19,,
30912799,Holiday's Hideaway@ The Carriage House on Dean,44891067328,unconfirmed,Michelle,Brooklyn,Crown Heights,40.676190000000005,-73.94666,United States,US,True,flexible,Private room,2007,$957 ,$191 ,1,77,2/14/2022,5.36,2,7,81,,
30913352,Central 2 Bedroom 1.5Bath w/ Private Outdoor Space,28766078641,verified,Val,Manhattan,Hell's Kitchen,40.76125,-73.9919,United States,US,True,flexible,Entire home/apt,2007,$424 ,$85 ,2,59,2/14/2022,4.3,2,6,303,,
30913904,Comfort & Convenience - BEST PLACE IN ROCKAWAY,91605476236,verified,Leonardo,Queens,Arverne,40.58855,-73.79406999999999,United States,US,False,moderate,Entire home/apt,2007,$935 ,$187 ,2,20,2/14/2022,1.53,5,1,350,,
30914456,Entire 1 Bedroom Apartment in Parkchester,66702612843,verified,Antonio,Bronx,Parkchester,40.83825,-73.85484,United States,US,True,strict,Entire home/apt,2011,$323 ,$65 ,2,22,2/14/2022,1.92,5,1,298,,
30915009,BALCONY One-Bedroom & Full Kitchen Near Manhattan,21232672085,verified,Alexander,Queens,Woodside,40.74364,-73.91161,United States,US,False,moderate,Entire home/apt,2016,$967 ,$193 ,3,13,2/14/2022,1.07,2,7,7,,
30915561,Relaxful Large Studio,11372107210,verified,Germaine,Brooklyn,Bedford-Stuyvesant,40.68513,-73.93214,United States,US,True,flexible,Entire home/apt,2018,$399 ,$80 ,1,57,2/14/2022,4.52,4,5,179,,
30916113,***Lovely 2 Bedroom Apt in Prospect Heights***,67950237311,verified,Akriti,Brooklyn,Crown Heights,40.67988,-73.96101,United States,US,False,moderate,Entire home/apt,2016,"$1,016 ",$203 ,2,26,2/14/2022,2.2,3,3,363,,
30916666,Central Park Is Your Neighbor - 21,64791275405,unconfirmed,Richard,Manhattan,Upper West Side,40.79808,-73.96129,United States,US,True,flexible,Private room,2006,$417 ,$83 ,2,40,2/14/2022,3.23,3,56,152,,
30917218,New Cozy house - Convenience for transportation,11316119989,unconfirmed,Kyungtae,Queens,Elmhurst,40.744820000000004,-73.88689000000001,United States,US,False,strict,Entire home/apt,2011,$408 ,$82 ,30,5,2/14/2022,0.69,2,1,49,,
30917770,[A] A Private Bed Room in 3 Beds Shared Apartment,89377462331,verified,Takanori,Brooklyn,Crown Heights,40.6677,-73.95716,United States,US,True,strict,Private room,2005,"$1,056 ",$211 ,3,13,2/14/2022,1.13,5,3,211,,
30918322,Hotel Room Queen/Queen Beds Chelsea,38311956529,unconfirmed,Michelle,Manhattan,Chelsea,40.74776,-73.99089000000001,United States,US,False,moderate,Private room,2005,$121 ,$24 ,1,36,2/14/2022,3.09,3,50,28,,
30918875,Hotel Room Queen/Queen Beds Chelsea,13723313958,verified,Michelle,Manhattan,Chelsea,40.74561,-73.99110999999999,United States,US,True,moderate,Private room,2005,$190 ,$38 ,1,30,2/14/2022,2.62,2,50,20,,
30919427,Disfruta de New York en confort y relax,84080713608,verified,Vanessa,Queens,Fresh Meadows,40.74666,-73.78220999999999,United States,US,True,flexible,Entire home/apt,2008,"$1,034 ",$207 ,1,11,2/14/2022,0.96,5,1,365,,
30919979,Historic Heart of the West Village,29762298466,verified,Janet,Manhattan,West Village,40.736340000000006,-74.00596,United States,US,True,moderate,Private room,2009,$504 ,$101 ,3,30,2/14/2022,2.87,2,1,11,,
30920532,Cozy 3 Bedroom Private Home Near LIE Expressway,55384795352,unconfirmed,Ilya,Queens,Fresh Meadows,40.735012,-73.789673,United States,US,False,strict,Entire home/apt,2015,$324 ,$65 ,4,30,2/14/2022,2.81,3,4,127,,
30921084,Private room in a two bedroom apartment room#2,64180218206,verified,Fay,Bronx,Mount Hope,40.84572,-73.90382,United States,US,False,flexible,Private room,2017,$878 ,$176 ,1,54,2/14/2022,5.03,3,2,360,,
30921636,*KING SIZE BED*-*FAST WIFI*-*278 Mbps*-*BRONX ZOO 2.4 mi*-*30 MIN NYC*,74939642381,verified,Travserve,Bronx,Schuylerville,40.8395,-73.83315,United States,US,True,moderate,Entire home/apt,2011,$574 ,$115 ,1,27,2/14/2022,2.69,2,3,365,,
30922189,Beautiful one bedroom loft in prime Williamsburg!,63606385843,verified,Gregor,Brooklyn,Williamsburg,40.71549,-73.94499,United States,US,True,moderate,Entire home/apt,2013,$53 ,$11 ,30,5,2/14/2022,0.63,5,1,100,,
30922741,Theater  District  Area  5th Ave  Queen of Charm,42030086402,verified,Blake,Manhattan,Midtown,40.76297,-73.97742,United States,US,False,strict,Private room,2018,"$1,085 ",$217 ,1,11,2/14/2022,2.62,4,66,342,,
30923293,165 East 89-Studio located in Upper East Side,84961029246,verified,Jeniffer,Manhattan,Upper East Side,40.78033,-73.954,United States,US,False,moderate,Entire home/apt,2010,"$1,132 ",$226 ,30,5,2/14/2022,0.67,4,186,281,,
30923845,Private Bedroom in manhattan near Central park,67724107374,verified,Gee,Manhattan,Upper East Side,40.78624,-73.95235,United States,US,True,flexible,Private room,2009,"$1,097 ",$219 ,3,24,2/14/2022,2.56,2,1,8,,
30924398,"2 BDR, Kitchen and Bathroom. Open Concept Living",39100241903,verified,Khaiwan & Sharon,Brooklyn,East New York,40.67523,-73.86553,United States,US,False,flexible,Entire home/apt,2014,$180 ,$36 ,2,23,2/14/2022,2.46,5,1,88,,
30924950,Hidden Treasure Midtown Duplex Studio,60438061712,verified,Henry,Manhattan,Midtown,40.74629,-73.98688,United States,US,True,moderate,Entire home/apt,2011,$886 ,$177 ,1,56,2/14/2022,7.15,3,11,16,,
30925502,Brooklyn Comfort II,55070073679,verified,Stephen Dayo,Brooklyn,Bedford-Stuyvesant,40.69381,-73.94532,United States,US,False,flexible,Entire home/apt,2020,"$1,141 ",$228 ,3,18,2/14/2022,1.94,4,1,34,,
30926055,Cozy 2 Bedroom in the Heart of Nolita / Lil' Italy,44140073041,verified,Steven,Manhattan,Chinatown,40.71723,-73.99887,United States,US,True,strict,Entire home/apt,2020,"$1,065 ",$213 ,4,28,2/14/2022,3.27,2,1,108,,
30926607,Room in a great location close to Central Park,86185095604,unconfirmed,Zhanyl,Manhattan,Morningside Heights,40.80299,-73.9638,United States,US,True,flexible,Private room,2022,$652 ,$130 ,2,22,2/14/2022,3.13,5,3,75,,
30927159,Premium Queen B - Yotel Times Square,12528877877,unconfirmed,Yotel New York,Manhattan,Hell's Kitchen,40.7585,-73.99441,United States,US,False,strict,Private room,2019,$219 ,$44 ,1,3,2/14/2022,0.38,5,5,359,,
30927712,Be Our Guest/ Central to SI Hosp North/South/RUMC,65103312385,verified,Ilene,Staten Island,Oakwood,40.55901,-74.11981999999999,United States,US,False,moderate,Entire home/apt,2016,$301 ,$60 ,2,12,2/14/2022,1.59,5,7,85,,
30928264,CHARMING 1 BR NEAR CENTRAL PARK ‚òÖ LA VIE EN BLEU ‚òÖ,68060106494,verified,Inna,Manhattan,Upper East Side,40.770451,-73.955894,United States,US,True,flexible,Entire home/apt,2012,$94 ,$19 ,30,4,2/14/2022,0.65,3,32,339,,
30928816,"Designer Loft by Domino Park, Williamsburg",45628227569,unconfirmed,Aurelio,Brooklyn,Williamsburg,40.71629,-73.96606,United States,US,False,flexible,Entire home/apt,2015,$132 ,$26 ,7,6,2/14/2022,0.79,2,1,29,,
30929368,"Adorable 2 Bedroom, Pool Table & Free Parking",36344915860,verified,Cavelle,Brooklyn,Flatlands,40.62863,-73.94394,United States,US,False,flexible,Entire home/apt,2009,$382 ,$76 ,2,1,2/14/2022,1.0,4,1,339,,
30929921,"Affordable Room Sunset Park,",82995416232,unconfirmed,Asif,Brooklyn,Sunset Park,40.64414,-74.00131,United States,US,False,strict,Private room,2004,$911 ,$182 ,2,3,2/14/2022,2.05,3,2,175,,
30930473,UNTITLED at Freeman - Tower Balcony Studio 1402,7871255367,verified,Karen,Manhattan,Lower East Side,40.720929999999996,-73.99203,United States,US,False,flexible,Private room,2021,$701 ,$140 ,2,37,2/14/2022,4.89,2,208,181,,
30931025,UNTITLED at Freeman - Tower Balcony Studio 1302,17443417006,unconfirmed,Karen,Manhattan,Lower East Side,40.72162,-73.99351999999999,United States,US,False,strict,Entire home/apt,2010,$649 ,$130 ,2,25,2/14/2022,3.59,5,208,198,,
30931578,Entire Apt Brooklyn . Super cozy,14853570870,unconfirmed,Edy,Brooklyn,Gravesend,40.59774,-73.99826,United States,US,True,moderate,Entire home/apt,2008,$496 ,$99 ,6,16,2/14/2022,2.31,4,1,148,,
30932130,SPACIOUS ROOM NEAR MANHATTAN,34356416870,verified,Brenda,Queens,Long Island City,40.75776,-73.93205999999999,United States,US,True,strict,Private room,2005,"$1,046 ",$209 ,1,30,2/14/2022,3.96,4,28,95,,
30932682,Chic studio apartment in Canarsie Brooklyn,10706000348,verified,Marlene,Brooklyn,Canarsie,40.64295,-73.89909,United States,US,True,moderate,Entire home/apt,2010,$542 ,$108 ,3,2,2/14/2022,2.0,3,1,147,,
30933235,Downtown Near AIR TRAIN JFK LGA UBS CitiField,21016466374,unconfirmed,Rumena,Queens,Jamaica,40.69135,-73.8067,United States,US,True,flexible,Entire home/apt,2016,"$1,036 ",$207 ,1,47,2/14/2022,6.84,5,7,170,,
30933787,"Freshly renovated, 3bd in Brooklyn close to train",16914975773,unconfirmed,Dan,Brooklyn,Crown Heights,40.670770000000005,-73.93101999999999,United States,US,False,moderate,Entire home/apt,2014,$317 ,$63 ,3,18,2/14/2022,2.97,4,2,335,,
30934339,"Walking distance to train,bus and no cleaning fee.",62111117342,verified,Dung,Staten Island,Dongan Hills,40.58013,-74.10032,United States,US,False,moderate,Entire home/apt,2021,$731 ,$146 ,2,22,2/14/2022,3.22,3,1,116,,
30934891,5min ‚ÜíUBS Arena üèü 15min‚ÜíJFK ‚úàÔ∏è Fireplaceüî• Gameroomüïπ,80113185498,unconfirmed,Malcolm,Queens,Cambria Heights,40.701465999999996,-73.748283,United States,US,False,moderate,Entire home/apt,2022,$605 ,$121 ,1,24,2/14/2022,3.67,4,2,348,,
30935444,Spacious private room in NYC 8 mins Times Square,29155247283,unconfirmed,Stella,Queens,Astoria,40.755720000000004,-73.9279,United States,US,True,strict,Private room,2012,$556 ,$111 ,1,37,2/14/2022,6.07,5,5,79,,
30935996,Lovely private bedroom in Brooklyn Heights,52644883799,unconfirmed,Liana,Brooklyn,Brooklyn Heights,40.69464,-74.0,United States,US,True,flexible,Private room,2021,"$1,128 ",$226 ,3,13,2/14/2022,2.29,4,1,89,,
30936548,Cozy Getaway in Broadway BA 1008,8133760163,unconfirmed,Raquel,Manhattan,Midtown,40.74832,-73.98716999999999,United States,US,True,flexible,Private room,2007,"$1,190 ",$238 ,1,10,2/14/2022,2.0,5,53,64,,
30937101,HUGE ROOM IN IDEAL LES SPOT,38945456614,unconfirmed,Max,Manhattan,Lower East Side,40.71468,-73.98874,United States,US,False,strict,Private room,2012,"$1,004 ",$201 ,5,8,2/14/2022,1.54,4,3,276,,
30937653,Fully Furnished 2BR Apartment in Midtown Manhattan,47292306758,unconfirmed,Avi,Manhattan,Hell's Kitchen,40.76577,-73.98375,United States,US,False,moderate,Entire home/apt,2019,$573 ,$115 ,30,1,2/14/2022,1.0,4,63,342,,
30938205,"Beautiful Private Room, Upper East Side, Manhattan",86675533274,unconfirmed,Sebastian,Manhattan,East Harlem,40.78654,-73.94254000000001,United States,US,False,strict,Private room,2007,$334 ,$67 ,3,15,2/14/2022,2.78,3,3,114,,
30938758,"Beautiful Modern Condo, heart of Lower East Side",36454900048,unconfirmed,Kilian,Manhattan,East Village,40.72537,-73.97839,United States,US,False,flexible,Entire home/apt,2009,"$1,090 ",$218 ,30,19,2/14/2022,3.9,5,1,68,,
30939310,Cozy Private Bedroom in Charming Brooklyn Apt,52485673147,unconfirmed,Amy,Brooklyn,Bedford-Stuyvesant,40.686209999999996,-73.9292,United States,US,True,moderate,Private room,2005,$933 ,$187 ,1,7,2/14/2022,1.98,5,1,363,,
30939862,Shoreham Hotel - Ultra-modern Room in a Peaceful Oasis,77340633283,unconfirmed,Shoreham,Manhattan,Midtown,40.76273,-73.9752,United States,US,True,moderate,Entire home/apt,2004,$869 ,$174 ,1,3,2/14/2022,0.68,2,44,342,,
30940414,Lovely rent the room in New York,2342898462,unconfirmed,Jenny,Manhattan,Washington Heights,40.836459999999995,-73.94367,United States,US,True,moderate,Private room,2009,$126 ,$25 ,1,14,2/14/2022,2.86,4,1,360,,
30940967,Elegant Penthouse with Expansive Views,11764727226,verified,James,Manhattan,Financial District,40.70686,-74.0066,United States,US,False,moderate,Entire home/apt,2017,"$1,014 ",$203 ,2,6,2/14/2022,1.53,2,1,272,,
30941519,Beautiful Private Room in Manhattan Apartment,62075597652,unconfirmed,Grant,Manhattan,Harlem,40.82082,-73.94755,United States,US,True,moderate,Private room,2013,$166 ,$33 ,1,6,2/14/2022,1.28,3,1,114,,
30942071,Room in a lovely Penthouse in Brooklyn / Bushwick,47015082449,verified,Lucie,Brooklyn,Bushwick,40.69417,-73.90673000000001,United States,US,False,flexible,Private room,2016,$606 ,$121 ,3,8,2/14/2022,2.45,5,2,319,,
30942624,City View Queen Bed,97603857219,verified,Michael,Queens,Long Island City,40.758179999999996,-73.93771,United States,US,False,strict,Private room,2003,$849 ,$170 ,1,22,2/14/2022,5.55,3,6,362,,
30943176,UNTITLED at Freeman-Charming Studio 413,7540770719,verified,Karen,Manhattan,Lower East Side,40.72148,-73.99127,United States,US,True,flexible,Entire home/apt,2016,$178 ,$36 ,2,10,2/14/2022,2.33,5,208,176,,
30943728,"Unique, bright, peaceful haven, Queen bed",90771167068,verified,Cesca,Manhattan,Chinatown,40.71521,-73.99953000000001,United States,US,True,moderate,Entire home/apt,2019,$435 ,$87 ,30,1,2/14/2022,1.0,3,1,99,,
30944281,üíú NYC/Bushwick New Private Room Size Full üíú,74336476762,unconfirmed,Skarly & Ming,Brooklyn,Bushwick,40.69899,-73.93097,United States,US,False,strict,Private room,2018,$660 ,$132 ,2,9,2/14/2022,1.97,2,3,25,,
30944833,üÖ∏üÖΩ üÖ≥üÖ¥üÖºüÖ∞üÖΩüÖ≥ Duplex near Times Sq & Penn Stat,88774315725,verified,Chase,Manhattan,Chelsea,40.751709999999996,-73.9967,United States,US,True,moderate,Entire home/apt,2017,"$1,147 ",$229 ,2,12,2/14/2022,3.19,2,1,127,,
30945385,70s designer studio in the East Village,97684482218,verified,Gershon,Manhattan,Lower East Side,40.72083,-73.98281,United States,US,True,strict,Entire home/apt,2011,$658 ,$132 ,1,5,2/14/2022,1.76,3,1,37,,
30945937,Luxury 2 bd 2Ba Penthouse Near JFK & Laguardia,322061244,unconfirmed,Stacey,Queens,Flushing,40.76379,-73.81947,United States,US,True,strict,Entire home/apt,2015,$874 ,$175 ,2,8,2/14/2022,1.9,4,2,182,,
30946490,"Awsome Fit, Near Casino, Barclays, Restaurants omg",65403597367,unconfirmed,Greg,Brooklyn,Cypress Hills,40.68509,-73.87476,United States,US,False,flexible,Private room,2018,$622 ,$124 ,1,7,2/14/2022,1.78,5,2,1,,
30947042,Clean & Cozy 1 Bedroom Apt. near all in Flushing,20291511390,verified,Michael,Queens,Flushing,40.763458,-73.811462,United States,US,True,strict,Entire home/apt,2014,"$1,008 ",$202 ,2,12,2/14/2022,2.88,5,1,162,,
30947594,PRIVATE. Safe & Sunny! Discount Applied*,56074860944,verified,Jeannelle,Brooklyn,Canarsie,40.64452,-73.89872,United States,US,True,strict,Entire home/apt,2009,$557 ,$111 ,5,3,2/14/2022,1.08,2,1,85,,
30948147,Hotel Style Suite w Kitchenette+Balcony | near NYC,59966417205,verified,Global Luxury Suites,Bronx,Port Morris,40.81015,-73.93228,United States,US,True,strict,Entire home/apt,2019,$623 ,$125 ,5,2,2/14/2022,2.0,2,58,364,,
30948699,Cheerful Room in Brooklyn #2,7852610926,unconfirmed,Chemaly,Brooklyn,Canarsie,40.6475,-73.90222,United States,US,False,strict,Private room,2019,$440 ,$88 ,1,10,2/14/2022,2.86,4,4,179,,
30949251,Comfortable Queen Room w/ Wi-Fi + Private Bathroom,88355731530,unconfirmed,Amir B,Queens,Jamaica,40.687020000000004,-73.78482,United States,US,False,strict,Private room,2020,$771 ,$154 ,1,1,2/14/2022,1.0,3,1,365,,
30949804,Camas para mujeres en habitaci√≥n compartida/Queens,52126011167,unconfirmed,Jess Y Christian‚Äôs Home,Queens,Corona,40.73845,-73.86475,United States,US,True,flexible,Shared room,2003,$241 ,$48 ,1,2,2/14/2022,0.63,2,6,359,,
30950356,Lovely 1-Bedroom unit in the Bronx.,24951396739,unconfirmed,Bria,Bronx,Concourse,40.830459999999995,-73.92352,United States,US,False,moderate,Entire home/apt,2017,"$1,090 ",$218 ,1,7,2/14/2022,2.14,4,1,2,,
30950908,Nice & Clean Room Bronx Zoo and Botanical Gardens,96429136285,verified,Enrique,Bronx,Allerton,40.85921,-73.86986,United States,US,True,flexible,Private room,2005,$453 ,$91 ,1,18,2/14/2022,5.09,3,4,252,,
30951460,üÖ∑üÖæüÜÉ  Classic Townhouse on Millionaire's Row,89576893861,unconfirmed,Evan,Manhattan,Upper East Side,40.77017,-73.96486,United States,US,True,moderate,Entire home/apt,2010,$229 ,$46 ,1,9,2/14/2022,3.0,3,1,217,,
30952013,Modern 2-Bedroom in the heart of Brooklyn!,67103351454,verified,Fitzroy,Brooklyn,Prospect-Lefferts Gardens,40.657270000000004,-73.94845,United States,US,False,moderate,Entire home/apt,2005,$217 ,$43 ,2,4,2/14/2022,1.4,4,1,322,,
30952565,UNTITLED at Freeman-Charming Studio 214,93971411767,unconfirmed,Karen,Manhattan,Lower East Side,40.72306,-73.9915,United States,US,True,flexible,Entire home/apt,2009,$295 ,$59 ,2,4,2/14/2022,1.32,5,208,120,,
30953117,Lovely studio rental in historic Brooklyn Heights,57181117200,unconfirmed,Shalon,Brooklyn,Brooklyn Heights,40.698440000000005,-73.99356,United States,US,True,flexible,Entire home/apt,2018,$972 ,$194 ,3,6,2/14/2022,2.0,4,1,4,,
30953670,Private Apartment/ Shared Bathroom 517,70936812918,unconfirmed,Raquel,Manhattan,Midtown,40.7469,-73.98691,United States,US,False,flexible,Private room,2007,"$1,034 ",$207 ,1,1,2/14/2022,1.0,5,53,59,,
30954222,Spacious & Modern 3 bedroom Duplex,23465809768,unconfirmed,Rosalie,Manhattan,Upper East Side,40.7666,-73.96208,United States,US,False,strict,Entire home/apt,2012,$905 ,$181 ,2,8,2/14/2022,2.79,2,1,313,,
30954774,Private Apartment/ Shared Bathroom 418,11405084712,unconfirmed,Raquel,Manhattan,Midtown,40.74677,-73.987,United States,US,False,moderate,Private room,2009,$517 ,$103 ,1,2,2/14/2022,1.43,3,53,72,,
30955327,Great location private bedroom in Queens,20464423075,unconfirmed,Karen,Queens,Astoria,40.76668,-73.92259,United States,US,True,flexible,Private room,2009,$733 ,$147 ,1,9,2/14/2022,3.38,2,17,273,,
30955879,I wanna wake up in a city that doesn't sleep,85337565398,unconfirmed,Richard,Manhattan,Upper West Side,40.80022,-73.95995,United States,US,False,flexible,Private room,2006,"$1,050 ",$210 ,2,6,2/14/2022,2.14,2,56,160,,
30956431,Private Apartment/ Shared Bathroom 719,44086957569,unconfirmed,Raquel,Manhattan,Midtown,40.74658,-73.98862,United States,US,True,flexible,Private room,2003,$891 ,$178 ,1,1,2/14/2022,1.0,4,53,63,,
30956983,Studio with private bathroom and kitchenette,54217664513,unconfirmed,Isabelle,Brooklyn,Bedford-Stuyvesant,40.68415,-73.94355999999999,United States,US,True,moderate,Private room,2016,$247 ,$49 ,1,4,2/14/2022,1.46,5,1,240,,
30957536,Private near Ferry and Park Second floor apartment,49152623928,verified,Mostafa,Staten Island,Silver Lake,40.63128,-74.09496,United States,US,True,strict,Entire home/apt,2003,$544 ,$109 ,3,2,2/14/2022,0.94,2,3,83,,
30958088,sunny master bedroom near train station,34246645757,unconfirmed,Kiki,Queens,Bayside,40.77128,-73.77239,United States,US,True,moderate,Private room,2019,"$1,140 ",$228 ,1,6,2/14/2022,2.14,3,3,148,,
30958640,Brooklyn Living,41397358009,verified,Desiree,Brooklyn,East New York,40.657340000000005,-73.88086,United States,US,False,strict,Private room,2016,$901 ,$180 ,2,4,2/14/2022,1.58,4,2,350,,
30959193,Newly Renovated Adorable One-bedroom Living Space,14176340013,verified,Mardy,Brooklyn,Flatlands,40.61933,-73.9354,United States,US,False,moderate,Entire home/apt,2015,$940 ,$188 ,3,2,2/14/2022,0.97,4,1,360,,
30959745,2 BR House in Jamaica Queens close to JFK,17801758604,verified,Danielle And Gerard,Queens,Jamaica,40.68472,-73.79472,United States,US,True,moderate,Entire home/apt,2017,$796 ,$159 ,1,7,2/14/2022,2.92,5,1,354,,
30960297,Beautiful room + Private Bathroom in Brooklyn!!,44649072367,verified,Bernard,Brooklyn,Crown Heights,40.67145,-73.92177,United States,US,True,flexible,Private room,2017,$701 ,$140 ,1,7,2/14/2022,2.92,3,5,177,,
30960850,Real view from your windows,62400119559,unconfirmed,Dionys,Manhattan,Chelsea,40.74973,-73.98980999999999,United States,US,False,strict,Entire home/apt,2010,"$1,106 ",$221 ,3,2,2/14/2022,0.67,5,1,0,,
30961402,2 Bedroom luxury house available In Bergen Beach,48517208733,verified,Zeeshan,Brooklyn,Bergen Beach,40.618809999999996,-73.90066,United States,US,True,flexible,Entire home/apt,2006,$245 ,$49 ,1,2,2/14/2022,2.0,4,1,86,,
30961954,APT. 3 [PENTHOUSE SUITE] + Upgradeable ROOF Access,28763811429,unconfirmed,Matthew,Brooklyn,Bedford-Stuyvesant,40.68947,-73.93784000000001,United States,US,True,flexible,Entire home/apt,2007,$869 ,$174 ,1,1,2/14/2022,1.0,4,2,179,,
30962506,Tiny House! Beautiful Deck! Outdoor Kitchen!,41016033658,unconfirmed,Alicia,Queens,Flushing,40.75778,-73.80933,United States,US,False,strict,Entire home/apt,2009,"$1,139 ",$228 ,30,1,2/14/2022,1.0,5,7,365,,
30963059,Lovely 3BR Loft Mins to PENN STN! Best Location!,25952184335,verified,Rotsen,Manhattan,Chelsea,40.74781,-73.99656,United States,US,True,strict,Entire home/apt,2013,$528 ,$106 ,1,1,2/14/2022,1.0,5,1,334,,
30963611,"HUGE 2-story 1BR with private patio, Pet Friendly",9505425168,unconfirmed,Corban,Brooklyn,Bedford-Stuyvesant,40.695,-73.94761,United States,US,False,flexible,Entire home/apt,2004,$571 ,$114 ,4,1,2/14/2022,1.0,5,1,63,,
30964163,Central Park is Steps Away,24274111082,unconfirmed,Richard,Manhattan,Upper West Side,40.80075,-73.96188000000001,United States,US,False,moderate,Private room,2010,$80 ,$16 ,2,1,2/14/2022,1.0,5,56,188,,
30964716,"Penthouse 1 Bedroom, Steps From Train/ City Views",40356393042,verified,Blaise,Queens,Astoria,40.77047,-73.91953000000001,United States,US,True,strict,Entire home/apt,2014,$433 ,$87 ,1,1,2/14/2022,1.0,3,1,222,,
30965268,A+ Location! 3BR in Chelsea! Steps to PENN!,16159869056,unconfirmed,Mark Kevin,Manhattan,Chelsea,40.74909,-73.99674,United States,US,False,strict,Entire home/apt,2012,$517 ,$103 ,2,2,2/14/2022,1.62,4,1,308,,
30965820,Brooklyn Brick! 2 bdrm Apartment with a backyard!,91472841988,verified,Isaac,Brooklyn,Flatbush,40.64306,-73.95379,United States,US,True,moderate,Entire home/apt,2021,$773 ,$155 ,2,1,2/14/2022,1.0,2,1,351,,
30966373,Newly renovated rental in Jackson Heights!,63238446312,verified,Manuel,Queens,Jackson Heights,40.75375,-73.89718,United States,US,True,strict,Entire home/apt,2015,$474 ,$95 ,4,2,2/14/2022,1.67,4,1,329,,
30966925,Cozy 1 Bedroom Apartment w/ Access to Outdoor Deck,41978954156,verified,Anthony,Manhattan,East Harlem,40.79937,-73.93391,United States,US,True,strict,Entire home/apt,2020,$896 ,$179 ,2,1,2/14/2022,1.0,5,1,345,,
30967477,Private room in lovely quiet 1 bedroom apartment,98115943333,unconfirmed,Ben,Queens,Rego Park,40.72652,-73.85996,United States,US,False,strict,Private room,2013,$914 ,$183 ,2,1,2/14/2022,1.0,3,1,23,,
30968029,Lovely one bedroom basement with huge space,73605698219,verified,Tobi,Brooklyn,Bushwick,40.69365,-73.91382,United States,US,False,flexible,Entire home/apt,2017,$178 ,$36 ,1,1,2/14/2022,1.0,5,1,362,,
30968582,Prime Location Murray Hill! Grand Central Station!,44132504557,unconfirmed,Marvin,Manhattan,Murray Hill,40.74987,-73.97884,United States,US,False,strict,Entire home/apt,2012,$81 ,$16 ,30,1,2/14/2022,1.0,2,1,150,,
30969134,Loft Private 3BR! Heart of City! Times Square!,59710170728,unconfirmed,Lucky Jonie,Manhattan,Hell's Kitchen,40.75437,-73.99578000000001,United States,US,False,strict,Entire home/apt,2015,$628 ,$126 ,1,1,2/14/2022,1.0,3,4,81,,
30969686,"‚òÖ Perfect for Travelers ‚òÖ Comfy, Cozy & Fast WiFi",56669974282,verified,Sarah,Bronx,Allerton,40.859970000000004,-73.86355999999999,United States,US,True,moderate,Private room,2012,"$1,139 ",$228 ,1,1,2/14/2022,1.0,4,4,354,,
30970239,Quite Room & Clean in Queens NY #2,8397064897,verified,Erez,Queens,Flushing,40.72412218,-73.80796240000001,United States,US,True,strict,Private room,2007,$871 ,$174 ,1,3,2/14/2022,3.0,2,1,348,,
30970791,Minutes away from Central Park,62292735801,verified,Myla Jane,Manhattan,Harlem,40.82014558,-73.95646566,United States,US,True,moderate,Private room,2003,$56 ,$11 ,2,1,2/14/2022,1.0,3,5,49,,
30971343,ü•∞Elegant large studio/central/Wifi/nearTimesSquare,42992110692,unconfirmed,Madison,Manhattan,Upper East Side,40.76018756,-73.96138359999999,United States,US,True,flexible,Entire home/apt,2021,$852 ,$170 ,1,1,2/14/2022,1.0,4,8,90,,
30971896,Sunny Astoria 2BR near subway & restaurants,41656702711,unconfirmed,Litza,Queens,Ditmars Steinway,40.77868,-73.90652,United States,US,False,flexible,Entire home/apt,2019,$863 ,$173 ,4,19,2/13/2022,0.14,4,1,79,,
30972448,East Village Oasis!  1Bd Apt,27142313923,unconfirmed,David,Manhattan,East Village,40.72814,-73.97912,United States,US,False,strict,Entire home/apt,2021,$415 ,$83 ,2,252,2/13/2022,2.48,3,1,56,,
30973000,‚òÜ 2BR East Village ‚òÜ Sleeps 5 | BEST LOCATION ‚òÜ,31901148265,unconfirmed,Seith,Manhattan,East Village,40.72648,-73.98711999999999,United States,US,True,moderate,Entire home/apt,2012,$984 ,$197 ,2,316,2/13/2022,2.7,3,3,245,,
30973552,Victorian Private Brownstone Apartment & Backyard,39840551323,verified,Alison & Dane,Brooklyn,Clinton Hill,40.68375,-73.96141999999999,United States,US,False,moderate,Entire home/apt,2015,$812 ,$162 ,1,491,2/13/2022,4.38,5,2,122,,
30974105,Best view in Queens,88504873069,verified,Manuel Alberto,Queens,College Point,40.78365,-73.8381,United States,US,True,moderate,Entire home/apt,2022,$858 ,$172 ,2,57,2/13/2022,0.52,5,1,295,,
30974657,Manhattan's Best Deal!,63716692508,verified,Adrianne,Manhattan,Harlem,40.80825,-73.94124000000001,United States,US,True,strict,Entire home/apt,2009,$424 ,$85 ,3,346,2/13/2022,3.18,4,2,156,,
30975209,ART HOUSE VAULT,29259456987,verified,@ Art House Monique,Brooklyn,Bedford-Stuyvesant,40.68266,-73.94009,United States,US,True,flexible,Private room,2017,$388 ,$78 ,30,70,2/13/2022,0.65,3,2,63,,
30975762,Boerum Hill Garden Apartment,19210261921,verified,Laurence,Brooklyn,Boerum Hill,40.68445,-73.98624000000001,United States,US,True,strict,Entire home/apt,2003,$410 ,$82 ,5,52,2/13/2022,0.52,3,1,134,,
30976314,Lovely & Large Private Queen Bedroom,32694689188,unconfirmed,Amaya,Brooklyn,Bedford-Stuyvesant,40.69426,-73.9346,United States,US,True,strict,Private room,2019,$894 ,$179 ,3,101,2/13/2022,1.1,2,3,129,,
30976866,2BED APT + ROOFTOP+ GYMi in WILLIAMSBURG-BestPrice,96548765063,verified,Gianni,Brooklyn,Williamsburg,40.70585,-73.94838,United States,US,True,flexible,Entire home/apt,2004,$339 ,$68 ,3,32,2/13/2022,0.32,2,2,234,,
30977419,Fab apt in historic Hell‚Äôs Kitchen. Private. Safe.,30329753039,verified,Marjorie,Manhattan,Hell's Kitchen,40.762809999999995,-73.99280999999999,United States,US,False,strict,Entire home/apt,2013,$861 ,$172 ,3,197,2/13/2022,2.08,4,1,11,,
30977971,Welcome to The Valley,64183446003,verified,Shae,Brooklyn,Bushwick,40.69415,-73.92415,United States,US,False,flexible,Entire home/apt,2005,$185 ,$37 ,1,238,2/13/2022,2.53,2,3,57,,
30978523,LEGAL studio in Queens,33887871760,verified,Shawn & Christine,Queens,Woodside,40.74515,-73.90865,United States,US,False,moderate,Entire home/apt,2019,$782 ,$156 ,2,259,2/13/2022,2.77,4,1,57,,
30979075,Sweet Brooklyn Refuge,70825645321,unconfirmed,Brad,Brooklyn,Clinton Hill,40.68251,-73.96070999999999,United States,US,True,strict,Entire home/apt,2013,"$1,039 ",$208 ,30,76,2/13/2022,0.82,5,1,55,,
30979628,"Landmark Cottage, Brownstone block",31961332439,verified,Adam,Brooklyn,Crown Heights,40.67651,-73.94466,United States,US,False,strict,Entire home/apt,2013,"$1,072 ",$214 ,2,364,2/13/2022,3.95,5,1,239,,
30980180,Studio apartment,5422095918,unconfirmed,Laurent,Manhattan,Harlem,40.8096,-73.94712,United States,US,True,strict,Entire home/apt,2007,"$1,061 ",$212 ,5,102,2/13/2022,1.12,2,1,252,,
30980732,Beautiful Place in Bushwick/Ridgewood,35445472126,verified,Lumin And Hendrik,Brooklyn,Bushwick,40.70669,-73.91824,United States,US,False,strict,Private room,2022,$517 ,$103 ,2,203,2/13/2022,2.26,5,1,34,,
30981285,West Village Style and Charm-Vaccinated&Boostered,97024078382,verified,Michael,Manhattan,West Village,40.729279999999996,-74.00806,United States,US,True,strict,Private room,2019,$360 ,$72 ,2,258,2/13/2022,3.25,5,1,27,,
30981837,Theatre Row Lovely 1BR! Near Times Square!,32255354035,verified,Kyle,Manhattan,Hell's Kitchen,40.7629,-73.98857,United States,US,False,moderate,Private room,2019,$345 ,$69 ,1,366,2/13/2022,4.19,3,2,177,,
30982389,Beautiful bright renovated 2BR w Balcony-sleeps 5!,70431706341,unconfirmed,Dikla,Brooklyn,DUMBO,40.70264,-73.98808000000001,United States,US,True,strict,Entire home/apt,2018,$67 ,$13 ,2,276,2/13/2022,3.23,2,2,239,,
30982942,"Sleeping in NYC, like home.",47917848310,verified,Alberto,Queens,Rego Park,40.728790000000004,-73.85623199999999,United States,US,True,moderate,Private room,2018,$406 ,$81 ,2,220,2/13/2022,2.65,4,2,365,,
30983494,Cozy 1 bedroom apartment in trendy LIC,89051142538,verified,Silvia,Queens,Long Island City,40.76081,-73.92886,United States,US,False,strict,Entire home/apt,2012,$454 ,$91 ,2,244,2/13/2022,3.02,5,1,86,,
30984046,A Cosy Couch In East Williamsburg Near Train.,45181731998,unconfirmed,Elisabeth,Brooklyn,Williamsburg,40.70657,-73.93664,United States,US,False,strict,Shared room,2009,"$1,084 ",$217 ,1,343,2/13/2022,4.12,5,2,24,,
30984598,"5 min from midtown, but peaceful.",43584855757,verified,Mike,Queens,Long Island City,40.74427,-73.95475,United States,US,True,strict,Entire home/apt,2006,"$1,198 ",$240 ,4,111,2/13/2022,1.39,5,1,226,,
30985151,Large condo with stunning park views,36483376586,verified,Matei,Manhattan,Lower East Side,40.71952,-73.99141,United States,US,True,flexible,Entire home/apt,2020,$774 ,$155 ,2,104,2/13/2022,2.22,2,1,23,,
30985703,"House of Music and Art, Small Happy ROom",3217955337,verified,Clay,Brooklyn,Bushwick,40.698809999999995,-73.92997,United States,US,False,flexible,Private room,2008,$286 ,$57 ,30,36,2/13/2022,0.44,5,3,31,,
30986255,Harlem Treasure,50312444218,verified,Theresa,Manhattan,Harlem,40.814147999999996,-73.943657,United States,US,True,flexible,Entire home/apt,2003,$234 ,$47 ,30,145,2/13/2022,1.78,3,3,178,,
30986808,Garden Commons Bushwick 4 Bedroom 3 Bath Apartment,3008093276,unconfirmed,Greg,Brooklyn,Bushwick,40.68765,-73.91364,United States,US,False,moderate,Entire home/apt,2010,"$1,007 ",$201 ,3,34,2/13/2022,0.47,4,2,197,,
30987360,"Big home, 3 floors, good 4 families - 2,800 sqft",85439736245,unconfirmed,Tina,Manhattan,Harlem,40.80818,-73.94964,United States,US,False,flexible,Entire home/apt,2008,$409 ,$82 ,3,86,2/13/2022,1.18,4,1,106,,
30987912,88 By The Park w/Parking Space,43265414223,verified,Akini,Brooklyn,Canarsie,40.631409999999995,-73.89629000000001,United States,US,False,strict,Entire home/apt,2008,$610 ,$122 ,2,286,2/13/2022,3.58,2,1,290,,
30988465,Artist Apt Room w/ Rooftop,66017286527,unconfirmed,Alex,Manhattan,East Village,40.7259,-73.97974,United States,US,True,strict,Private room,2014,$925 ,$185 ,3,68,2/13/2022,0.86,5,3,32,,
30989017,Private bedroom in the heart of NYC,6193486603,verified,Aldi,Manhattan,Upper East Side,40.76339,-73.96739000000001,United States,US,True,moderate,Private room,2009,$688 ,$138 ,1,217,2/13/2022,2.75,2,3,303,,
30989569,Private Floor in SOHO Townhouse,77354814679,verified,Scott,Manhattan,SoHo,40.72214,-74.00443,United States,US,False,strict,Entire home/apt,2008,$127 ,$25 ,1,186,2/13/2022,2.58,2,4,236,,
30990121,Quiet Brownstone Parlor Studio,40313893503,unconfirmed,Nadege & Charles,Brooklyn,Cobble Hill,40.68793,-73.99828000000001,United States,US,False,flexible,Entire home/apt,2007,$954 ,$191 ,3,58,2/13/2022,0.81,4,1,29,,
30990674,"Close to everything, transportation",6901273857,verified,Roland,Queens,Jamaica,40.69912,-73.78687,United States,US,True,moderate,Private room,2006,$495 ,$99 ,2,179,2/13/2022,2.31,5,3,363,,
