id,NAME,host id,host_identity_verified,host name,neighbourhood group,neighbourhood,lat,long,country,country code,instant_bookable,cancellation_policy,room type,Construction year,price,service fee,minimum nights,number of reviews,last review,reviews per month,review rate number,calculated host listings count,availability 365,house_rules,license
56507486,Comfy Room in Williamsburg Duplex *big backyard*,9974768703,verified,Douglas,Brooklyn,Williamsburg,40.707190000000004,-73.94749,United States,US,False,strict,Private room,2011,$573 ,$115 ,3,3.0,11/23/2018,0.35,2,1,0,"Please just keep your area reasonably clean and pick up after yourself.  Nothing special.  All the kitchen appliances that are there are available for your use.  Just wash your dishes and pick up any trash you have.   If anything gets dirty, no need to be embarrassed.  Just let us know so we can take care of it as soon as possible.   Also no smoking and no loud parties.  Come, enjoy yourself and have fun.",
56508038,Designers Dream Bed Stuy Studio,12144564056,unconfirmed,Brittney,Brooklyn,Bedford-Stuyvesant,40.68393,-73.94967,United States,US,False,moderate,Entire home/apt,2021,$342 ,$68 ,2,91.0,6/24/2019,3.02,4,1,48,Please treat my home like your own and as you would expect me to treat yours.  Please smoke outside on the porch.  I do not allow pets.,
56508591,"Cozy, chic: Plants, good vibes and LOTS OF LIGHT!",93273535427,unconfirmed,Jordan,Manhattan,Washington Heights,40.83321,-73.93838000000001,United States,US,True,moderate,Private room,2016,$124 ,$25 ,3,1.0,1/4/2017,0.03,2,1,0,"No disturbance When talking on the phone, please do it in your room with door closed Please walk, don't run the stairs Close all doors gently please Recycling/trash put in separate bags (provided) Guest confirms he/she is a non-smoker No smoking anywhere in or out of the house No perfume/cologne, scented laundry detergent allowed Unscented product available No guests/visitors any time, no shared rooms (one person per room) Guests will be liable for any damages they cause Very light kitchen use Please conserve natural resources Stove cooking is not possible Misrepresentation will result in cancellation at your expense",
56509143,Bright one bedroom blocks from Barclays Center,38829983298,verified,Ian & Wendy,Brooklyn,Park Slope,40.68164,-73.9779,United States,US,False,strict,Entire home/apt,2010,$452 ,$90 ,3,22.0,3/11/2019,0.72,4,2,0,,
56509695,Cozy apartment in the Norwood section of the bronx,61215768845,unconfirmed,Maritza,Bronx,Norwood,40.87583,-73.87737,United States,US,True,flexible,Private room,2022,$758 ,$152 ,1,0.0,,,2,1,0,,
56510248,Spacious room in Historical District Brownstone,60183348759,verified,Raymond,Brooklyn,Bedford-Stuyvesant,40.683690000000006,-73.94193,United States,US,False,moderate,Private room,2016,$755 ,$151 ,7,0.0,,,4,1,0,"- We're on the top floor of a multi-family dwelling, we know you'll be respectful and kind to the families downstairs! - We love to read and play board games; we'd love to share our books and games with you, just make sure they go back where you found them. - We invite you to use our kitchen and we're happy to share basics like oil and spices but please provide your own groceries - you'll have your own shelf in the refrigerator. - You're welcome to bring friends back to hang out but we ask that no one that we aren't prepared for spend the night! - Please indulge in our living room's mini theatre system - hook up your computer or phone to the monitor and speaker system with our business speed wifi for a great viewing experience.",
56510800,"CLEAN, SAFE, PLACE; Bed-Stuy Brooklyn.",22430473665,verified,Eunice,Brooklyn,Bedford-Stuyvesant,40.68322,-73.93073000000001,United States,US,False,strict,Entire home/apt,2017,"$1,102 ",$220 ,5,47.0,6/1/2019,1.53,5,2,91,,
56511352,Cozy Bohemian Home!,49087857946,unconfirmed,Stephanie,Queens,Ridgewood,40.70292,-73.91119,United States,US,True,flexible,Private room,2013,"$1,169 ",$234 ,3,5.0,11/25/2018,0.16,5,1,0,Clean up after oneself Be respectful Be courteous of neighbors,
56511904,Bushwick Cozy Stay-- One Block From the Train!,27084954228,unconfirmed,Laura,Brooklyn,Bushwick,40.6995,-73.93334,United States,US,False,moderate,Private room,2014,$780 ,$156 ,2,61.0,6/23/2019,1.95,3,1,26,"Please just keep your area reasonably clean and pick up after yourself. Nothing special. All the kitchen appliances that are there are available for your use. Just wash your dishes and pick up any trash you have. If something has happened don't feel embarrassed, just let us know and we'll take care of it. Also no smoking and no loud parties. Come, enjoy yourself and have fun.",
56512457,Fort Greene Room,56768573220,verified,Emi,Brooklyn,Fort Greene,40.69612,-73.97361,United States,US,True,moderate,Private room,2008,$722 ,$144 ,2,0.0,,,2,1,0,Please don't eat the food in the fridge.,
56513009,"Comfy private room, great location to Manhattan",95002180887,unconfirmed,Eddie & Lois,Staten Island,West Brighton,40.632090000000005,-74.11494,United States,US,True,moderate,Private room,2010,$304 ,$61 ,2,30.0,6/30/2019,0.96,3,5,61,#NAME?,
56513561,Huge Bedroom - East Village - NYC,48979291935,unconfirmed,Paula,Manhattan,East Village,40.727090000000004,-73.97459,United States,US,False,strict,Private room,2021,$60 ,$12 ,2,19.0,3/16/2019,0.67,4,2,244,"No smocking inside, no party, no loud music after 11PM.",
56514114,Beautiful one-bedroom triplex with garden,27502394286,unconfirmed,Tony,Manhattan,East Village,40.73067,-73.98853000000001,United States,US,True,strict,Entire home/apt,2022,"$1,164 ",$233 ,30,0.0,,,4,1,179,No smoking indoors (a big porch with seating available for smokers)  Guests are expected to clean up after themselves in the bathroom and in the kitchen.,
56514666,Cozy Brooklyn Home in Crown Heights!,75758204011,unconfirmed,Melinda,Brooklyn,Crown Heights,40.66837,-73.95836,United States,US,False,moderate,Entire home/apt,2021,$514 ,$103 ,3,7.0,6/18/2019,0.38,4,1,20,,
56515218,Best Location on the Upper West Side! - Part II,41027791960,unconfirmed,Sasha,Manhattan,Upper West Side,40.7892,-73.9734,United States,US,False,moderate,Private room,2011,"$1,039 ",$208 ,1,47.0,6/23/2019,1.5,3,2,0,Quiet building.,
56515771,Economy private room great location to Manhattan,29418478103,verified,Eddie & Lois,Staten Island,West Brighton,40.63302,-74.11395999999999,United States,US,True,moderate,Private room,2004,"$1,025 ",$205 ,2,64.0,6/7/2019,2.04,1,5,348,"This is my full-time residence, I appreciate that you treat the home as if it is your own. Please note that I have a dog and pets are allowed so if you have any Pet allergies no need to inquire. Please leave locked drawers and closets alone, all non-locked items as they were, and contact me immediately with any question or concerns. Please no open flames, candles, incense, etc. and no smoking.",
56516323,Private Room in Uptown Manhattan,64781164758,unconfirmed,Britt,Manhattan,Harlem,40.828140000000005,-73.9378,United States,US,False,strict,Private room,2016,$624 ,$125 ,3,78.0,7/4/2019,2.49,5,1,55,Welcome to my home. I hope you will treat it as you would your own.,
56516875,"Charming, Sunny Studio in Williamsburg",19575437940,unconfirmed,Ariella,Brooklyn,Greenpoint,40.71973,-73.95407,United States,US,False,flexible,Entire home/apt,2022,$92 ,$18 ,3,14.0,6/15/2019,0.46,3,1,0,,
56517427,Bergen street in Crown Heights - French speaking,79177218899,verified,Pascale,Brooklyn,Crown Heights,40.6749,-73.95233,United States,US,False,flexible,Entire home/apt,2011,$933 ,$187 ,4,47.0,6/24/2019,1.66,5,1,5,,
56517980,Big Sunny Room in Manhattan (M6),13009084891,unconfirmed,Lilia,Manhattan,Harlem,40.82104,-73.93915,United States,US,True,moderate,Private room,2012,$746 ,$149 ,7,3.0,11/13/2017,0.13,5,8,326,"We love guests who are respectful, clean up after themselves, and understand that we work from home so although we may be physically present in the home, we might be preoccupied with our work. No smoking or drugs of any kind, even outside. ",
56518532,"Sunny, spacious Brooklyn getaway, with skylights!",91758313514,unconfirmed,Whitney,Brooklyn,Greenpoint,40.726859999999995,-73.94926,United States,US,False,moderate,Entire home/apt,2007,"$1,056 ",$211 ,3,0.0,,,4,1,0,,
56519084,True 1 BR Midtown West / Hell's Kitchen gem,49846105097,unconfirmed,Shady,Manhattan,Hell's Kitchen,40.76428,-73.99381,United States,US,False,flexible,Entire home/apt,2015,$327 ,$65 ,2,77.0,6/17/2019,3.63,2,1,9,No Tobacco,
56519637,Dream home: Beautiful 2B2B Condo in Chelsea,92212309928,verified,Jacob,Manhattan,Chelsea,40.74735,-73.99974,United States,US,True,strict,Entire home/apt,2021,$496 ,$99 ,3,7.0,8/4/2018,0.23,5,1,0,,
56520189,Sunny Room,37554136635,verified,Antonio,Brooklyn,Bedford-Stuyvesant,40.692009999999996,-73.9475,United States,US,False,strict,Private room,2018,$55 ,$11 ,1,7.0,1/12/2017,0.22,1,1,0,"• No parties or events • No smoking This is a smoke-free house but you are welcome o smoke on the balcony, Pleas keep it clean. If you have a pet please let me know and I would be happy to consider. I hope to make your stay as easy and comfortable as possible. Please email me  anytime if you have any questions!",
56520741,"Huge Sunny Room in New Apartment by G, J, M trains",3376512362,verified,Andrei,Brooklyn,Bedford-Stuyvesant,40.69554,-73.94246,United States,US,True,strict,Private room,2010,$236 ,$47 ,14,4.0,2/28/2017,0.13,5,2,0,"No smoking, no parties, and no pets, please!",
56521294,"Spacious, Clean, Can be used as 2BR-Ridgewood,NY",42932564150,unconfirmed,Katarina,Queens,Ridgewood,40.698209999999996,-73.89811999999999,United States,US,False,flexible,Entire home/apt,2003,$950 ,$190 ,3,101.0,6/24/2019,3.65,4,2,47,,
56521846,Single Minimal Bedroom in Hip area of Brooklyn NYC,81256890958,verified,Kraig,Brooklyn,Bushwick,40.697309999999995,-73.93271999999999,United States,US,True,flexible,Private room,2016,$397 ,$79 ,1,1.0,12/8/2016,0.03,2,1,0,"Non-smoker only Perfume/cologne/scented product not allowed Mild scent deodorant OK but no sprays If guest cases damages, the host can claim under the law of MA",
56522398,Warm design for a classic Brooklyn townhouse,25890999279,verified,Daria,Brooklyn,East Flatbush,40.645379999999996,-73.94863000000001,United States,US,True,strict,Shared room,2006,"$1,003 ",$201 ,30,2.0,12/18/2017,0.07,3,4,365,,
56522950,Cozy 1 Bedroom Escape,19695985281,unconfirmed,Jessica,Manhattan,Upper East Side,40.77704,-73.94442,United States,US,True,moderate,Entire home/apt,2021,$487 ,$97 ,2,4.0,12/28/2018,0.49,4,1,0,"Please be respectful of other guests.  Keep the common areas clean and pick up after your self.  No loud music after 10:00PM.  It is a safe neighborhood but please, keep doors locked for safety No smoking in the house (smoking is allowed on the front or back decks).",
56523503,Sunny Private Bedroom in Prime Williamsburg,86963139781,unconfirmed,Kristina,Brooklyn,Williamsburg,40.712579999999996,-73.95976,United States,US,False,strict,Private room,2020,$366 ,$73 ,3,43.0,6/24/2019,1.41,4,2,67,"- Clean up after yourself, be respectful, and there will be no problems!",
56524055,Cozy and spacious apartment in heart of Bushwick,85475796239,verified,Aicha,Brooklyn,Bushwick,40.70145,-73.92708,United States,US,False,strict,Entire home/apt,2022,$815 ,$163 ,12,0.0,,,1,1,120,,
56524607,Luxurious LES/Nolita Loft,28592162754,verified,Nise,Manhattan,Lower East Side,40.72018,-73.98521,United States,US,True,flexible,Entire home/apt,2015,"$1,195 ",$239 ,3,53.0,6/6/2019,1.98,4,1,220,"No drugs, smoking, or guests. Keep the tv volume down when roommates are sleeping. I will only accept offers from guests with previous reviews.",
56525160,LADIES ONLY!! Privacy in a shared space :),63609242310,verified,J,Brooklyn,Bushwick,40.69533,-73.90889,United States,US,True,strict,Shared room,2020,"$1,106 ",$221 ,1,103.0,5/1/2019,4.02,2,4,133,,
56525712,2 Beds Brooklyn Tree Lined Blk 15 min to Manhattan,57702615898,unconfirmed,Gerard,Brooklyn,Bedford-Stuyvesant,40.68493,-73.94403,United States,US,True,moderate,Entire home/apt,2014,$61 ,$12 ,31,59.0,4/17/2018,1.92,4,1,198,"Please keep shoes off while inside. Food should be kept in the kitchen/dining area. Be mindful of our great neighbors and keep noise to a reasonable level. No pets or smoking, please!",
56526264,"Studio apt in Midtown Manhattan, great value",32845552474,verified,Don,Manhattan,Hell's Kitchen,40.769259999999996,-73.98796,United States,US,False,strict,Entire home/apt,2016,$59 ,$12 ,1,4.0,3/16/2017,0.14,3,1,0,"This is two bedroom located in the heart of Brighton. It takes you to downtown by T within 20 minutes. The T is super close. The house rules are kind of very simple so please no smoking inside the house. No additional guest ($20 USD will be charged for per person if you have your guests) +Kitchen: If you cook, please clean up after yourself. I will provided everything like pans, pots, dishes, utensils, etc +Bathroom: I will be providing  towels and shampoo. But no toothpaste and toothbrush.  One more thing, time to check in is 3PM and check out time 12PM. Please shoes off in the house.",
56526817,Private room in well furnished quintessential 2BR!,73493993239,unconfirmed,Jeremy,Manhattan,Midtown,40.75524,-73.96755,United States,US,False,flexible,Private room,2013,$435 ,$87 ,2,2.0,6/30/2017,0.08,4,1,0,"Please keep the apartment clean for the next guest. Remove the trash to the dumpster, take the bed linen off the bed and drop into the laundry basket in the restroom. There's a coin operated laundry on the same floor. $1.75 washer and $0.75 drier. You can find the detergent in the small closet by the front door. feel free to use the laundry room if you need to. Thank you and have a nice stay in Boston",
56527369,Luxury 2BD in heart of Williamsburg,37233079587,unconfirmed,Brian,Brooklyn,Williamsburg,40.71049,-73.9624,United States,US,False,strict,Entire home/apt,2003,$265 ,$53 ,3,17.0,1/5/2019,0.55,2,1,129,,
56527921,Modern & Cozy Room in Elegant Apt in Astoria,69211734300,verified,Kirsten,Queens,Ditmars Steinway,40.77664,-73.90896,United States,US,True,flexible,Private room,2013,"$1,000 ",$200 ,30,79.0,4/7/2019,2.55,2,2,0,"A few totally painless house rules:  - Please take your shoes off once inside the apartment. My apartment is kept very clean and tidy, so taking shoes off is essential to keeping it the same way for you and for me. - Kitchen is available for ""light use"" and ""vegetarian"" food only. You are free to bring in outside cooked food/meat. Please stack the dishes in the dishwasher to the left of the sink. Keep the kitchen and counters clean immediately after use. Food should be consumed only in the dining area and not in the room. - When leaving the apartment, please always lock the top lock on the door, shut off all the lights before you leave, if you open windows, please close and lock them before you leave the apartment. - Quiet time after 10pm. - NO SMOKING IN THE APARTMENT (You can smoke in the balcony area)!  - SADLY NO PETS!! - ABSOLUTELY NO PARTIES!!!",
56528473,Sunny beautiful airy bedroom in Modern Apartment,36340105758,unconfirmed,Camilo,Brooklyn,Greenpoint,40.725,-73.94633,United States,US,False,flexible,Private room,2016,$573 ,$115 ,1,10.0,4/8/2018,0.32,4,1,0,Please leave shoes at the front door. Guests should wash dishes after using them and clean the stove after each use.  Please keep common areas clean (especially the bathroom).  Do not leave towels lying around (either hang on the rack in the bathroom or in the closet) Do not make noise after midnight.  No additional guests,
56529026,SUNNY 2BD W. ELEVATOR / PERFECT 4 SMALL FAMILY,41525033727,verified,Ben,Manhattan,Chinatown,40.714009999999995,-73.99186999999999,United States,US,False,strict,Entire home/apt,2004,$876 ,$175 ,7,2.0,1/6/2019,0.14,2,1,0,#NAME?,
56529578,"Cozy, private room in a 3 br in Gramercy",17139808366,verified,Monica,Manhattan,Kips Bay,40.74047,-73.98380999999999,United States,US,False,moderate,Private room,2003,$322 ,$64 ,2,8.0,6/30/2019,0.26,1,1,0,"Please be respectful of other guests.  Keep the common areas clean and pick up after your self.  No loud music after 10:00PM.  It is a safe neighborhood but please, keep doors locked for safety No smoking in the house (smoking is allowed on the front or back decks).",
56530130,Beautiful Hell's Kitchen room - near Times Square,82555240945,verified,Sarah,Manhattan,Hell's Kitchen,40.76202,-73.99201,United States,US,True,moderate,Private room,2010,$645 ,$129 ,4,0.0,,,2,1,0,,
56530683,"Sunny, Quiet 1 Bedroom in Union Sq/East Village",64747327478,unconfirmed,Michael,Manhattan,East Village,40.73256,-73.98621999999999,United States,US,False,strict,Entire home/apt,2006,$516 ,$103 ,5,10.0,5/29/2017,0.32,2,1,0,,
56531235,Private room in prime Cobble Hill neighborhood,12940907180,unconfirmed,Rémi,Brooklyn,Boerum Hill,40.68894,-73.99037,United States,US,False,flexible,Private room,2012,$490 ,$98 ,7,0.0,,,1,1,0,"Regular tenant requirements, no noise, do not disturb neighbors.",
56531787,Duplex bottom floor / All you need UES,87174463567,unconfirmed,Armando,Manhattan,Upper East Side,40.774840000000005,-73.95103,United States,US,True,flexible,Private room,2022,$642 ,$128 ,1,1.0,1/1/2017,0.03,2,1,0,,
56532340,Unique Bushwick one bedroom with private garden,18267082338,verified,Angelo,Brooklyn,Bushwick,40.70234,-73.92439,United States,US,False,moderate,Entire home/apt,2010,"$1,035 ",$207 ,5,3.0,11/24/2018,0.1,2,1,7,This is two bedroom located in the heart of Brighton. It takes you to downtown by T within 20 minutes. The T is super close. The house rules are kind of very simple just please no smoking inside the house and no partying. No additional guest ($30 USD will be charged for per person if you have your guests) Shoes off please,
56532892,CRAZY SPACE & CRAZY SUN IN BUSHWICK,56728479551,unconfirmed,Kim,Brooklyn,Bushwick,40.6957,-73.91875,United States,US,False,flexible,Private room,2019,"$1,162 ",$232 ,25,61.0,3/6/2018,1.96,4,1,0,,
56533444,Hotel Room King/Queen at Wyndham Midtown 45 Resort,2030360137,unconfirmed,Chayla,Manhattan,Midtown,40.751979999999996,-73.97266,United States,US,True,flexible,Private room,2008,$417 ,$83 ,3,3.0,9/30/2017,0.1,5,12,365,,
56533996,Bedroom on Quiet Block on the Lower East Side,13032908869,unconfirmed,Samuel,Manhattan,Lower East Side,40.72167,-73.99075,United States,US,False,strict,Private room,2007,"$1,087 ",$217 ,30,2.0,3/20/2017,0.06,1,1,0,Please do not block other cars.,
56534549,Cozy True 1BR Apartment in Noho/East Village,65594622953,verified,Steven,Manhattan,East Village,40.72733,-73.99037,United States,US,True,strict,Entire home/apt,2018,$847 ,$169 ,3,36.0,6/18/2019,1.18,3,1,36,,
56535101,sunshine bedroom in old school artist loft,75576545155,unconfirmed,Azumi,Brooklyn,Williamsburg,40.71445,-73.93415999999999,United States,US,True,moderate,Private room,2019,$169 ,$34 ,7,0.0,,,1,1,0,"Please be respectful of other guests.  Keep the common areas clean and pick up after your self.  No loud music after 10:00PM.  It is a safe neighborhood but please, keep doors locked for safety No smoking in the house (smoking is allowed on the front or back decks).",
56535653,Small furnished room in shared West Village apt,84085782788,verified,Sarah,Manhattan,West Village,40.73368,-74.00049,United States,US,True,flexible,Private room,2014,$677 ,$135 ,2,2.0,1/3/2017,0.06,4,1,0,,
56536206,1 Bedroom Apartment with Balcony in Williamsburg,3023380692,unconfirmed,David,Brooklyn,Williamsburg,40.71179,-73.95565,United States,US,True,moderate,Entire home/apt,2005,$857 ,$171 ,2,0.0,,,5,1,0,,
56536758,Spacious room steps from Central Park and Subway,59669370089,verified,Yulia,Manhattan,Harlem,40.80392,-73.95642,United States,US,True,strict,Private room,2004,$195 ,$39 ,2,7.0,3/20/2018,0.23,2,1,0,No smoke,
56537310,Large 1BR Apt In Upper Manhattan w/AC in Bedroom,7410889451,verified,Daniel,Manhattan,Washington Heights,40.84517,-73.93748000000001,United States,US,True,strict,Entire home/apt,2009,"$1,181 ",$236 ,4,2.0,7/25/2017,0.08,2,1,0,Welcome to my home. I hope you will treat it as you would your own.,
56537863,PRIVATE STUDIO WITH LOTS OF LIGHT,78049856772,verified,Tania & Juan,Manhattan,Washington Heights,40.8471,-73.93500999999999,United States,US,False,strict,Entire home/apt,2014,$713 ,$143 ,1,17.0,5/26/2019,0.55,4,1,253,"Absolutely *no* smoking is allowed on the premise of the property. The upstairs tenant suffers from severe asthma. Please note that by violating this rule, you will be forfeiting the entirety of your $250 security deposit.",
56538415,1 Bedroom for Rent in the heart of Williamsburg,46649256060,verified,Peter,Brooklyn,Williamsburg,40.714,-73.95665,United States,US,True,flexible,Private room,2005,$578 ,$116 ,3,0.0,,,3,1,0,,
56538967,"2 bedroom apartment in Two Bridges(Chinatown, LES)",77169757440,verified,Pierre,Manhattan,Two Bridges,40.7115,-73.99903,United States,US,True,moderate,Entire home/apt,2007,"$1,067 ",$213 ,2,45.0,6/9/2019,1.47,3,2,112,#NAME?,
56539519,Micro Room A,44842527182,unconfirmed,Han,Manhattan,Hell's Kitchen,40.76275,-73.99525,United States,US,True,strict,Private room,2008,$589 ,$118 ,1,178.0,7/3/2019,5.75,3,6,146,No smoking.,
56540072,Comfortable Space + Great Block + Perfect Location,61648268913,verified,Ben,Manhattan,East Village,40.72954,-73.98303,United States,US,False,strict,Private room,2021,$649 ,$130 ,2,57.0,6/19/2019,2.36,5,1,56,"Please be respectful of other guests.  Keep the common areas clean and pick up after your self.  No loud music after 10:00PM.  It is a safe neighborhood but please, keep doors locked for safety No smoking in the house (smoking is allowed on the front or back decks).",
56540624,Luxury Apt - Private room & entry!,79775343169,verified,Jo & Savannah,Brooklyn,Bedford-Stuyvesant,40.681940000000004,-73.90956,United States,US,True,flexible,Private room,2007,$460 ,$92 ,2,151.0,5/28/2019,4.93,4,3,0,"Please be respectful of other guests.  Keep the common areas clean and pick up after your self.  No loud music after 10 pm.  No pets. It is a safe neighborhood but please, keep doors locked for safety No smoking in the house (smoking is allowed on the front or back decks).",
56541176,"Shared Living Space in Bushwick, Brooklyn",92735962615,unconfirmed,Monica,Brooklyn,Bedford-Stuyvesant,40.689370000000004,-73.9226,United States,US,False,flexible,Shared room,2004,$687 ,$137 ,1,3.0,12/31/2016,0.1,1,2,0,,
56541729,CHARMING ROOM W/ ROOF DECK ACCESS 3 :),53815238899,verified,Graham And Ben,Brooklyn,Clinton Hill,40.69461,-73.96186,United States,US,False,moderate,Private room,2010,$395 ,$79 ,30,9.0,3/7/2019,0.29,4,11,263,Pets are not allowed ,
56542281,CHARMING COZY ROOM FOR 1 :),42148082973,verified,Graham And Ben,Brooklyn,Bedford-Stuyvesant,40.6945,-73.96005,United States,US,True,strict,Private room,2019,$190 ,$38 ,30,15.0,2/28/2019,0.48,2,11,342,"No smoking --- only smoking on the patio with doors and windows closed is permitted. No parties or extra guests without prior consent.  This is a quiet building with professionals living on each floor. Use of kitchen is permitted, but dishes must be put away (loaded in dishwasher) and pots and pans cleaned before leaving. A VirtuoLine Nespresso makers is available for guest use --- coffee pods are provided for you to enjoy.  Instructions are on-site. Use of washer/dryer is NOT permitted.",
56542833,Spacious Luxury 2bd-2ba apartment near DUMBO,8913637523,unconfirmed,Dmitry,Brooklyn,Downtown Brooklyn,40.69899,-73.98653,United States,US,True,flexible,Entire home/apt,2004,$414 ,$83 ,5,0.0,,,4,1,0,"There are no pets or smoking allowed. Because there is another family living upstairs, loud music and partying is not allowed Please treat my home as if it were yours",
56543386,Spacious 1 bedroom in the heart of downtown NYC,21088299179,unconfirmed,Maura,Manhattan,East Village,40.725429999999996,-73.99129,United States,US,False,moderate,Entire home/apt,2006,"$1,023 ",$205 ,2,18.0,6/3/2019,0.7,2,1,68,1. Do adjust the heat/central air to your liking. 2. Do feel free to use all the amenities in the kitchen/bathroom. 3. Don't mind the neighbors. 4. Don't use the backyard space. 5. Park on the street - the parking space is for the downstairs neighbor only. 6. Smoke outdoors.,
56543938,"Sunny Basement Studio Apartment, 1 block to Park",7419344663,unconfirmed,Deborah,Brooklyn,Flatbush,40.64849,-73.96585,United States,US,True,strict,Entire home/apt,2004,$167 ,$33 ,2,9.0,10/1/2018,0.29,2,1,0,"This is a smoke-free house. Otherwise, we just ask you to be respectful and considerate of others.",
56544490,AWESOME CHARMING ROOM C WITH ROOF DECK ACCESS :),43995969453,verified,Katie Graham,Brooklyn,Clinton Hill,40.69307,-73.96183,United States,US,True,moderate,Private room,2006,$553 ,$111 ,30,13.0,5/20/2019,0.41,5,6,332,"Please be respectful of other guests.  Keep the common areas clean and pick up after your self.  No loud music after 10:00PM.  It is a safe neighborhood but please, keep doors locked for safety No smoking in the house (smoking is allowed on the front or back decks).",
56545042,AWESOME CHARMING ROOM B WITH ROOF DECK ACCESS :),89305500053,unconfirmed,Katie Graham,Brooklyn,Bedford-Stuyvesant,40.694590000000005,-73.96103000000001,United States,US,False,strict,Private room,2010,$689 ,$138 ,30,7.0,5/16/2018,0.24,1,6,97,No pets are allowed in the house.,
56545595,"Beautiful, Spacious Harlem Home",76171514775,unconfirmed,Perry,Manhattan,Harlem,40.81153,-73.94528000000001,United States,US,True,strict,Private room,2014,$781 ,$156 ,7,0.0,,,2,1,0,"House quiet hours are 10PM to 8AM. No smoking, No Pets.",
56546147,Stanhope,93842328763,unconfirmed,Timbrooke,Brooklyn,Bushwick,40.69477,-73.92489,United States,US,False,moderate,Private room,2009,$584 ,$117 ,7,0.0,,,5,2,362,,
56546699,Penthouse,24244577189,unconfirmed,David,Manhattan,East Harlem,40.79142,-73.9398,United States,US,False,strict,Entire home/apt,2009,$541 ,$108 ,4,33.0,6/26/2019,1.2,3,1,346,Please be respectful to other tenants.,
56547252,Modern Apt in Harlem steps from Central Park!,22845410672,unconfirmed,Sade,Manhattan,Harlem,40.79942,-73.95128000000001,United States,US,True,strict,Entire home/apt,2006,$423 ,$85 ,3,11.0,10/25/2017,0.36,2,1,0,"not smocking in the apt, you can smoke in the porch down stairs parties allowed in the porch downstairs",
56547804,Beautiful spacious Greenpoint Apartment,89935181903,verified,Zdzislawa,Brooklyn,Greenpoint,40.72623,-73.94972,United States,US,True,strict,Private room,2007,$786 ,$157 ,2,37.0,11/2/2017,1.23,2,1,0,Please be respectful to the apartment and the other people who live in the space.,
56548356,Sunny 1 Bedroom Apt. in Brooklyn,59642077168,verified,Christopher,Brooklyn,Bedford-Stuyvesant,40.67902,-73.95085,United States,US,True,flexible,Entire home/apt,2019,$394 ,$79 ,2,5.0,12/29/2018,0.19,1,1,0,"No smoking, drugs, or drinking, please.",
56548909,Fabulous Chelsea Triplex (2 bdrm/1.5 bath),9597789452,verified,Sara,Manhattan,Chelsea,40.74289,-73.9953,United States,US,False,strict,Entire home/apt,2015,$449 ,$90 ,6,0.0,,,2,1,0,"Treat the home as if it were your own. If you need to smoke, you can smoke on the porch",
56549461,Great room in charming Fort Greene Brooklyn,6067547173,unconfirmed,Ariane,Brooklyn,Fort Greene,40.69357,-73.97235,United States,US,True,flexible,Private room,2004,$939 ,$188 ,6,0.0,,,4,1,0,,
56550013,Sunny Room in East Williamsburg close to L Train,64536061987,verified,Sascha,Brooklyn,Williamsburg,40.70669,-73.94334,United States,US,True,strict,Private room,2019,$763 ,$153 ,3,10.0,7/1/2019,0.38,2,1,4,,
56550565,Wonderful room located in charming East Village,19397766855,verified,Calvin,Manhattan,East Village,40.72087,-73.98079,United States,US,False,moderate,Private room,2014,$779 ,$156 ,1,2.0,6/7/2018,0.15,2,1,0,Clean is a must.. No smoking cigars.,
56551118,1 (twin) private room in bushwick +roof +living rm,28891379639,unconfirmed,Zarrin,Brooklyn,Bushwick,40.6984,-73.92273,United States,US,False,moderate,Private room,2006,$367 ,$73 ,3,2.0,1/11/2017,0.07,3,1,0,This is a private room with access to a private rooftop deck. The bathroom is shared with one roommate who is at work from 6am-6pm. The kitchen is available for your use. The room has a minifridge with water and cold brewed coffee.  We ask that you don't smoke.,
56551670,Spacious and bright 1 bedroom apartment,66376547953,unconfirmed,Shara,Manhattan,Harlem,40.8087,-73.95142,United States,US,True,moderate,Entire home/apt,2011,$523 ,$105 ,7,0.0,,,4,1,0,"Please be respectful of other guests.  Keep the common areas clean and pick up after your self.  No loud music after 10:00PM.  It is a safe neighborhood but please, keep doors locked for safety  No smoking in the house (smoking is allowed on the front or back decks).",
56552222,Lovely Spacious Bedroom in Brooklyn,77598283991,unconfirmed,Yoni,Brooklyn,Clinton Hill,40.69546,-73.96188000000001,United States,US,False,moderate,Private room,2004,$632 ,$126 ,3,163.0,6/12/2019,5.22,2,2,53, No smoking in house but on the balcony it's ok. No more than 2 people. One real bed and one Murphy's bed (pull-out). Shared bath in the (URL HIDDEN) overnight guests. keep noise level down. Have fun but be respectful of the type of neighborhood that we are in. no pets (URL HIDDEN) more than 3 night stays at a time.,
56552775,Spacious 2 BDR - Hell's Kitchen/Times Square,69321283312,unconfirmed,Sy,Manhattan,Hell's Kitchen,40.762840000000004,-73.98849,United States,US,True,moderate,Entire home/apt,2017,$171 ,$34 ,4,2.0,11/30/2017,0.07,5,1,0,No Smoking in the Apartment.  Pretty laid back home here with two cats that have free reign.  Not a huge place so don't party here. Social & Respectful w/ cleaning after ourselves.  Respecting quiet at night.,
56553327,"Williamsburg Experience, Quick Manhattan Access",92137286334,verified,Inese & Michæl,Brooklyn,Williamsburg,40.71002,-73.96236999999999,United States,US,True,strict,Private room,2011,$213 ,$43 ,2,71.0,6/7/2019,2.32,2,1,70,"Please be respectful of other guests.  Keep the common areas clean and pick up after your self.  No loud music after 10:00PM.  It is a safe neighborhood but please, keep doors locked for safety No smoking in the house (smoking is allowed on the front or back decks).",
56553879,"UWS Landmarked Townhouse 1BR, APT 3B",41694413914,unconfirmed,Lisa,Manhattan,Upper West Side,40.78297,-73.98141,United States,US,False,strict,Entire home/apt,2013,$635 ,$127 ,90,2.0,11/15/2017,0.07,3,8,125,"- Bathroom and kitchen are shared, so please clean up after yourself immediately to respect the other guests!",
56554432,RG - Budget Friendly room in the Greenpoint area!,97053205678,unconfirmed,Max,Brooklyn,Greenpoint,40.73731,-73.95493,United States,US,True,moderate,Private room,2020,$918 ,$184 ,2,85.0,6/16/2019,2.73,2,3,171,Absolutely no smoking/drugs Keep the place as clean as you found it Keep the noise down at night,
56554984,Private cozy room near LGA airport,50084231342,verified,Juel,Queens,East Elmhurst,40.76432,-73.87227,United States,US,False,moderate,Private room,2007,"$1,163 ",$233 ,1,333.0,6/24/2019,10.64,5,5,139,No smoking in the unit ( strict)  No pets (strict)  No bringing guys inside (strict)  No open flame There is a $100 charge for lost key due to the tap system installed in building  Please keep your volume down to respect other neighbors,
56555536,Private large room near LGA airport with queen bed,79285839294,verified,Juel,Queens,East Elmhurst,40.76509,-73.8717,United States,US,False,flexible,Private room,2020,$552 ,$110 ,1,255.0,6/23/2019,8.17,2,5,175,Guests are encouraged to feel at home but be respectful and gentle.  A welcome sheet is provided in your room with useful information,
56556088,The Fenihouse Brooklyn,44860951765,unconfirmed,Renee,Brooklyn,Prospect-Lefferts Gardens,40.65868,-73.94991999999999,United States,US,True,strict,Entire home/apt,2016,$679 ,$136 ,2,46.0,6/16/2019,1.5,2,1,234,No Smoking Please leave all things the way you found them.  No pets allowed. We will leave more detailed guidelines in the apartment.,
56556641,Chic & Cosy Lower East Side Apartment,14529289930,verified,Sophie,Manhattan,Chinatown,40.717040000000004,-73.99081,United States,US,True,strict,Private room,2013,$577 ,$115 ,2,2.0,7/2/2017,0.06,3,1,0,No shoes inside the house,
56557193,Room at Home in Lower East Side,95585296622,unconfirmed,Andrea,Manhattan,Lower East Side,40.71833,-73.98555999999999,United States,US,True,strict,Private room,2015,$671 ,$134 ,4,,6/25/2019,0.63,4,2,244,"I spent a lot of time and effort renovating my property, so I ask that you respect it as your own. Please be cognizant of neighbors - no loud music, no parties, and no people who aren't a part of the reservation should be staying overnight. Please leave all used sheets/towels in the bathroom. * No SMOKING in the unit * No PETS",
56557745,Private room near LGA Airport with queen bed,94670144155,unconfirmed,Juel,Queens,East Elmhurst,40.76582,-73.87153,United States,US,True,flexible,Private room,2016,$890 ,$178 ,1,306.0,6/20/2019,9.82,5,5,155,"House Rules 1. Check-in is 4 pm local time. If the unit is ready earlier, we’ll let you know. Check-out is normally 11 am local time, but we’d be happy to extend it as long as we don’t have a cleaning scheduled. Just let us know.  2. All bookings require a security deposit of at least $300, which will be refunded within 7 days of your check-out. 3. For security measures we require all guests to provide proof of identification through ID verification on our own website. In order to check in we'll need a photo of your ID.  4. Our cancellation policy is as shown on our ad and defined by the site you are booking through.  5. Don’t let $300 go up in smoke. There's no smoking allowed in any Flatbook and a $300 fine for breaking this rule.  6. Unfortunately we don’t allow pets in any of our apartments. 7. Unless you’re staying in one of our specialty apartments, we don’t allow parties or excessive noise. 8. If we find the place very messy, we have to charge an extra $40 for every extra hour o",
56558298,Room In Bed-Stuy Apartment,82412902595,unconfirmed,Darren,Brooklyn,Bedford-Stuyvesant,40.689009999999996,-73.95371,United States,US,False,flexible,Private room,2021,"$1,148 ",$230 ,1,0.0,,,2,1,0,"Please be respectful of other guests.  Keep the common areas clean and pick up after your self.  No loud music after 10 pm.  No pets. It is a safe neighborhood but please, keep doors locked for safety No smoking in the house (smoking is allowed on the front or back decks).",
56558850,Stylish & Spacious Apartment,76721690778,unconfirmed,Bertus,Brooklyn,Canarsie,40.6315,-73.90760999999999,United States,US,True,flexible,Entire home/apt,2010,"$1,140 ",$228 ,2,88.0,6/21/2019,2.85,3,1,349,,
56559402,Ft Greene: 2-3 Bedroom Duplex w/Garden,59914636696,unconfirmed,Heather,Brooklyn,Fort Greene,40.69601,-73.97114,United States,US,True,flexible,Entire home/apt,2014,$174 ,$35 ,6,7.0,8/29/2018,0.23,4,2,5,"Pets: No pets are allowed in the apartment. There are no exceptions. Smoking: No smoking is allowed in the apartment. There are no exceptions. Parties: Small, quiet gatherings of six to eight people are fine. But large parties in the apartment are strictly off-limits.  Internet: Network name is [provided upon arrival]. Password is [provided upon arrival]. TV: We have cable service through Xfinity. Remote controls are in the TV console. You are free to watch the channels included in our package, but please do not order any movies or shows. Coffee: The coffeepot in the kitchen is a Bunn coffee maker. If you are not familiar with brewing coffee with a Bunn, please read the instructions behind the coffeepot (red pamphlet). If you don’t, you will be sorry because there will probably be coffee all over the counter and floor! Laundry: In the basement there are two washers and two dryers, which you are free to use. Please use the detergent, fabric softener, and dryer sheets in the plastic bin ",
56559955,Bright & cozy 1BR/Balcony next to 3 subways!,85800494231,verified,Gala,Brooklyn,Williamsburg,40.70581,-73.95004,United States,US,False,moderate,Entire home/apt,2014,$981 ,$196 ,3,72.0,6/22/2019,2.31,1,2,302,,
56560507,big room in Hell's Kitchen close to Times Square,26410492469,verified,Jose Diego,Manhattan,Hell's Kitchen,40.75997,-73.98781,United States,US,True,moderate,Private room,2009,$237 ,$47 ,1,0.0,,,4,1,0,,
56561059,Cozy in Cobble Hill,45616640618,unconfirmed,Karen,Brooklyn,Carroll Gardens,40.68577,-73.9928,United States,US,True,flexible,Entire home/apt,2019,$205 ,$41 ,2,0.0,,,2,1,0,"We expect respect during the workweek as any other working professional would! Otherwise enjoy have fun, go out and enjoy what Boston has to offer. Also for Parties and events we love to have everything pre-cleared with us. Thanks!",
56561611,Cute Bedroom in Hip Bushwick,10565578797,verified,Vanessa,Brooklyn,Bushwick,40.70279,-73.9289,United States,US,False,strict,Private room,2010,$376 ,$75 ,7,2.0,1/15/2017,0.06,4,1,89,"House Rules 1. All bookings made at least a week before check in are fully refundable if cancelled within 24 hours of booking. After this, you will receive a 50% refund if you cancel at least 7 days before the start of your trip. 2. Check-in time is any time after 4 pm local time. If the unit is ready earlier, we’ll let you know. Check-out is normally 11 am local time, but we’d be happy to extend it as long as we don’t have a cleaning scheduled. Just let us know.  3. All bookings require a security deposit of at least $300. 4. For security measures we require all guests to provide proof of identification through ID verification on our own website. In order to check in, we'll need a photo of your ID.  5. Don’t let $300 go up in smoke. There's no smoking allowed in any Flatbook and a $300 fine for breaking this rule.  6. Unfortunately we don’t allow pets in most of our apartments. 7. Unless you’re staying in one of our specialty apartments, we don’t allow parties or excessive noise. 8. I",
56562164,"Spacious, cozy, quiet 1.5 bedroom",46172659216,verified,Audrey,Queens,Ridgewood,40.705009999999994,-73.91065,United States,US,False,flexible,Entire home/apt,2017,$756 ,$151 ,4,1.0,1/2/2017,0.03,5,1,0,"No pets, no smoking of any manner or tobacco products allowed.  This is my home and I expect guests to treat it with the same respect and consideration as they would give their own homes.",
56562716,Amazing 3BR Triplex Family Apartment w/ Garden,85587096169,unconfirmed,Lisa,Manhattan,Upper West Side,40.78467,-73.98192,United States,US,True,flexible,Entire home/apt,2004,$867 ,$173 ,30,0.0,,,4,8,362,"No smoking, no drugs, no partying, no pets. This is not a party pad. We would like you to respect all personal belongings in the apartment and ask you to leave everything the way it was when we gave it to you.  We ask that you water the plants (4 of them) once a week. Please leave the apartment clean and the way we left it, as per AirBnB terms and conditions.",
56563268,Light filled private room in Red Hook!,18263707134,verified,Mattia,Brooklyn,Red Hook,40.67414,-74.00707,United States,US,True,strict,Private room,2006,$804 ,$161 ,4,4.0,6/20/2019,0.13,1,1,0,,
56563821,Charming Bedroom on the Lower East Side,74741552800,verified,Emily,Manhattan,Lower East Side,40.72007,-73.98559,United States,US,False,flexible,Private room,2021,$517 ,$103 ,5,0.0,,,1,1,0,"Please be respectful of other guests.  Keep the common areas clean and pick up after your self.  No loud music after 10:00PM.  It is a safe neighborhood but please, keep doors locked for safety No smoking in the house (smoking is allowed on the front or back decks).",
56564373,Clean Comfortable Room in Amazing NYC Neighborhood,10732701346,unconfirmed,Jake,Queens,Ridgewood,40.70412,-73.90171,United States,US,False,strict,Private room,2011,$209 ,$42 ,3,2.0,12/31/2016,0.06,4,1,0,,
56564925,Luxury Apartment Located in Riverdale.,86311472741,verified,Don,Bronx,North Riverdale,40.901540000000004,-73.89791,United States,US,True,strict,Entire home/apt,2004,$746 ,$149 ,7,0.0,,,3,1,89,"- No smoking anywhere (non-smokers only) - No cologne/perfume/scented sprays due to allergy (deodorant roll/stick OK, hairspray OK) - Cat in the house, free roaming, please don't feed her - No disturbance - Visitors not permitted - Recycling, conserve resources, reusable shopping bag provided - Please avoid single use plastic bags - NO parking, don't bring a car - Light kitchen use: microwave, refrigerator/freezer, toaster, electric tea pot",
56565478,--Into The Heart Of Greenpoint--,36075822813,verified,Chris,Brooklyn,Greenpoint,40.728790000000004,-73.95689,United States,US,True,flexible,Entire home/apt,2009,$571 ,$114 ,3,37.0,5/27/2019,1.18,2,1,258,"quiet after midnight, no smoking on premises (smoke on the sidewalk only, cigarette smoke goes into open windows and the building is full of non-smokers), no guests",
56566030,"Very spacious and sunny room in Harlem, Manhattan!",85902817682,unconfirmed,Tatiana,Manhattan,Harlem,40.83036,-73.94346,United States,US,True,flexible,Private room,2016,$752 ,$150 ,15,0.0,,,2,1,0,,
56566582,Sun-drenched room in quiet Ridgewood neighborhood,30799740386,unconfirmed,Norberto,Queens,Ridgewood,40.707229999999996,-73.91107,United States,US,True,flexible,Private room,2009,"$1,110 ",$222 ,5,0.0,,,3,1,0,"No loud music after 10:00PM.  It is a safe neighborhood but please, keep doors locked for safety No smoking in the house (smoking is allowed on the front or back decks).",
56567134,"Bright, airy, calm Brooklyn space",77858444855,verified,Clare,Brooklyn,Bedford-Stuyvesant,40.68314,-73.9566,United States,US,False,moderate,Private room,2013,$138 ,$28 ,2,4.0,1/24/2017,0.13,4,1,0,"Have FUN! Wireless Internet is Foster St. Castle and Password is Brighton169171 No smoking inside, but feel free to smoke outside or on the deck! Just please properly dispose of butts. Bigger black remote turns on the TV and Volume, Smaller black remote is for the Blue Ray Player. Comcast remote is for Cable. No loud music after 10:30, but head out on the town!! Uber and Lyft are great for getting cheaper, faster rides. The Buses are usually quicker and cleaner than the T, especially the B line. If taking the T, definitely walk to the C/D in Cleveland Circle. There are awesome fields and parks very close (walking) to the house.  Make sure to pick up after your dog.",
56567687,Modern Ridgewood Apartment!,9590442307,unconfirmed,Manuel,Queens,Ridgewood,40.698570000000004,-73.90618,United States,US,False,flexible,Private room,2011,$637 ,$127 ,4,20.0,12/27/2017,0.64,3,1,0,,
56568239,Cozy with Great location !!!!,84835730345,unconfirmed,Nora,Brooklyn,Sheepshead Bay,40.59813,-73.95432,United States,US,True,flexible,Shared room,2005,$491 ,$98 ,1,47.0,6/23/2019,1.58,1,5,354,,
56568791,Brooklyn Style Apartment!,97466307197,unconfirmed,Sandra&Orlando,Brooklyn,Flatbush,40.64438,-73.95484,United States,US,True,strict,Entire home/apt,2008,"$1,118 ",$224 ,7,15.0,1/2/2019,0.49,5,2,281,,
56569344,A dose of Williamsburg cool,77729485527,verified,Matt,Brooklyn,Williamsburg,40.70885,-73.94586,United States,US,False,strict,Private room,2007,$249 ,$50 ,2,3.0,4/8/2017,0.1,4,1,0,,
56569896,Large room with private bath & kitchen near train,71688166715,unconfirmed,Adil,Brooklyn,Flatbush,40.639,-73.96661999999999,United States,US,False,strict,Entire home/apt,2008,$239 ,$48 ,1,124.0,6/24/2019,3.97,1,1,64,"No pets, no smoking. Please remove your shoes upon entering. We have very sensitive floors and would like to keep them looking new ;)",
56570448,Cozy room in Brooklyn,28289585450,unconfirmed,Yagil,Brooklyn,Bedford-Stuyvesant,40.68997,-73.92742,United States,US,False,moderate,Private room,2006,$906 ,$181 ,8,11.0,2/28/2018,0.35,3,2,0,Please do not smoke. Be respectful of other guests.,
56571001,Charming Chelsea Studio,33337101712,unconfirmed,Charles,Manhattan,Chelsea,40.74753,-74.00395999999999,United States,US,True,strict,Entire home/apt,2021,$550 ,$110 ,3,7.0,2/13/2019,0.31,2,1,9,"- No gatherings/parties for more than 12 people,  - Please keep noise down after 9 pm",
56571553,River View Apartment in the Bronx,1799443656,unconfirmed,Germaine,Bronx,Kingsbridge,40.86605,-73.90694,United States,US,False,flexible,Entire home/apt,2003,$731 ,$146 ,26,3.0,8/23/2018,0.16,4,1,37,"Three simple rules! No smoking (indoors) or visitors, please. Please remember to lock up when you enter and exit. Please turn off the lights when you are not using them.  Thanks!",
56572105,Comfortable room in quite home with queen size bed,31724467685,unconfirmed,Carla,Brooklyn,East New York,40.66192,-73.86764000000001,United States,US,False,moderate,Private room,2009,$957 ,$191 ,2,37.0,1/29/2019,1.21,5,4,158,No smoking indoors (a big porch with seating available for smokers)  Guests are expected to clean up after themselves in the bathroom and in the kitchen.,
56572657,Private Room on Roosevelt Island,59651195700,verified,Erik,Manhattan,Roosevelt Island,40.76182,-73.94879,United States,US,True,strict,Private room,2005,$635 ,$127 ,1,8.0,4/28/2019,0.32,5,2,0,,
56573210,Cozy room in 3 BR Williamsburg apartment,2450512646,verified,Charlotte,Brooklyn,Williamsburg,40.71457,-73.96332,United States,US,False,flexible,Private room,2014,$173 ,$35 ,2,1.0,1/1/2017,0.03,1,1,0,"Please respect the other neighbors. This building contains professionals and is very quiet. Please no smoking, parties, and pets. Must be over 21.",
56573762,Super Great Williamsburg Apartment- Private Room,39341757900,verified,Bridgid,Brooklyn,Williamsburg,40.7133,-73.95036999999999,United States,US,True,flexible,Private room,2011,"$1,172 ",$234 ,1,1.0,3/27/2017,0.04,5,1,0,#NAME?,
56574314,Comfy Bedroom in Spacious Manhattan apartment,93582652296,verified,Victor,Manhattan,East Harlem,40.79639,-73.93319,United States,US,False,flexible,Private room,2014,$414 ,$83 ,3,24.0,6/29/2019,0.86,3,2,81,"No smoking anywhere in or out of home (guest must be non-smoker) Cologne/perfume/spray use are not allowed any time anywhere (allergy prevent) Please be aware of your actions and always look back before leaving bathroom to make sure everything is left clean Please cause no disturbance and walk the stairs slower to prevent much noise OK to eat in your room but not in bed, always clean/cover food Keep your room clean during your stay Recycle and use reusable shopping bag (provided, please carry with you) Please do not bring plastic bags from stores Ask for help/assistance/information at any time, we want you to feel comfortable Night time help please call from the same phone number twice or more if the call is not answered Do not give mailing address to anyone (ask me why) If guest breaks rule about mailing address, the charge is $205",
56574867,Charming attic Room in Home + Backyard/Near Metro,34442397908,unconfirmed,Ciprian,Bronx,Fordham,40.87093,-73.8934,United States,US,False,flexible,Private room,2003,$249 ,$50 ,3,84.0,6/23/2019,2.74,1,4,75,"Unlike most other Airbnb listings, what we do here is long-term rentals by the year, or by the semester and we can welcome compatible short-term guests.  We try to keep the atmosphere conducive to studying and resting and a couple of house-rules are in place to this end.    1. No smoking on the premises.  2. No loud music or TV etc.   3. Only for one person (no couples, no visitors). We seldom have visitors, let alone overnight guests. We know this will be a major turn-off to many people, but we believe we can find a like-minded roommate who can have fun outside the house.   4. If you re not sure about your check-out date, you can reserve the minimum days and extend your stay at a discounted rate.   5. Check-in time is flexible, but it has to be coordinated at least 24 hours ahead. On arrival, a short registration process with a picture ID is needed in exchange for keys and wifi access.",
56575419,"Charming Central 1- Bedroom Apartment, Gramercy",89902376073,unconfirmed,Jenna,Manhattan,Gramercy,40.73794,-73.98423000000001,United States,US,False,strict,Entire home/apt,2019,"$1,058 ",$212 ,10,4.0,1/2/2019,0.15,5,1,48,"This is a smoke free home. If parking, please leave space for other cars to get around and in and out of the drive. The fireplace is non-working. The back porch is closed for renovations, but feel free to enjoy the back yard (also being renovated, but still a great place to sit and relax).",
56575971,Artsy Apt in Bushwick!,37549177617,unconfirmed,Tracy,Brooklyn,Bushwick,40.68376,-73.91121,United States,US,True,flexible,Private room,2008,$683 ,$137 ,2,5.0,5/16/2017,0.16,5,1,206,,
56576524,"Cozy Sunny Room in New Apartment by G, J, M trains",80033194187,unconfirmed,Andrei,Brooklyn,Bedford-Stuyvesant,40.69442,-73.94362,United States,US,True,moderate,Private room,2008,$871 ,$174 ,7,0.0,,,1,2,0,"Share our house as a guest, don't worry about cost of snacks or an occasional beer.  No smoking and no pets. Please consult first if travelling with small children.",
56577076,Great Duplex in Crown Heights,87626731657,unconfirmed,Tania,Brooklyn,Prospect-Lefferts Gardens,40.66075,-73.94549,United States,US,False,strict,Entire home/apt,2004,"$1,141 ",$228 ,3,0.0,,,2,1,0,No shoes inside the house,
56577628,Cozy place in a diverse city,62726793450,unconfirmed,Mabel,Queens,Elmhurst,40.74572,-73.87556,United States,US,True,strict,Private room,2006,"$1,179 ",$236 ,1,2.0,1/20/2017,0.07,3,1,0,"No smoking, no parties. Quiet building. Sorry, no pets.",
56578180,Entire 1 Bedroom Apt with Great Light & Vibes :),49639184066,verified,Meli And Daniel,Manhattan,Chinatown,40.714890000000004,-73.99438,United States,US,False,moderate,Entire home/apt,2011,$621 ,$124 ,7,11.0,10/30/2018,0.35,4,1,188,,
56578733,Cozy & Sunlit Three Bedroom Apartment,74539272259,unconfirmed,Dana,Manhattan,Harlem,40.82548,-73.94983,United States,US,True,flexible,Entire home/apt,2012,$161 ,$32 ,2,1.0,1/1/2017,0.03,5,1,0,No smoking please - Please just leave the place as you found it.,
56579285,"Cozy, Quiet, 1 bedroom apartment - Lower East Side",76236739183,verified,Al,Manhattan,Lower East Side,40.7178,-73.98448,United States,US,True,flexible,Entire home/apt,2021,$936 ,$187 ,1,46.0,6/23/2019,1.5,1,1,31,"- Peanut/Nut Free, Gluten Free house please for the safety of many people including the cleaning crew, myself, and others who wish to stay here in the future do not bring these items (i.e. peanut butter or peanuts) into the house - Please let me know if you plan to bring an animal as I do occassionally have a foster animal here, I'd want to make sure I wasn't fostering at that time, or make other arrangements. - No smoking in doors, it WILL set off the fire alarms in the building, which is loud and causes the entire building to have to evacuate and wait outside (and trust me, it is loud enough and annoying enough it WILL wake you from a dead sleep and you'll be rushing to get out and save your ears from the sound! Also there is a $100-$200 fee for smoking inside or for smoking infront of the building (or either building on each side). But, you are welcome to walk across or down the street a bit or around the block, etc to smoke - You may order movies or anything else On Demand, but ple",
56579837,Quiet Room in Unique Carroll Gardens,42411020095,verified,Kristan,Brooklyn,Carroll Gardens,40.67711,-73.99691999999999,United States,US,False,strict,Private room,2011,$517 ,$103 ,2,2.0,3/2/2017,0.07,3,1,0,,
56580390,Sunny room in BK for your NYC stay!,8527891246,verified,Eric,Brooklyn,Crown Heights,40.67306,-73.92334,United States,US,False,moderate,Private room,2004,$769 ,$154 ,2,34.0,6/4/2019,1.11,4,5,29,Guests need to be respectful of other tenants. This is the ground floor apartment of a 3 story house; all apartments have separate entrances.,
56580942,Elegant 3BR with Backyard (15 Mins to Manhattan!),47462228345,unconfirmed,Nikita,Brooklyn,Bedford-Stuyvesant,40.68314,-73.93124,United States,US,False,strict,Entire home/apt,2003,$182 ,$36 ,2,67.0,6/21/2019,2.27,2,3,250,"Please just keep your area reasonably clean and pick up after yourself.  Nothing special.  All the kitchen appliances that are there are available for your use.  Just wash your dishes and pick up any trash you have.   If anything gets dirty, no need to be embarrassed.  Just let us know so we can take care of it as soon as possible.   Also no smoking and no loud parties.  Come, enjoy yourself and have fun.",
56581494,a budget comfy room,83472012928,unconfirmed,Mei,Queens,Bayside,40.75377,-73.7726,United States,US,False,moderate,Private room,2021,$719 ,$144 ,15,22.0,6/2/2019,0.7,3,2,145,There is  light breakfast - cereal with milk that is served.,
56582047,Full Apartment in Upper West Side.,73288695078,verified,Per Byholt Leibøl,Manhattan,Upper West Side,40.795190000000005,-73.96945,United States,US,True,moderate,Entire home/apt,2020,$286 ,$57 ,2,2.0,1/14/2017,0.07,2,1,0,"No smoking, no pets.",
56582599,Brooklyn Brownstone Serenity,77931551089,unconfirmed,Tali,Brooklyn,Bedford-Stuyvesant,40.68588,-73.92784,United States,US,False,strict,Entire home/apt,2017,$397 ,$79 ,6,55.0,6/30/2019,1.81,1,1,59,,
56583151,UES Beautiful Apartment off Park Av,1677905567,unconfirmed,Natalia,Manhattan,Upper East Side,40.76786,-73.96973,United States,US,False,flexible,Entire home/apt,2017,$752 ,$150 ,4,23.0,7/7/2019,0.76,3,1,17,"Please be respectful of other guests.  Keep the common areas clean and pick up after your self.  No loud music after 10:00PM.  It is a safe neighborhood but please, keep doors locked for safety No smoking in the house (smoking is allowed on the front or back decks).",
56583703,Wyndham 2 doubles hotel room,32272440108,verified,Rich,Manhattan,Midtown,40.75169,-73.97174,United States,US,False,moderate,Entire home/apt,2021,$731 ,$146 ,2,2.0,1/1/2017,0.06,5,4,0,,
56584256,Spectacular Townhouse 4Floor 5BD West Village NYC,68903310457,verified,Maud,Manhattan,West Village,40.73726,-74.00085,United States,US,True,moderate,Entire home/apt,2018,"$1,100 ",$220 ,1,8.0,12/27/2018,0.41,5,1,361,"Be clean and respectful Be clean: I will do my best to have the place always clean when you arrive. The expectation is that you maintain it clean when you are here and that you leave it clean. Please clean the bathroom sink, wc and tub after you use them (e.g. if you shave, your hears should not remain in the sink) If you use the bathroom bin, you have to empty it.  If you use dishes, glasses, pans, pots, silverware that are available for your use in the kitchen, the expectation is that you rinse everything you used and put it in the dishwasher. In a few wards, clean after yourself. Please remember this is my house that I open to you and share with you for a modest fee. This fee does not include daily housekeeping. I should not be cleaning after you. I am easy going, but I will give you a bad review if you do not clean METICULOUSLY after yourself. Doing this means you are being respectful. I will observe these rules to the fullest. Thanks",
56584808,"Amazing location, East Village full 3BR apartment",14598867720,verified,Ben,Manhattan,East Village,40.72357,-73.98796999999999,United States,US,False,flexible,Entire home/apt,2012,$162 ,$32 ,2,0.0,,,2,4,0,,
56585360,Studio in West Village,87326504452,unconfirmed,Eric,Manhattan,West Village,40.73243,-74.00932,United States,US,True,moderate,Entire home/apt,2018,$549 ,$110 ,4,1.0,1/2/2017,0.03,4,1,0,"According to general house rules: no smoking, pets are not allowed in the complex. ",
56585913,Hamilton Heights Townhouse Apartment,73050901874,unconfirmed,Michael,Manhattan,Harlem,40.82255,-73.94807,United States,US,True,strict,Private room,2013,$724 ,$145 ,4,30.0,6/17/2019,1.18,2,1,28,,
56586465,Cozy Bedroom in the heart of Williamsburg,16011638405,unconfirmed,Laura,Brooklyn,Williamsburg,40.719570000000004,-73.95828,United States,US,True,moderate,Private room,2019,"$1,153 ",$231 ,4,0.0,,,3,1,0,#NAME?,
56587017,Cozy room Williamsburg,50732856492,unconfirmed,Helena,Brooklyn,Williamsburg,40.712920000000004,-73.94136999999999,United States,US,False,flexible,Private room,2007,$427 ,$85 ,3,4.0,5/28/2018,0.13,2,3,0,"No pets, no smoking of any manner or tobacco products allowed.  This is my home and I expect guests to treat it with the same respect and consideration as they would give their own homes.",
56587570,Charming Modern 1 Bedroom in Bedstuy.,65376605206,unconfirmed,Shaun-Curtis,Brooklyn,Bedford-Stuyvesant,40.683690000000006,-73.94896999999999,United States,US,False,moderate,Entire home/apt,2016,"$1,124 ",$225 ,4,2.0,1/2/2018,0.07,5,1,0,**No cigarettes in the house please.  **There is a strict $50 additional fee for each additional guest not on the original reservation (Emergency situations will be reviewed for accommodation.) - If you are coming in from outside the country please confirm your arrival time before your trip. Also if you are e-mailing me from an e-mail address that is different from your Air Bnb account please reference the name on the booking when you e-mail to avoid confusion. ** ABSOLUTELY NO parking in the driveway. There is ample street parking. Please keep the gate closed Feel free to use the patio and backyard Consider us & the neighbors by keeping noise down Smoking is permitted outside ONLY Please dispose of your cigarettes appropriately Have fun & Feel free to contact us for anything that you may need!,
56588122,"Private Studio along the park in Greenpoint, BK",92649257609,unconfirmed,Colin,Brooklyn,Greenpoint,40.7234,-73.94136,United States,US,False,strict,Entire home/apt,2015,$706 ,$141 ,3,5.0,7/7/2019,0.17,1,1,0,,
56588674,Cozy Attic RM in Private Home Backyard/Near Metro,87583308457,verified,Ciprian,Bronx,Fordham,40.86909,-73.89395999999999,United States,US,True,strict,Private room,2018,$274 ,$55 ,3,74.0,6/19/2019,2.42,4,4,84,,
56589226,Lavish Upscale  Room. Unforgettable.,97366650555,unconfirmed,Iza,Manhattan,East Harlem,40.78983,-73.94419,United States,US,False,moderate,Private room,2015,$890 ,$178 ,1,73.0,7/1/2019,3.32,1,2,34,"No smoking and please be respectful of our downstairs neighbors when it comes to late night fun!  If you plan to have a party or event, please let us know in advance of booking!",
56589779,Serene atmosphere in Manhattan,90082301076,unconfirmed,Natalia,Manhattan,Inwood,40.87247,-73.91927,United States,US,True,flexible,Private room,2004,$987 ,$197 ,2,11.0,6/28/2019,0.36,5,1,29,No pets allowed. No smoking.,
56590331,Charming East Village Apartment with Patio,46826215935,unconfirmed,Mary Grace,Manhattan,East Village,40.72528,-73.98854,United States,US,False,strict,Private room,2005,$428 ,$86 ,3,0.0,,,2,1,0,"No Pets, No Smoking",
56590883,New Years Eve in a bright and airy UWS one bedroom,98166395478,verified,Sarah,Manhattan,Upper West Side,40.785920000000004,-73.97331,United States,US,False,flexible,Entire home/apt,2010,$911 ,$182 ,2,1.0,1/2/2017,0.03,2,1,0,,
56591436,"Great Room &Host, steps from #1 train",81521776430,verified,Dee,Manhattan,Harlem,40.82378,-73.95354,United States,US,True,moderate,Private room,2010,$812 ,$162 ,60,13.0,8/15/2018,0.67,3,4,0,No smoking or parties please. Kaya (the fluffiest dog you have ever seen) also insists that you pet her at least once during your stay :-),
56591988,Luxurious Studio In heart of NYC!,9701115437,verified,Amit,Manhattan,Theater District,40.75527,-73.98507,United States,US,False,flexible,Entire home/apt,2014,"$1,014 ",$203 ,2,5.0,11/8/2017,0.16,2,1,0,"We expect our guests to be respectful of our space, belongings and neighbors. Check out time is 11am and Check in time is 3pm.",
56592540,Quiet and cozy apartment in Greenwich Village,23257077523,unconfirmed,Sandra,Manhattan,NoHo,40.72571,-73.99506,United States,US,False,strict,Entire home/apt,2012,$991 ,$198 ,3,3.0,3/17/2017,0.1,2,1,0,,
56593093,Cozy and sunny 2 BR apartment in trendy Greenpoint,71093441633,unconfirmed,Suzanne,Brooklyn,Greenpoint,40.73475,-73.95543,United States,US,False,flexible,Entire home/apt,2014,$502 ,$100 ,4,4.0,1/1/2019,0.13,4,1,0,,
56593645,Great Bedroom in East Williamsburg (+ ROOFTOP!!),97414268834,verified,Brian,Brooklyn,Williamsburg,40.708059999999996,-73.9427,United States,US,True,moderate,Private room,2019,$111 ,$22 ,5,1.0,1/1/2017,0.03,5,2,0,Quiet hours are 10PM to 8AM. No Smoking no pets,
56594197,"Private 1 BR in 4 BR apartment, by L Train",59857359348,verified,Sasha,Brooklyn,Williamsburg,40.71443,-73.96154,United States,US,False,moderate,Private room,2014,$118 ,$24 ,1,4.0,6/24/2017,0.13,5,5,0,,
56594749,Luxury apartment in the heart of Williamsburg,16971408170,unconfirmed,Florian,Brooklyn,Williamsburg,40.718090000000004,-73.95383000000001,United States,US,False,flexible,Entire home/apt,2008,$511 ,$102 ,3,2.0,1/1/2018,0.07,2,1,0,Taking off shoes will be appreciated!,
56595302,East Village Studio Apt w/private Courtyard Oasis,36303725733,verified,Steven,Manhattan,East Village,40.7292,-73.98156,United States,US,True,strict,Entire home/apt,2021,$309 ,$62 ,6,1.0,1/5/2017,0.03,5,1,0,"Come as you are (only request: no smoke, no pets).",
56595854,Cozy shared male room at center of Manhattan III\),29790407460,unconfirmed,Max,Manhattan,Lower East Side,40.71239,-73.98626,United States,US,False,flexible,Shared room,2016,$154 ,$31 ,14,0.0,,,1,28,342,"Please be respectful of other guests.  Keep the common areas clean and pick up after your self.  No loud music after 10:00PM.  It is a safe neighborhood but please, keep doors locked for safety No smoking in the house (smoking is allowed on the front or back decks).",
56596406,Private Room in Sun-drenched Apartment,6075896485,unconfirmed,Anne,Manhattan,Harlem,40.80883,-73.94577,United States,US,True,flexible,Private room,2021,$402 ,$80 ,30,20.0,9/14/2018,0.65,3,1,15,"No pets, no smoking of any manner or tobacco products allowed.  This is my home and I expect guests to treat it with the same consideration and respect as they would show their own homes.",
56596959,Cozy Stylish Central Park Private Suite,8602101821,unconfirmed,Jack - Philippe,Manhattan,East Harlem,40.79677,-73.94823000000001,United States,US,True,flexible,Private room,2016,"$1,132 ",$226 ,2,85.0,7/1/2019,2.79,2,1,117,,
56597511,"Charming bedroom, great location !",44425787726,unconfirmed,Maude,Brooklyn,Williamsburg,40.70769,-73.94548,United States,US,False,moderate,Private room,2006,$606 ,$121 ,2,2.0,1/8/2017,0.07,1,1,0,,
56598063,"Cozy Apartment in Brooklyn, NY",58816755555,verified,Clifton,Brooklyn,Crown Heights,40.67816,-73.95111999999999,United States,US,False,moderate,Entire home/apt,2014,$819 ,$164 ,7,0.0,,,2,1,0,,
56598616,Sunny Studio Apartment,26637850039,unconfirmed,Felix,Manhattan,Harlem,40.82179,-73.94776999999999,United States,US,False,strict,Entire home/apt,2020,"$1,144 ",$229 ,4,0.0,,,3,1,0,Shoes must be removed after entering the house. The cats are strictly indoor. No smoking,
56599168,Room in The Heights!,6136373944,verified,Mordechai,Manhattan,Washington Heights,40.85204,-73.92886,United States,US,True,flexible,Private room,2013,"$1,167 ",$233 ,4,0.0,,,3,2,0,"NO SMOKING AND PETS ANYWHERE ON THE PROPERTY 1. Be respectful of the other tenants 2. When walking up the back stairwell into the unit, please minimize the amount of talking, door closing, and foot noise (these stairs border bedrooms) 3. If you use the grill, be sure to turn off the gas 4. Notify the owner of any discrepancies or things not functioning properly immediately 5. Please treat carpet stains promptly (or notify the owner) 6. Kindly turn off lights, air conditioners, and other electrical items when they aren't needed",
56599720,Private Studio & Kitchen in Renovated Brownstone,6509104247,unconfirmed,Mónica,Brooklyn,Bedford-Stuyvesant,40.68974,-73.94283,United States,US,True,moderate,Entire home/apt,2007,$418 ,$84 ,2,68.0,6/30/2019,2.28,5,1,232,,
56600272,Apartment in the heart of Williamsburg Brooklyn!,31197205401,unconfirmed,Mat,Brooklyn,Williamsburg,40.713809999999995,-73.95040999999999,United States,US,False,flexible,Entire home/apt,2004,$824 ,$165 ,1,112.0,6/23/2019,3.65,1,1,221,"Absolutely not smoking in the house. I am looking for easy going people, not for party people. This is a quiet neighborhood. People who can take care of our stuff.",
56600825,Bright and Cozy 1BR in Crown Heights,36114607787,verified,Morgan,Brooklyn,Crown Heights,40.677690000000005,-73.95309,United States,US,False,strict,Entire home/apt,2018,$851 ,$170 ,3,5.0,6/25/2019,0.17,3,1,8,"No smoking, keep clean and respect property",
56601377,"浪漫民宿,环境优美,停车方便,独立洗手间和马桶,浴室共用｡ (Website hidden by Airbnb)",71549130689,verified,Emmy,Queens,Flushing,40.75482,-73.80368,United States,US,True,flexible,Private room,2011,"$1,181 ",$236 ,1,52.0,2/14/2019,2.03,3,4,0,,
56601929,PENTHOUSE OASIS IN THE HEART OF CHELSEA /FLATIRON,19785703155,verified,Rami,Manhattan,Gramercy,40.73741,-73.99003,United States,US,True,moderate,Entire home/apt,2019,"$1,006 ",$201 ,10,9.0,2/17/2019,0.29,3,1,19,1.  No pets allowed. 2.  No smoking in the rooms. You may smoke in the yard but please don't leave the stubs in the grass etc.  3.No food in the bedroom.  4.Only water is allowed to drink in the bedroom. 5. Use slippers provided at the entrance or use your own slippers when you enter the house.  6. Please do not put your luggage on the top of the bed cover. 7. Living room and kitchen are closed at 10:00pm unless you need to get some water.,
56602482,COZY ROOM,22895971128,unconfirmed,Genya,Brooklyn,Sheepshead Bay,40.606640000000006,-73.95402,United States,US,False,strict,Private room,2011,$105 ,$21 ,1,0.0,,,2,1,0,#NAME?,
56603034,Midtown Loft,72198576549,verified,Lou,Manhattan,Midtown,40.75092,-73.98635999999999,United States,US,True,strict,Entire home/apt,2017,$660 ,$132 ,2,5.0,4/16/2017,0.16,1,1,0,* No smoking * No pets * No loud music,
56603586,Sunny and large bedroom in Williamsburg Apartment,3229442949,unconfirmed,Shachi,Brooklyn,Williamsburg,40.71451,-73.93959,United States,US,False,strict,Private room,2014,"$1,056 ",$211 ,1,7.0,5/22/2019,0.23,4,2,89,"- Absolutely NO SMOKING, vape-ing, drugs, or alcohol in the house. - Please no children under 10. The  house isn't child proofed. - Quiet hours 10p-8a. - Please no showering after midnight.    (The bathroom is attached to our bedroom. Unfortunately, we've had very loud guests.) - Laundry available per request. Thank you!",
56604139,Comfy Room in Cobble Hill,20966303778,unconfirmed,Jessica,Brooklyn,Carroll Gardens,40.683840000000004,-73.99065,United States,US,True,flexible,Private room,2006,"$1,043 ",$209 ,1,8.0,3/16/2018,0.26,5,1,0,#NAME?,
56604691,Studio in West Village,80084895104,unconfirmed,Dennis,Manhattan,West Village,40.73021,-74.00663,United States,US,False,flexible,Entire home/apt,2007,$990 ,$198 ,2,0.0,,,4,1,0,,
56605243,Beautiful Newly Renovated BK Apt with W&D in Unit,37832940861,verified,K.,Brooklyn,Bedford-Stuyvesant,40.6836,-73.93495,United States,US,True,strict,Entire home/apt,2006,$108 ,$22 ,4,68.0,5/26/2019,2.3,2,1,0,"1.     No pets allowed.  2.   No smoking inside the house, please.     3.   No wearing shoes inside the house. We will give you slippers (you could bring your own slippers) 4.  Quiet time starts at 10pm, and living room and kitchen are closed at that time.",
56605795,Brand New &Cozy  Room Close to Subway Station,88919385491,unconfirmed,Marlon,Manhattan,Harlem,40.82112,-73.95482,United States,US,False,strict,Private room,2015,$412 ,$82 ,4,22.0,12/31/2018,0.71,5,6,0,,
56606348,Bond Street 2 bedroom 2 bath great Noho location,36049954981,unconfirmed,Donna,Manhattan,NoHo,40.72501,-73.99323000000001,United States,US,True,moderate,Entire home/apt,2007,$481 ,$96 ,2,26.0,4/12/2019,0.9,3,1,10,,
56606900,"Near the City, Classic Brooklyn!",6084174898,unconfirmed,Yuki,Brooklyn,Bedford-Stuyvesant,40.68712,-73.94708,United States,US,True,moderate,Entire home/apt,2015,$916 ,$183 ,2,168.0,6/29/2019,5.45,4,1,203,,
56607452,Large Basement Bedroom With Kitchen,26189255313,unconfirmed,Jonathon,Brooklyn,Crown Heights,40.66713,-73.9411,United States,US,True,moderate,Private room,2006,$433 ,$87 ,4,46.0,6/30/2019,1.94,2,2,272,"No parties, no smoking.",
56608005,Bronx Beauty: Renovated historic rowhouse,1755529772,unconfirmed,Steven,Bronx,Hunts Point,40.81841,-73.89067,United States,US,False,flexible,Private room,2010,$405 ,$81 ,14,18.0,5/31/2019,0.68,1,4,332,No Smoking No Pets,
56608557,Cute and cozy space in Chinatown,87419284154,verified,Erika,Manhattan,Chinatown,40.71513,-73.9981,United States,US,False,moderate,Private room,2007,$362 ,$72 ,2,1.0,12/30/2016,0.03,2,1,0,"1. No wearing shoes inside the house. We will give you slippers (you could bring your own slippers) 2. Living room and kitchen are closed at 10 pm, and please be quiet after 10 pm",
56609109,South Slope Brooklyn Apartment!,33141674328,verified,Saquib,Brooklyn,Sunset Park,40.66033,-73.99623000000001,United States,US,True,flexible,Entire home/apt,2021,"$1,118 ",$224 ,2,0.0,,,1,1,0,,
56609662,Cute room near Columbia University,53947049825,verified,Mary,Manhattan,Morningside Heights,40.80324,-73.96432,United States,US,False,flexible,Private room,2018,$615 ,$123 ,4,0.0,,,4,1,0,Please no smoking.,
56610214,Charming and Convenient East Village Apartment,47902407654,verified,Mei Ni,Manhattan,East Village,40.72638,-73.97752,United States,US,False,moderate,Private room,2020,$258 ,$52 ,4,2.0,1/1/2018,0.07,4,1,39,"The house is absolutely NO SMOKING & NO PETS of any kind or size.   Please remove shoes when going in & settling down. You will find the place clean & spotless on your arrival so please be respectful of efforts made to deliver it as such to every guest and every time.  Please be respectful of apartment and its amenities. The rented apartment shall be occupied by no more than the number of listed adults and/or children on the reservation.  Visiting friends are welcome, however the establishment of obvious residence by such persons is NOT permitted.  Parties, large gatherings, or group events are absolutely not allowed in or around the property.  Please remove all trash from unit and place in trash & recycle containers outside the unit at corner of house by back porch.  Please collect all of your personal belongings upon your departure (double check bathrooms for personal items of any kind!).  Please try & help us keep all aspects of managing the apartment within budgeted costs: do not t",
56610766,Private room in beautiful apartment,20723754574,verified,Isaac,Brooklyn,Bedford-Stuyvesant,40.68635,-73.95535,United States,US,True,strict,Private room,2007,$113 ,$23 ,15,3.0,12/26/2016,0.1,2,1,0,Respectful and Responsible Keep room clean and tidy Clean up after using kitchen or bathroom,
56611318,Cozy Harlem Jewel,83934130862,unconfirmed,Liliana,Manhattan,Harlem,40.8228,-73.93956,United States,US,True,flexible,Private room,2011,"$1,153 ",$231 ,2,119.0,6/24/2019,3.82,1,1,198,We love our home and enjoy sharing it with others. We hope you'll treat it as with as much care as we do. Our neighbors are friendly and quiet. We hope you'll fit right in.,
56611871,"Chic, Sunny East Village Entire Apartment",89086243147,unconfirmed,Caitlin,Manhattan,East Village,40.72477,-73.9859,United States,US,True,strict,Entire home/apt,2011,$104 ,$21 ,4,10.0,12/22/2017,0.33,3,1,26,,
56612423,1st Floor room available in 3 br 2bath Apt,86943478653,unconfirmed,Nikolas,Queens,Astoria,40.76875,-73.92769,United States,US,False,moderate,Private room,2009,$416 ,$83 ,1,0.0,,,3,1,0,"1.     No pets allowed.  2.   No smoking inside the house, please.     3.   No wearing shoes inside the house. We will give you slippers (you could bring your own slippers) 4.  Living room and kitchen are closed at 10 pm, and please be quiet after 10 pm",
56612975,"Super Cute, Cozy, Sun-filled And Private",64711126011,unconfirmed,Katarina,Queens,Ridgewood,40.698209999999996,-73.8974,United States,US,False,flexible,Entire home/apt,2007,$669 ,$134 ,3,63.0,6/28/2019,4.42,1,2,50,,
56613528,Beautiful room in Brooklyn,74925803273,unconfirmed,Thai,Brooklyn,Bedford-Stuyvesant,40.68643,-73.95548000000001,United States,US,False,strict,Private room,2003,$428 ,$86 ,1,3.0,1/14/2017,0.1,4,1,0,This is a condominium with a resident below. Please be respectful of that.,
56614080,Holidays in NYC,12264394921,verified,Julia,Brooklyn,South Slope,40.66383,-73.983,United States,US,False,flexible,Entire home/apt,2021,$304 ,$61 ,4,0.0,,,1,1,0,,
56614632,Huge full floor loft on Broadway and Bleecker,42076240278,unconfirmed,David,Manhattan,Greenwich Village,40.727470000000004,-73.9969,United States,US,False,flexible,Entire home/apt,2009,$219 ,$44 ,3,15.0,7/2/2019,0.56,4,1,45,No smoking and illegal drug use. Please Minimize noise after 1030pm No guests,
56615185,Large 2 bed 2 bath modern apt. - Brooklyn Bridge,67977301314,unconfirmed,Andrew,Brooklyn,Downtown Brooklyn,40.695840000000004,-73.98465999999999,United States,US,False,moderate,Entire home/apt,2019,$673 ,$135 ,4,0.0,,,5,2,102,,
56615737,2 Bedrooms Entire Beautiful Apt in Williamsburg!,79511924902,verified,Sebastian,Brooklyn,Williamsburg,40.71372,-73.96231999999999,United States,US,True,flexible,Entire home/apt,2016,$332 ,$66 ,4,9.0,1/6/2019,0.42,4,2,291,No smoking  Ask about additional fee for pets,
56616289,Entire Duplex In The East Village,42974105081,unconfirmed,Douglas,Manhattan,East Village,40.72363,-73.97972,United States,US,False,moderate,Entire home/apt,2004,$697 ,$139 ,1,0.0,,,1,1,0,Respectful and with great attitudes,
56616841,Loft in Brooklyn,58449229609,verified,Shauna,Brooklyn,Bedford-Stuyvesant,40.68009,-73.94676,United States,US,True,moderate,Entire home/apt,2010,$472 ,$94 ,3,6.0,11/25/2017,0.2,2,1,0,We love our home and enjoy sharing it with others. We hope you'll treat it as with as much care as we do. Our neighbors are friendly and quiet. We hope you'll fit right in.,
56617394,Cozy and Modern apartment in Astoria,19396495892,verified,Liliana,Queens,Astoria,40.771209999999996,-73.92846999999999,United States,US,False,strict,Entire home/apt,2007,"$1,024 ",$205 ,7,1.0,12/30/2016,0.03,1,1,0,Shoes must be removed after entering the house. The cats are strictly indoor. No smoking,
56617946,Private Room blocks from Union Square,54143661675,verified,Claudio,Manhattan,Stuyvesant Town,40.73125,-73.97891,United States,US,True,moderate,Private room,2009,"$1,162 ",$232 ,1,0.0,,,4,1,0,- $20 per extra person. Maximum 2 person for attic room.,
56618498,Cozy 2Bedroom Apt. in Astoria,97915013410,unconfirmed,Carl,Queens,Astoria,40.76793,-73.91918000000001,United States,US,False,strict,Entire home/apt,2015,$110 ,$22 ,3,2.0,1/1/2019,0.11,4,1,0,- 1 floor,
56619051,"Big, sunny bedroom in apartment with modern decor",6273863194,unconfirmed,Michael,Brooklyn,Williamsburg,40.7131,-73.94981,United States,US,True,moderate,Private room,2013,$655 ,$131 ,28,14.0,9/29/2018,0.5,2,2,0,1. No pets allowed.  2. No Children under the age of 10 allowed.  3. No smoking inside the house. You may smoke outside.  4. No wearing shoes inside the house. We will give you slippers for you to wear.  5. Quiet time starts at 11pm,
56619603,90 Washington St Luxury apartment,86295450236,unconfirmed,Raymond,Manhattan,Financial District,40.70742,-74.01544,United States,US,False,flexible,Entire home/apt,2019,"$1,160 ",$232 ,30,1.0,2/4/2017,0.03,3,10,342,This listing is located in a residential area and so all the regular rules of living in a residential area apply.  Please be kind to the neighbors - we know and love them!  Please keep BBQs/outside activity to a minimum after 9 or 10PM.,
56620155,307 E 44th st 1BR great loc,68791738972,verified,Raymond,Manhattan,Midtown,40.75006,-73.97006999999999,United States,US,True,strict,Entire home/apt,2007,$993 ,$199 ,30,3.0,5/10/2018,0.12,1,10,350,"1. You must be 25 years of age to rent this home and provide proof of age, if requested. 2. This is a non-smoking home. Any evidence of smoking in and around the property will result in forfeiture of your security deposit. 3. The home has a maximum occupancy of six people. Renters who exceed the occupancy limit and or falsify information at the time of reservation are subject to eviction. 4. Well-behaved dogs are allowed with written owner permission at time of booking, additional fee and security deposit required 5. House parties are strictly prohibited and are grounds for immediate eviction. 6. Illegal substances are strictly prohibited and are grounds for immediate eviction. 7. When you arrive, the home will be clean and we request that you leave it in good order. We will provide you with a detailed check-in and check-out procedures, as well as the code for the keyless entry lock, several days prior to your arrival. 8. Any exception to the rules here must be approved in writing in a",
56620708,7 mins from Times Sq! Modern elevator building!,29736302365,unconfirmed,Eki,Manhattan,Hell's Kitchen,40.764179999999996,-73.98885,United States,US,False,flexible,Entire home/apt,2004,$987 ,$197 ,4,0.0,,,4,1,0,We love our home and enjoy sharing it with others. We hope you'll treat it as with as much care as we do. Our neighbors are friendly and quiet. We hope you'll fit right in.,
56621260,Charming studio in midtown east,29615329106,verified,Ali,Manhattan,Midtown,40.75827,-73.96195999999999,United States,US,True,strict,Entire home/apt,2017,$755 ,$151 ,5,7.0,5/20/2018,0.38,1,1,0,"No parties, no smoking.",
56621812,Master Bedroom in Stylish Apartment,64250363499,verified,Amitis,Brooklyn,Greenpoint,40.72838,-73.94739,United States,US,False,strict,Private room,2017,$672 ,$134 ,1,2.0,2/1/2017,0.07,1,1,0,Two guest maximum and no pets please. No smoking or candles.,
56622364,MANHATTAN MODERN NEAR CENTRAL PARK!,19229282026,unconfirmed,Peter,Manhattan,East Harlem,40.78676,-73.94376,United States,US,False,flexible,Private room,2018,$305 ,$61 ,3,21.0,6/21/2019,0.69,3,1,46,"I expect guest to respect that this is my personal home, I live here, and to fully respect the space and my belongings as you would your own.  This is not a hotel and the space does not feel like a hotel or rental that other guests are constantly moving in and out of. Please do not light candles in the house or anything that would be a fire hazard.  Please clean up after yourself.  No smoking in the house No pets please Please be respectful of my belongings and do not move anything around. When using the firepit, please use caution. If plants look like they could use a little water, feel free to give them a little!",
56622917,Brooklyn’s lovely Luxurious Suite sleeps 5,51988864434,unconfirmed,Sam,Brooklyn,Bay Ridge,40.63835,-74.02614,United States,US,False,moderate,Entire home/apt,2005,$115 ,$23 ,2,93.0,6/30/2019,3.02,1,1,217,,
56623469,Sunny Private Studio-Apartment,66697099636,verified,Alexandra,Manhattan,East Harlem,40.79583,-73.93595,United States,US,False,strict,Entire home/apt,2012,$429 ,$86 ,1,142.0,6/16/2019,4.62,5,3,11,,
56624021,Large 3bd 2 bath duplex in prime Greenpoint!,5788075980,verified,LeAndra,Brooklyn,Greenpoint,40.73292,-73.95987,United States,US,True,moderate,Entire home/apt,2015,"$1,049 ",$210 ,2,0.0,,,4,1,0,-We do not allow pets because we already have a small dog in the house but he is very friendly! -Please make sure to close the back door when you are coming in and out.,
56624574,"Не дорогая комната в Нью-Йорке, в Бруклине",68861281953,verified,Ella,Brooklyn,Coney Island,40.57751,-73.98521,United States,US,False,strict,Shared room,2022,$662 ,$132 ,2,1.0,12/18/2016,0.03,5,1,0,"Please be aware, check in is NO earlier than 6pm on weekdays. We can make no exceptions. Weekends are more flexible.",
56625126,Skyline #2 view ny skyline,27408443489,unconfirmed,Charles,Bronx,Concourse,40.823879999999996,-73.9279,United States,US,False,moderate,Private room,2019,$704 ,$141 ,2,53.0,7/1/2019,1.8,2,2,169,,
56625678,Budget stay in LUXURIOUS FIDI building,43776994325,unconfirmed,Emily,Manhattan,Financial District,40.706179999999996,-74.00385,United States,US,False,flexible,Private room,2003,$769 ,$154 ,15,3.0,10/7/2017,0.1,1,1,0,"Please no loud noise after 10pm as others do live here Check in after 3pm Check out at 11am Would appreciate it if you removed linens from bed post stay (not a requirement, just as a courtesy) NO SMOKING in room We do have an indoor porch if you're a smoker outside apartment",
56626231,Skyline #1 view ny skyline,32911862413,unconfirmed,Charles,Bronx,Concourse,40.82415,-73.92778,United States,US,False,strict,Private room,2019,$78 ,$16 ,2,63.0,7/1/2019,2.06,4,2,110,"This apartment is located on a third floor, no elevator. Guest must be considered and respectful with the noise level. No stumping or running please.",
56626783,"✨Bright, spacious apartment in the West Village❤️",67584035125,verified,Michael,Manhattan,West Village,40.73415,-74.00721,United States,US,True,flexible,Entire home/apt,2007,$916 ,$183 ,1,86.0,6/22/2019,2.76,3,1,236,"We ask that you are respectful of the space you are staying in. Please take off your shoes when you enter to help keep the space clean. Space heaters are available for use but should not be left on if you leave. The space is thickly insulated and sound proof so it retains heat very well. If you use the kitchen, please clean up after yourself. This is not a party house so please be respectful at late hours by not making tons of noise outside.",
56627335,Amazing ONE bedroom. Lots of light and style,15508801852,unconfirmed,Wendy,Manhattan,Greenwich Village,40.72934,-74.00025,United States,US,True,flexible,Entire home/apt,2014,$595 ,$119 ,5,14.0,4/17/2019,0.45,4,1,9,"Enjoy our home and please leave it clean & tidy like you found it :) Thank you for not smoking. Sorry, no pets even though we love them. We have nice respectful neighbors so no loud music or parties. Hanging out & music are fine just keep others in mind :)  Thank you!",
56627887,Cozy Junior 1BR in inwood.,12039046941,unconfirmed,Richard,Manhattan,Inwood,40.86663,-73.92390999999999,United States,US,True,strict,Entire home/apt,2022,$192 ,$38 ,2,4.0,9/4/2018,0.13,3,1,0,#NAME?,
56628440,Spacious Midtown Apt with window view & balcony,78475145750,unconfirmed,Amy,Manhattan,Hell's Kitchen,40.762170000000005,-73.99105,United States,US,True,moderate,Private room,2006,$746 ,$149 ,3,0.0,,,5,1,0,No Smoking. No Pets. Enjoy a morning cup of coffee as you sit on the shady porch. Like use of the kitchen area.,
56628992,Spectacular 2BR with NYC SKYLINE VIEW + ROOF DECK,20311171891,verified,Prithvi,Brooklyn,Williamsburg,40.706140000000005,-73.9487,United States,US,True,strict,Entire home/apt,2009,$864 ,$173 ,2,1.0,1/2/2017,0.03,5,1,0,be respectful Take off your shoes at the door,
56629544,Great Movie-like East Village aptmt,95832889337,verified,Rafael,Manhattan,East Village,40.72461,-73.9892,United States,US,False,flexible,Entire home/apt,2015,$907 ,$181 ,1,0.0,,,5,1,0,,
56630097,Lovely room in the lovely area of Williamsburg BK,63382392128,unconfirmed,Freya,Brooklyn,Williamsburg,40.71385,-73.95559,United States,US,True,moderate,Private room,2006,"$1,107 ",$221 ,2,3.0,1/2/2017,0.1,5,1,0,,
56630649,Cozy 1 bedroom in the heart of Fort Greene,91476179682,verified,Ithai,Brooklyn,Fort Greene,40.68529,-73.97365,United States,US,False,moderate,Entire home/apt,2008,$751 ,$150 ,3,0.0,,,5,1,0,No smoking.  No guests without previous discussion with host.,
56631201,room with view and bath,18029762804,unconfirmed,Mathilde,Queens,Flushing,40.7408,-73.82708000000001,United States,US,False,flexible,Private room,2009,$268 ,$54 ,1,0.0,,,3,1,0,No smoking  Respect to others,
56631754,Affordable bedroom in the East Village!,70435380280,verified,Nicolas,Manhattan,East Village,40.72351,-73.98389,United States,US,True,strict,Private room,2022,$184 ,$37 ,2,9.0,5/28/2017,0.29,5,1,0,"Smoking allowed outside, on grounds, pets under 10 lb sitting available additional charge and events possibly  pre aproved by owners,",
56632306,Large Private Room in Quiet BK Heights Apartment,44699170190,unconfirmed,Paige,Brooklyn,Brooklyn Heights,40.69797,-73.992,United States,US,False,moderate,Private room,2006,$918 ,$184 ,3,0.0,,,3,1,0,"Smoking: Absolutely no smoking indoors. If you need to smoke please do it on the porch and dispose of cigarette butts in the ashtrays provided. Additional Guests: Please do not arrive with more guests than are booked to stay nor invite visitors at any time. Children: The apartment is not suitable for children under the age of 12. Pets: We will graciously host friendly, well mannered, house trained dogs that are 50 pounds or less. We cannot accommodate cats or other pets. Facilities: Guests are expected to leave spaces clean and tidy after each use. Kitchen use is restricted to light use only: Kettle/Coffee, Microwave, and Refrigerator. Please take this into consideration when planning your stay. Quiqet Time: Please be aware that this is also our home.  Quiet time is from 11pm to 6am.",
56632858,Bright Spacious Home in Heart of Williamsburg NY,81719117357,unconfirmed,Ali,Brooklyn,Williamsburg,40.71385,-73.96046,United States,US,False,strict,Entire home/apt,2009,$161 ,$32 ,2,2.0,3/27/2017,0.07,5,3,0,This bedroom is available for a female guest only.  As a guest you will not be able to bring any friends/acquaintance during your stay. Cannot make loud noises inside or outside the house.,
56633410,"Great deal, full equiped room in Times Square",48383993000,verified,Adam,Manhattan,Theater District,40.75725,-73.98796,United States,US,False,strict,Private room,2006,"$1,169 ",$234 ,1,36.0,11/26/2017,1.18,3,1,0,"Note #1: Just be a good neighbor and respect your space and others. Note #2: Unit is second floor of building, Senior Citizens & Disabled may find difficult going upstairs.",
56633963,Cozy studio next to Wash Sq Park,25227643767,unconfirmed,Scott,Manhattan,Greenwich Village,40.73421,-73.9968,United States,US,True,flexible,Entire home/apt,2019,$470 ,$94 ,5,9.0,6/16/2017,0.29,2,1,0,,
56634515,Interfaith Retreat Guest Rooms (Bhakti),16473925491,unconfirmed,Alex And Zeena,Manhattan,Chelsea,40.747859999999996,-73.99651999999999,United States,US,True,flexible,Private room,2012,"$1,126 ",$225 ,1,84.0,6/23/2019,2.71,1,12,359,"In order to provide a  healthy, comfortable and safe environment the following rules must be respected and adhered to throughout your entire stay. Most of what follows is common sense or common courtesy. The rules serve to protect you as a guest by helping ensure the environment you find here is the one that we intended to create. Please keep in mind:  You will be sharing common areas with other guests or residents, and thus the cleanliness of the common areas is far more dependent upon all guests cleaning up after themselves, than it is upon my once a week cleaning. Most guests do very well in keeping common areas clean! House rules: Please do not drag luggage up the front stairs. Please leave things as they are in your room: do not remove pictures from walls, don't move furniture around, and do not remove mattress protector from the mattress. Also, it should not be necessary to say, but since some guests have done this, I must add: please do not take any of my personal possessions ou",
56635067,Interfaith Retreats (Devotion),27324096135,unconfirmed,Alex And Zeena,Manhattan,Chelsea,40.74929,-73.99545,United States,US,False,moderate,Private room,2018,$68 ,$14 ,1,113.0,6/23/2019,3.63,1,12,360,Respectful attitude would be asked. Respect would be returned!,
56635620,Bedroom in beautiful Brooklyn apartment,80963969673,unconfirmed,Jon,Brooklyn,Fort Greene,40.687129999999996,-73.97222,United States,US,True,moderate,Private room,2013,$247 ,$49 ,7,2.0,1/2/2017,0.06,1,1,0,,
56636172,Classic Downtown Loft,62189134324,verified,Erin,Manhattan,Chinatown,40.71698,-73.99629,United States,US,True,strict,Entire home/apt,2014,$688 ,$138 ,2,43.0,5/9/2019,1.39,1,1,66,"In order to provide a  healthy, comfortable and safe environment, the following are the rules of my house. It is your responsibility to not only read these rules once, but to be aware of and follow all of them throughout your stay at my home. Most of what follows is common sense or common courtesy. The rules serve to protect you as a guest by helping ensure that the environment you find here is the one that I intended to create. Please keep in mind:  You will be sharing common areas with other guests or residents, and thus the cleanliness of the common areas is far more dependent upon all guests cleaning up after themselves, than it is upon my once a week cleaning. Most guests do very well in keeping common areas clean! House rules: Please do not drag luggage up the front stairs. Please leave things as they are in your room: do not remove pictures from walls, don't move furniture around, and do not remove mattress protector from the mattress. Also, it should not be necessary to say, bu",
56636724,Private Bedroom + Shared House,72970221236,verified,Tak,Brooklyn,Brownsville,40.65958,-73.91113,United States,US,False,moderate,Private room,2017,$459 ,$92 ,1,7.0,3/1/2017,0.23,3,1,0,No Smoking  No unregistered guest No pets  When it rain or snow please remove shoes at the door,
56637277,Cozy & Affordable,2319338668,unconfirmed,Nash,Queens,Ridgewood,40.70443,-73.90656,United States,US,False,moderate,Private room,2005,"$1,141 ",$228 ,1,2.0,1/2/2017,0.07,4,1,0,"Enjoy our home and please leave it clean & tidy like you found it :) Thank you for not smoking. Sorry, no pets even though we love them. We have nice respectful neighbors so no loud music or parties.  Hanging out & music are fine just keep others in mind :) Thank you!",
56637829,"Beautiful Double Room - Heart of Clinton Hill, BK",38575050754,unconfirmed,Loreley,Brooklyn,Clinton Hill,40.686040000000006,-73.9676,United States,US,False,strict,Private room,2014,$658 ,$132 ,1,2.0,5/16/2017,0.07,3,1,0,"No Smoking, no pets, no parties and anyone coming to visit would need to be known beforehand. Along with any issue of the other amenities of the house other than the room you will be renting.",
56638381,Hip Luxury Stay w Private Bath 5 min to Manhattan,27768268263,verified,Roberson,Brooklyn,Williamsburg,40.71499,-73.95561,United States,US,True,moderate,Private room,2012,$396 ,$79 ,3,5.0,7/13/2017,0.16,1,1,0,"House Rules This is a Non-Smoking, pet free home; and  our guests must use the outdoors if they wish to smoke.  Additionally, I love my home and my neighbors are great, so I also ask our guests to be respectful of both and treat my home as well as their own.  Enjoy your stay while here in Boston -  a great city!!",
56638933,"Master bedroom , your own bathroom in 2bed apart",82298848315,verified,Viktoria,Manhattan,East Harlem,40.79227,-73.94536,United States,US,True,strict,Private room,2014,"$1,034 ",$207 ,1,138.0,6/30/2019,5.31,4,1,34,,
56639486,Cozy room in Beautiful Brooklyn!,11089056532,unconfirmed,Elís,Brooklyn,Bedford-Stuyvesant,40.68273,-73.93397,United States,US,True,flexible,Private room,2020,$166 ,$33 ,30,2.0,12/31/2016,0.07,4,1,0,,
56640038,"Williamsburg, Private Bedroom, 2 blocks from L",3967809459,unconfirmed,Omar,Brooklyn,Williamsburg,40.71518,-73.94151,United States,US,False,strict,Private room,2014,$804 ,$161 ,3,0.0,,,5,1,0,#NAME?,
56640590,Apartment in Soho on Edge of West Village,65584765109,unconfirmed,Carl,Manhattan,Greenwich Village,40.72829,-74.00233,United States,US,False,strict,Entire home/apt,2009,$372 ,$74 ,3,2.0,1/4/2017,0.07,3,1,0,"Available Upon Arrival - Looking for nice, neat, non smoking, responsible, and independent person(s).",
56641143,Cozy bedroom near George Washington Bridge,78669008993,verified,Yifei,Manhattan,Washington Heights,40.850190000000005,-73.94093000000001,United States,US,False,moderate,Shared room,2015,$339 ,$68 ,1,0.0,,,1,1,0,Available Upon Arrival,
56641695,Small Room,36641630204,unconfirmed,Ira,Manhattan,Lower East Side,40.71777,-73.98526,United States,US,False,flexible,Private room,2005,$488 ,$98 ,1,6.0,1/1/2018,0.2,4,1,0,Have fun and be respectful of  others Pets are allowed after discussion as long as they are well trained and picked up after.,
56642247,Hidden Gem in Crown Heights,70736100458,verified,Yobiel,Brooklyn,Crown Heights,40.6754,-73.94977,United States,US,False,strict,Entire home/apt,2020,"$1,128 ",$226 ,1,0.0,,,5,1,0,"No smoking, no pets. Use of kitchen is limited to breakfast with a continental breakfast provided and use of coffee maker, toaster and hot water.. We cannot allow cooking.  You may store drinks and snacks in the refrigerator.",
56642800,Enjoy my apartment for the summer!,79179897166,unconfirmed,Aaron,Manhattan,Washington Heights,40.83985,-73.93715,United States,US,False,flexible,Entire home/apt,2015,$557 ,$111 ,3,14.0,6/29/2019,0.45,4,1,0,"No smoking or drug use.  No parties.  No guests other than those specified in your booking. No moving of furniture without asking Turn lights off when not in use No food in rooms, food can be stored in kitchen area Front door stays unlocked until 9pm, after ring doorbell or call host ((PHONE NUMBER HIDDEN) or (PHONE NUMBER HIDDEN)) Kitchen is not for use Check-out time no later than 11am Host's food is off limits only what is serve and put out for breakfast!",
56643352,Williamsburg 2BR. Close to L train,67817174785,unconfirmed,Jazz,Brooklyn,Williamsburg,40.71058,-73.95294,United States,US,True,strict,Entire home/apt,2005,$941 ,$188 ,1,133.0,6/29/2019,4.34,2,1,359,"No smoking or drug use.  No parties.  No guests other than those specified in your booking. No moving of furniture without asking Turn lights off when not in use No food in rooms, food can be stored in kitchen area Front door stays unlocked until 9pm, after ring doorbell or call host ((PHONE NUMBER HIDDEN) or (PHONE NUMBER HIDDEN)) Kitchen not for use Check-out time no later than 11am Host's food is off limits only what is serve and put out for breakfast!",
56643904,Columbus Circle Single Bedroom,54617313607,verified,Laurie,Manhattan,Hell's Kitchen,40.76514,-73.98550999999999,United States,US,False,strict,Private room,2017,$333 ,$67 ,7,0.0,,,1,1,0,"No smoking or drug use.  No parties.  No drinking of alcohol in room""p No guests other than those specified in your booking. No moving of furniture without asking Turn lights off when not in use No food in rooms, food can be stored in kitchen area Kitchen not in use Check-out time no later than 11am Host's food is off limits only what is serve and put out for breakfast!",
56644456,Full 1 bedroom apt in an awesome area!,17076049748,unconfirmed,Verun,Manhattan,Kips Bay,40.74301,-73.98037,United States,US,False,moderate,Entire home/apt,2021,$997 ,$199 ,4,2.0,5/27/2017,0.07,5,1,0,,
56645009,Wonderful UES Studio...,59839991968,unconfirmed,Eddie,Manhattan,Upper East Side,40.77848,-73.9486,United States,US,True,strict,Private room,2015,$410 ,$82 ,7,1.0,1/2/2017,0.03,1,1,0,,
56645561,Private room in the heart of East village,57387972883,verified,Chris,Manhattan,East Village,40.72258,-73.98148,United States,US,True,strict,Private room,2020,$797 ,$159 ,3,5.0,3/19/2019,0.19,5,2,0,,
56646113,Room in 3 bed apt/w parking- Wburg.,97470712247,verified,Austin,Brooklyn,Williamsburg,40.71614,-73.94134,United States,US,True,flexible,Private room,2022,$353 ,$71 ,2,0.0,,,4,1,0,,
56646666,Washington Heights Oasis,27550399152,verified,Andrew,Manhattan,Washington Heights,40.84369,-73.93890999999999,United States,US,False,flexible,Entire home/apt,2006,$280 ,$56 ,7,0.0,,,1,1,0,,
56647218,Cheap large room with desk 10 min to JFK+ Mall,34687936018,unconfirmed,Guelma,Queens,Rosedale,40.653220000000005,-73.73366,United States,US,False,flexible,Private room,2003,"$1,056 ",$211 ,15,92.0,10/21/2018,2.96,5,5,356,Please no smoking or drugs. No parties.,
56647770,"Cozy apartment in the Lower East Side, NYC!",59327852331,verified,Eva,Manhattan,Lower East Side,40.718,-73.98496999999999,United States,US,False,flexible,Entire home/apt,2013,$339 ,$68 ,8,3.0,11/30/2017,0.1,5,1,0,Please be respectful and courteous of other house guests.   Please keep all common areas clean after each use i.e. kitchen and bathroom. No smoking  No pets No parties No back yard access,
56648323,Beautiful 1 Bedroom in Bedstuy with Private Yard,5554446131,verified,Nathan,Brooklyn,Bedford-Stuyvesant,40.69332,-73.95023,United States,US,False,strict,Entire home/apt,2009,$576 ,$115 ,7,4.0,11/19/2017,0.13,1,1,0,Absolutely NO smoking NOR use of drugs.  And NO shoes in the house! You will be requested to take off your shoes at the entrance.   Please Bring a positive attitude and fun spirit!,
56648875,Bright & Sunny Oasis in East Village,31565543041,verified,Katia,Manhattan,East Village,40.72249,-73.98145,United States,US,True,strict,Entire home/apt,2019,$477 ,$95 ,2,24.0,6/21/2019,0.77,1,1,0,,
56649427,Brownstone on a tree-lined street in NYC,4885423443,unconfirmed,Jeffrey,Manhattan,Harlem,40.80669,-73.9497,United States,US,False,moderate,Entire home/apt,2017,$314 ,$63 ,5,2.0,7/29/2017,0.07,5,2,0,"We don't allow smoking, drug use, excessive parties, or loud music out of respect for our neighbors.  Please treat our home like your own! ",
56649979,Small Room in Big Williamsburg Apartment,83389510148,unconfirmed,Marco,Brooklyn,Williamsburg,40.71048,-73.96292,United States,US,False,moderate,Private room,2006,$484 ,$97 ,29,17.0,11/30/2018,0.55,1,1,0,#NAME?,
56650532,AMAZING LOCATION - Heart of CHELSEA / Manhattan,25688185356,verified,Ania,Manhattan,Chelsea,40.741820000000004,-73.99904000000001,United States,US,True,moderate,Private room,2022,$542 ,$108 ,1,75.0,6/23/2019,3.95,5,1,19,"Quiet hours are 10 PM to 6 AM.  No smoking, even outside.  No pets.  We already have one.",
56651084,Artists Bright Eclectic Home & Studio,30446101910,verified,Ana Cristina,Brooklyn,Williamsburg,40.70735,-73.94032,United States,US,True,strict,Entire home/apt,2005,$860 ,$172 ,4,41.0,2/22/2019,1.44,1,1,0,,
56651636,"Sixth Ave Chelsea, Studio Serviced Apartment",78657179937,unconfirmed,Ken,Manhattan,Chelsea,40.74569,-73.9922,United States,US,True,flexible,Entire home/apt,2015,$589 ,$118 ,30,0.0,,,2,87,357,"No smoking or drug use.  No parties.  No guests other than those specified in your booking. No moving of furniture without asking Turn lights off when not in use No food in rooms, food can be stored in kitchen area Front door stays unlocked until 9pm, after ring doorbell or call host (phone number hidden) or (phone number hidden)) Kitchen not for use Check-out time no later than 11am Host's food is off limits only what is serve and put out for breakfast!",
56652189,"Sixth Ave Chelsea, 1bd Serviced Apartment",35942814226,verified,Ken,Manhattan,Chelsea,40.74613,-73.99178,United States,US,True,strict,Entire home/apt,2018,$982 ,$196 ,30,1.0,3/15/2019,0.26,5,87,358,"Please be respectful, Thank you !",
56652741,Fort Greene apartment,82242550185,verified,Emi,Brooklyn,Fort Greene,40.69613,-73.97364,United States,US,True,moderate,Private room,2018,$240 ,$48 ,3,0.0,,,2,2,0,"Please be respectful, Thank you !",
56653293,Bright Brooklyn Room close to Manhattan,94552686490,verified,Lia,Brooklyn,Bedford-Stuyvesant,40.67988,-73.93945,United States,US,True,moderate,Private room,2014,$608 ,$122 ,21,5.0,9/18/2017,0.19,2,2,0,,
56653846,Wyndham 2 double beds hotel room,16979877211,verified,Rich,Manhattan,Midtown,40.75222,-73.97276,United States,US,False,strict,Entire home/apt,2017,$429 ,$86 ,2,0.0,,,3,4,0,,
56654398,Bedroom in Spacious Williamsburg Loft,70733656087,verified,Andrea,Brooklyn,Williamsburg,40.70675,-73.96768,United States,US,True,strict,Private room,2009,$968 ,$194 ,2,3.0,6/2/2017,0.11,5,1,0,,
56654950,Bronx Cozy Spacious Room close to NYC Subway,60617350235,unconfirmed,Jenny,Bronx,Longwood,40.82441,-73.89454,United States,US,False,strict,Private room,2007,"$1,018 ",$204 ,3,61.0,6/24/2019,2.17,2,2,22,No Smoking No Pets,
56655502,Prospect Park Brownstone full floor w/garden,90690931459,verified,Darryl Diego,Brooklyn,Prospect-Lefferts Gardens,40.66024,-73.95518,United States,US,True,flexible,Entire home/apt,2017,$386 ,$77 ,4,26.0,6/23/2019,1.18,1,1,145,,
56656055,Spacious room with amazing view,73658748511,verified,Kenza,Manhattan,East Village,40.72726,-73.98037,United States,US,False,moderate,Private room,2022,$434 ,$87 ,2,3.0,12/20/2017,0.1,5,1,0,,
